guid,location_name,coordinates,lat,lon,Dupe,,,,,Coord - Rounded1,Coord - Rounded2,lat - Rounded1,lat - Rounded2,Mismatch Check,,
000cc2b6ec2ef98f144c7aa891fd55f4,"Sprint HQ, Shawnee Mission, KS, USA","38.9156634, -94.6587588",38.9156634,-94.6587588,1,,,,,38.916,-94.659,38.916,-94.659,Match,,
0020e59f334b6d2d0aca9522978c7161,"Newport Beach, CA, USA","33.6188829, -117.9298493",33.6188829,-117.9298493,1,,,,,33.619,-117.93,33.619,-117.93,Match,,
003479fc399388aad462f50fe8fb6932,"Toledo, OH, USA","41.6528052, -83.5378674",41.6528052,-83.5378674,1,,,,,41.653,-83.538,41.653,-83.538,Match,,
003a9b1316daa8730552228666cd4ec4,"Bellevue, WA, USA","47.6101497, -122.2015159",47.6101497,-122.2015159,1,,,,,47.61,-122.202,47.61,-122.202,Match,,
004cecc8b143dfac1a955b4e95cfa5fd,"Scottsdale, AZ, USA","33.4941704, -111.9260519",33.4941704,-111.9260519,1,,,,,33.494,-111.926,33.494,-111.926,Match,,
0063d08b0ebdbd360e972ba69fc5eb90,"Evenemangsgatan 13, Solna 169 56","59.36937139999999, 18.0028503",59.3693714,18.0028503,1,,,,,59.369,18.003,59.369,18.003,Match,,
0089f1981753a537d2359de733eee89f,"Calgary, Alberta, Canada","51.0447331, -114.0718831",51.0447331,-114.0718831,1,,,,,51.045,-114.072,51.045,-114.072,Match,,
008d5bcd910f8740470098544d380397,"Carlsbad, CA, USA","33.1580933, -117.3505939",33.1580933,-117.3505939,1,,,,,33.158,-117.351,33.158,-117.351,Match,,
00a1750f4366a8b59a4701841f4054bd,"New York, NY, USA","40.7127753, -74.0059728",40.7127753,-74.0059728,1,,,,,40.713,-74.006,40.713,-74.006,Match,,
00ada8d42a1bb66cd17e929457ef947f,"Billerica, MA, USA","42.5584218, -71.2689461",42.5584218,-71.2689461,1,,,,,42.558,-71.269,42.558,-71.269,Match,,
00b770c21739a7cc34531966d0b61cf7,"Chicago, IL, USA","41.8781136, -87.6297982",41.8781136,-87.6297982,1,,,,,41.878,-87.63,41.878,-87.63,Match,,
00bd9c11bdc285ed103d62d63a6288a9,"Tempe, AZ, USA","33.4255104, -111.9400054",33.4255104,-111.9400054,1,,,,,33.426,-111.94,33.426,-111.94,Match,,
00c810b4cd9910f366999eed86c7ad94,"Philadelphia, PA, USA","39.9525839, -75.1652215",39.9525839,-75.1652215,1,,,,,39.953,-75.165,39.953,-75.165,Match,,
00ddc68bbfed3f660eea7706b0222973,"East Aurora, NY, USA","42.7678376, -78.6133589",42.7678376,-78.6133589,1,,,,,42.768,-78.613,42.768,-78.613,Match,,
00e62327312dc705cff554c38d2a7579,"West Henrietta, NY, USA","43.0384885, -77.6632587",43.0384885,-77.6632587,1,,,,,43.038,-77.663,43.038,-77.663,Match,,
00e8b4eef174ca6f316c6918a6065b3d,"The Woodlands, TX, USA","30.1658207, -95.4612625",30.1658207,-95.4612625,1,,,,,30.166,-95.461,30.166,-95.461,Match,,
00e97894e1f34ec5589493ef8a61e702,"Phoenix, AZ, USA","33.4483771, -112.0740373",33.4483771,-112.0740373,1,,,,,33.448,-112.074,33.448,-112.074,Match,,
011fe63694d418eab3bd004f8a584244,"Hopkinton, MA, USA","42.2286954, -71.5225646",42.2286954,-71.5225646,1,,,,,42.229,-71.523,42.229,-71.523,Match,,
012fdfe13c1898c8c6bffbaf73675857,"San Diego, CA, USA","32.715738, -117.1610838",32.715738,-117.1610838,1,,,,,32.716,-117.161,32.716,-117.161,Match,,
0134943b8e706b84362d94e05af56dc5,"San Jose, CA, USA","37.3382082, -121.8863286",37.3382082,-121.8863286,1,,,,,37.338,-121.886,37.338,-121.886,Match,,
0145ed5ce456dac76ff02b90a908c43e,"Santa Clara, CA, USA","37.3541079, -121.9552356",37.3541079,-121.9552356,1,,,,,37.354,-121.955,37.354,-121.955,Match,,
015060df6c6bb5da5b07437494d16f7c,"Hamilton, NJ, USA","40.2115109, -74.6796651",40.2115109,-74.6796651,1,,,,,40.212,-74.68,40.212,-74.68,Match,,
0167cc9d2d474b4bca33ebb4a7eedb4c,"Ruston, LA, USA","32.5232053, -92.637927",32.5232053,-92.637927,1,,,,,32.523,-92.638,32.523,-92.638,Match,,
017ca544d463f07adcdb2563efcd3974,"Mayville, WI, USA","43.4941611, -88.5448237",43.4941611,-88.5448237,1,,,,,43.494,-88.545,43.494,-88.545,Match,,
0187ff9dc7ac8310a42d2e3711b411d2,"Blairsville, GA, USA","34.8761989, -83.9582412",34.8761989,-83.9582412,1,,,,,34.876,-83.958,34.876,-83.958,Match,,
0196cad595b88522cd4d49a42e1e4326,"Richmond, VA, USA","37.5407246, -77.4360481",37.5407246,-77.4360481,1,,,,,37.541,-77.436,37.541,-77.436,Match,,
01b30b77d6279bb93a2696cba0d182ab,"Brisbane, CA, USA","37.6807661, -122.3999715",37.6807661,-122.3999715,1,,,,,37.681,-122.4,37.681,-122.4,Match,,
01b4b107f5a4a0d3afb39a4bffcf995b,"Williamsville, NY, USA","42.963947, -78.7378091",42.963947,-78.7378091,1,,,,,42.964,-78.738,42.964,-78.738,Match,,
01ba3fde2a406ac8310152af4de26449,"St. Paul, MN, USA","44.9537029, -93.0899578",44.9537029,-93.0899578,1,,,,,44.954,-93.09,44.954,-93.09,Match,,
01ca05d56934b8d8791be82fe30f96a3,"Minnetonka, MN, USA","44.9211836, -93.4687489",44.9211836,-93.4687489,1,,,,,44.921,-93.469,44.921,-93.469,Match,,
01d92a15c63bfa97fffd10cbb3f66685,"South San Francisco, CA, USA","37.654656, -122.4077498",37.654656,-122.4077498,1,,,,,37.655,-122.408,37.655,-122.408,Match,,
01f133ea175d10535bad81e71174bf21,"Montreal, Quebec, Canada","45.5016889, -73.567256",45.5016889,-73.567256,1,,,,,45.502,-73.567,45.502,-73.567,Match,,
01f31f96c2cf2e1ab9677fd12a12a262,"Tampa, FL, USA","27.950575, -82.4571776",27.950575,-82.4571776,1,,,,,27.951,-82.457,27.951,-82.457,Match,,
020cce34368d045922c32ff4a1ac63dc,"Buffalo Wild Wings HQ, Minneapolis, MN, USA","44.9713611, -93.3502713",44.9713611,-93.3502713,1,,,,,44.971,-93.35,44.971,-93.35,Match,,
021b6b3dc5356209a31c30c777b286fb,"McLean, VA, USA","38.9338676, -77.1772604",38.9338676,-77.1772604,1,,,,,38.934,-77.177,38.934,-77.177,Match,,
02253ec0d7d4b8bf2e93fe193283b828,"Cranbury, NJ, USA","40.3025907, -74.511172",40.3025907,-74.511172,1,,,,,40.303,-74.511,40.303,-74.511,Match,,
023cc77f9b08a65bbe11988e5df603b6,"Vancouver, British Columbia, Canada","49.2827291, -123.1207375",49.2827291,-123.1207375,1,,,,,49.283,-123.121,49.283,-123.121,Match,,
02646cec0403502d50f26e178376036b,"Hangzhou, Zhejiang Province, China","30.274084, 120.15507",30.274084,120.15507,1,,,,,30.274,120.155,30.274,120.155,Match,,
028a91448733d3030ed7a7c22f140252,"Exton, PA, USA","40.0325817, -75.6274583",40.0325817,-75.6274583,1,,,,,40.033,-75.627,40.033,-75.627,Match,,
029138a9a8fb1efc716e7c36fc654732,"Atlanta, GA, USA","33.7489954, -84.3879824",33.7489954,-84.3879824,1,,,,,33.749,-84.388,33.749,-84.388,Match,,
02949bc42b93d14a4d83c08185fa8843,"Newport Beach, CA, USA","33.6188829, -117.9298493",33.6188829,-117.9298493,1,,,,,33.619,-117.93,33.619,-117.93,Match,,
029b8626847fdc22ef1f0684a4fb2300,"Coca-Cola HQ, Atlanta, GA, USA","33.7542763, -84.3818443",33.7542763,-84.3818443,1,,,,,33.754,-84.382,33.754,-84.382,Match,,
02ad85b36968c97d9ffde16311354801,"New York, NY, USA","40.7127753, -74.0059728",40.7127753,-74.0059728,1,,,,,40.713,-74.006,40.713,-74.006,Match,,
02aeb96a90be512f109806389864985f,"Miami, FL, USA","25.7616798, -80.1917902",25.7616798,-80.1917902,1,,,,,25.762,-80.192,25.762,-80.192,Match,,
02ba328af66881e6257eea0ee8b12940,"Vancouver, British Columbia, Canada","49.2827291, -123.1207375",49.2827291,-123.1207375,1,,,,,49.283,-123.121,49.283,-123.121,Match,,
02ba6c1e11284189e336b8010110afe9,"San Diego, CA, USA","32.715738, -117.1610838",32.715738,-117.1610838,1,,,,,32.716,-117.161,32.716,-117.161,Match,,
02bade0ff1939564e2d8d700c097a49c,"Fairmont, WV, USA","39.4850848, -80.1425781",39.4850848,-80.1425781,1,,,,,39.485,-80.143,39.485,-80.143,Match,,
02bb70447de9693f04485333ef4b4798,"Chesterbrook, PA, USA","40.0756627, -75.4590816",40.0756627,-75.4590816,1,,,,,40.076,-75.459,40.076,-75.459,Match,,
02bd0e47a12c5bdc4b196799617ea432,"Pittsburgh, PA, USA","40.4406248, -79.9958864",40.4406248,-79.9958864,1,,,,,40.441,-79.996,40.441,-79.996,Match,,
02c7a5aec4ab6e7a0eee0c81b3a5c031,"Billerica, MA, USA","42.5584218, -71.2689461",42.5584218,-71.2689461,1,,,,,42.558,-71.269,42.558,-71.269,Match,,
02c8d53a7c2cfb92e8e61245cb1b7870,"New Hartford, NY, USA","43.073403, -75.2876661",43.073403,-75.2876661,1,,,,,43.073,-75.288,43.073,-75.288,Match,,
02d7d89c018226bd9635f2c9a6721af1,"Guangzhou, Guangdong Province, China","23.12911, 113.264385",23.12911,113.264385,1,,,,,23.129,113.264,23.129,113.264,Match,,
02d90a58a94c5481e96fca9e472033d2,"New Prague, MN, USA","44.5432966, -93.5760652",44.5432966,-93.5760652,1,,,,,44.543,-93.576,44.543,-93.576,Match,,
02daa7fb74bbbce1b40d8bbf34fb8d35,"Luxembourg City, Luxembourg","49.611621, 6.1319346",49.611621,6.1319346,1,,,,,49.612,6.132,49.612,6.132,Match,,
0301370d7ead305aaa177f9cb1c3fcbf,"New York, NY, USA","40.7127753, -74.0059728",40.7127753,-74.0059728,1,,,,,40.713,-74.006,40.713,-74.006,Match,,
033f954212cc151e3b9c35d8ec1468c5,"Greensboro, NC, USA","36.0726354, -79.7919754",36.0726354,-79.7919754,1,,,,,36.073,-79.792,36.073,-79.792,Match,,
035bff5375d7dfb7c32bf4b25fb76c3e,"Bethesda, MD, USA","38.984652, -77.0947092",38.984652,-77.0947092,1,,,,,38.985,-77.095,38.985,-77.095,Match,,
0363c8711ca6883c7d1c908520210f61,"ANZ Bank HQ, Melbourne, Australia","-37.8217935, 144.9449132",-37.8217935,144.9449132,1,,,,,-37.822,144.945,-37.822,144.945,Match,,
036500462c2ebcdf424b964b723b4802,"Cleveland, OH, USA","41.49932, -81.6943605",41.49932,-81.6943605,1,,,,,41.499,-81.694,41.499,-81.694,Match,,
03653b1fefed138cb7ea59ed72acbe73,"King Of Prussia, PA, USA","40.1010556793651, -75.38525807918803",40.10105568,-75.38525808,1,,,,,40.101,-75.385,40.101,-75.385,Match,,
0367744aea8ba9c2124d38c05298b283,"Seattle, WA, USA","47.6062095, -122.3320708",47.6062095,-122.3320708,1,,,,,47.606,-122.332,47.606,-122.332,Match,,
0374995531edf70486e6f81e15b674a5,"Richmond, VA, USA","37.5407246, -77.4360481",37.5407246,-77.4360481,1,,,,,37.541,-77.436,37.541,-77.436,Match,,
037f6fd4bcfeb6e41cf30d7fe3ea842d,"New York, NY, USA","40.7127753, -74.0059728",40.7127753,-74.0059728,1,,,,,40.713,-74.006,40.713,-74.006,Match,,
03ac26ec204a2152efd65b8517254eb0,"Dallas, TX, USA","32.7766642, -96.7969879",32.7766642,-96.7969879,1,,,,,32.777,-96.797,32.777,-96.797,Match,,
03b5a3ccd7d899254a9f250e3f935207,"Carnival HQ, Miami, FL, USA","25.8068316, -80.3355508",25.8068316,-80.3355508,1,,,,,25.807,-80.336,25.807,-80.336,Match,,
03c02166ce6a0a2a586a1a187cc6f2f0,"Kimberly Clark HQ, Irving, TX, USA","32.8693839, -96.9499046",32.8693839,-96.9499046,1,,,,,32.869,-96.95,32.869,-96.95,Match,,
041139abc43b78c68ca56ce5581d9c5d,"Merrimack, NH, USA","42.8678693, -71.4948322",42.8678693,-71.4948322,1,,,,,42.868,-71.495,42.868,-71.495,Match,,
0411603925d4b22c6ed2c61377e2dbff,"Salt Lake City, UT, USA","40.7607793, -111.8910474",40.7607793,-111.8910474,1,,,,,40.761,-111.891,40.761,-111.891,Match,,
0418a0a4e040c32094e32322b411955d,"Homeland War 61, 21000 Split","43.5081323, 16.4401935",43.5081323,16.4401935,1,,,,,43.508,16.44,43.508,16.44,Match,,
042ba59ad9ae707a01a50031af51c318,"Oxford, MA, USA","42.1167606, -71.8647577",42.1167606,-71.8647577,1,,,,,42.117,-71.865,42.117,-71.865,Match,,
043c6c0ca0591407e1957884dcebe9a8,"Edgewood, NY, USA","42.140367, -74.2123659",42.140367,-74.2123659,1,,,,,42.14,-74.212,42.14,-74.212,Match,,
04481aaa97083d138e7b99c935d410e8,"Jericho, NY, USA","40.7920441, -73.5398476",40.7920441,-73.5398476,1,,,,,40.792,-73.54,40.792,-73.54,Match,,
046301cda57342a1c23a1a1175221823,"Framingham, MA, USA","42.279286, -71.4161565",42.279286,-71.4161565,1,,,,,42.279,-71.416,42.279,-71.416,Match,,
04639d440b159a8785371ffaed882d8d,"Greensboro, NC, USA","36.0726354, -79.7919754",36.0726354,-79.7919754,1,,,,,36.073,-79.792,36.073,-79.792,Match,,
047d07d5577adaeb48cff0b6babc2182,"Vancouver, British Columbia, Canada","49.2827291, -123.1207375",49.2827291,-123.1207375,1,,,,,49.283,-123.121,49.283,-123.121,Match,,
049b68035e7536d851203340cb8acbd8,"Houston, TX, USA","29.7604267, -95.3698028",29.7604267,-95.3698028,1,,,,,29.76,-95.37,29.76,-95.37,Match,,
04d198d7d4f14e412c2639b980e1ac31,"Burberry Limited HQ, Louisville, KY, USA","38.1279979, -85.89371039999999",38.1279979,-85.8937104,1,,,,,38.128,-85.894,38.128,-85.894,Match,,
04d5a36ed0f4c69da15a6720b9cb4e68,"Pleasanton, CA, USA","37.6604484, -121.8757968",37.6604484,-121.8757968,1,,,,,37.66,-121.876,37.66,-121.876,Match,,
04d9e8b3ae29ff4d6b4c7c8dcd1eeea0,"Philadelphia, PA, USA","39.9525839, -75.1652215",39.9525839,-75.1652215,1,,,,,39.953,-75.165,39.953,-75.165,Match,,
05139777d94554250cfc2e868c327364,"George Town, Grand Cayman, Cayman Islands","19.2869323, -81.3674389",19.2869323,-81.3674389,1,,,,,19.287,-81.367,19.287,-81.367,Match,,
0548ac98ef4813bed2ad9e580108a8e3,"Orlando, FL, USA","28.5383355, -81.3792365",28.5383355,-81.3792365,1,,,,,28.538,-81.379,28.538,-81.379,Match,,
05504e905d4bece7b01a7bdeb2fd0920,"Jericho, NY, USA","40.7920441, -73.5398476",40.7920441,-73.5398476,1,,,,,40.792,-73.54,40.792,-73.54,Match,,
0550e43c304d63d2916ed7f3012d3d4f,"Malvern, PA, USA","40.0362184, -75.5138118",40.0362184,-75.5138118,1,,,,,40.036,-75.514,40.036,-75.514,Match,,
0553f8e34d361734e038e6f7a87d7276,"San Francisco, CA, USA","37.7749295, -122.4194155",37.7749295,-122.4194155,1,,,,,37.775,-122.419,37.775,-122.419,Match,,
0559f518f3b5cd8b3305247d9ab52461,"Marion, NY, USA","43.1431778, -77.1891456",43.1431778,-77.1891456,1,,,,,43.143,-77.189,43.143,-77.189,Match,,
0561c22457ce25c15c5251b4100d79e7,"Boston, MA, USA","42.3600825, -71.0588801",42.3600825,-71.0588801,1,,,,,42.36,-71.059,42.36,-71.059,Match,,
056d19f50cb870d0c52aa7c316fd1542,"Tulsa, OK, USA","36.1539816, -95.992775",36.1539816,-95.992775,1,,,,,36.154,-95.993,36.154,-95.993,Match,,
056e42ac2b9cace686c3a7e94702f778,"Greenville, SC, USA","34.8526176, -82.3940104",34.8526176,-82.3940104,1,,,,,34.853,-82.394,34.853,-82.394,Match,,
057dddea9e3d48aa9bfded5df9a21e9f,"Northville, MI,USA","42.4311464, -83.4832692",42.4311464,-83.4832692,1,,,,,42.431,-83.483,42.431,-83.483,Match,,
059dc0591efcd7246b622379fdb92f98,"Greenwood Village, CO, USA","39.6172101, -104.9508141",39.6172101,-104.9508141,1,,,,,39.617,-104.951,39.617,-104.951,Match,,
05af3420186d6514223a74998f5673ba,"Wilmington, DE, USA","39.744655, -75.5483909",39.744655,-75.5483909,1,,,,,39.745,-75.548,39.745,-75.548,Match,,
05b1d7e99d80edf72969d525463eb23e,"South Bend, IN, USA","41.6763545, -86.2519898",41.6763545,-86.2519898,1,,,,,41.676,-86.252,41.676,-86.252,Match,,
05bf34927d279dc170f54e732b5c231c,"Edmonton, Alberta, Canada","53.5461245, -113.4938229",53.5461245,-113.4938229,1,,,,,53.546,-113.494,53.546,-113.494,Match,,
05dd99403f4d6717ba53cbaf48804507,"Cranford, NJ, USA","40.6584212, -74.2995928",40.6584212,-74.2995928,1,,,,,40.658,-74.3,40.658,-74.3,Match,,
05df3095d5b5912bac0aaaec119bf6b4,"Fremont, CA, USA","37.5485396, -121.988583",37.5485396,-121.988583,1,,,,,37.549,-121.989,37.549,-121.989,Match,,
05e4d2af6a0d6df12504f104d8b789d9,"Newton, MA, USA","42.3370413, -71.2092214",42.3370413,-71.2092214,1,,,,,42.337,-71.209,42.337,-71.209,Match,,
05f0d4e14f2120f17cb5b24c14a3ed94,"San Francisco, CA, USA","37.7749295, -122.4194155",37.7749295,-122.4194155,1,,,,,37.775,-122.419,37.775,-122.419,Match,,
061ec168ac7ea7c1c1c2c68557ea99b0,"New York, NY, USA","40.7127753, -74.0059728",40.7127753,-74.0059728,1,,,,,40.713,-74.006,40.713,-74.006,Match,,
062aad6e750fe6d20e403d1e63b05264,"Seoul, South Korea","37.566535, 126.9779692",37.566535,126.9779692,1,,,,,37.567,126.978,37.567,126.978,Match,,
06308c9d9157c7db43c4445225ef522b,"Tokyo, Japan","35.6761919, 139.6503106",35.6761919,139.6503106,1,,,,,35.676,139.65,35.676,139.65,Match,,
063788d09218cc8501be037f8e2ed7f0,"Jaguar Limited HQ, Coventry, UK","52.38720199999999, -1.4840122",52.387202,-1.4840122,1,,,,,52.387,-1.484,52.387,-1.484,Match,,
06387f7aebe7d22a6b656edbae04d794,"Philadelphia, PA, USA","39.9525839, -75.1652215",39.9525839,-75.1652215,1,,,,,39.953,-75.165,39.953,-75.165,Match,,
063eddff68b25a30f02dbffcba82627d,"North Canton, OH, USA","40.875891, -81.4023356",40.875891,-81.4023356,1,,,,,40.876,-81.402,40.876,-81.402,Match,,
0648b0a24c0fcd2ec09d8b2ad27f9765,"New York, NY, USA","40.7127753, -74.0059728",40.7127753,-74.0059728,1,,,,,40.713,-74.006,40.713,-74.006,Match,,
064d08efc4391c713c4f18b50679ca77,"Schaumburg, IL, USA","42.0333607, -88.0834059",42.0333607,-88.0834059,1,,,,,42.033,-88.083,42.033,-88.083,Match,,
065f743e7fa46722c9c17924b59189de,"Springfield, MO, USA","37.2089572, -93.2922989",37.2089572,-93.2922989,1,,,,,37.209,-93.292,37.209,-93.292,Match,,
067c3067e7cf02e2593aacc41fc007f8,"Bedford, MA, USA","42.4906231, -71.2760089",42.4906231,-71.2760089,1,,,,,42.491,-71.276,42.491,-71.276,Match,,
06973892de1f09bf7d42c55af9c5c475,"Rio de Janeiro, Rio De Janeiro, Brazil","-22.9068467, -43.1728965",-22.9068467,-43.1728965,1,,,,,-22.907,-43.173,-22.907,-43.173,Match,,
06a3a77c3f4a0c4da81dff406a3261cb,"London, Greater London, UK","51.5073509, -0.1277583",51.5073509,-0.1277583,1,,,,,51.507,-0.128,51.507,-0.128,Match,,
06b535dfc53316611b04e0e8df1d416d,"Pasadena, CA, USA","34.1477849, -118.1445155",34.1477849,-118.1445155,1,,,,,34.148,-118.145,34.148,-118.145,Match,,
06e829c91f3120c2aead3dbe45eff375,"Denver, CO, USA","39.7392358, -104.990251",39.7392358,-104.990251,1,,,,,39.739,-104.99,39.739,-104.99,Match,,
06ee388512b35196d360ab2ca8beee7f,"Dublin, Co. Dublin, Ireland","53.3498053, -6.2603097",53.3498053,-6.2603097,1,,,,,53.35,-6.26,53.35,-6.26,Match,,
06f538a2fe974016ca8e0cbfd59fe07a,"Charleston, SC, USA","32.7764749, -79.9310512",32.7764749,-79.9310512,1,,,,,32.776,-79.931,32.776,-79.931,Match,,
06f755dd5aaea63035ec87a539cafc15,"Stockholm, Stockholm County, Sweden","59.3293235, 18.0685808",59.3293235,18.0685808,1,,,,,59.329,18.069,59.329,18.069,Match,,
06f83a3ade31d8af1ad177bf4c1d41d2,"Bengaluru, Karnataka, India","12.9715987, 77.5945627",12.9715987,77.5945627,1,,,,,12.972,77.595,12.972,77.595,Match,,
06fbeced9dbd80bad1f9fbedb6201aea,"Houston, TX, USA","29.7604267, -95.3698028",29.7604267,-95.3698028,1,,,,,29.76,-95.37,29.76,-95.37,Match,,
06ff3e399207a2c9c2fdf854777104a6,"Atlanta, GA, USA","33.7489954, -84.3879824",33.7489954,-84.3879824,1,,,,,33.749,-84.388,33.749,-84.388,Match,,
0720c46c57fa9e7f7b4025450c82b39b,"San Diego, CA, USA","32.715738, -117.1610838",32.715738,-117.1610838,1,,,,,32.716,-117.161,32.716,-117.161,Match,,
0728af0e10f246dd4cf153622bf4cb2c,"Weight Watchers International HQ, New York, NY, USA","40.7420901, -73.9941211",40.7420901,-73.9941211,1,,,,,40.742,-73.994,40.742,-73.994,Match,,
07347058f4708c0005a9deba3b0b313e,"Beverly Hills, CA, USA","34.0736204, -118.4003563",34.0736204,-118.4003563,1,,,,,34.074,-118.4,34.074,-118.4,Match,,
0738bbefd7f1bd3358486abd26355f52,"Glen Allen, VA, USA","37.665978, -77.5063739",37.665978,-77.5063739,1,,,,,37.666,-77.506,37.666,-77.506,Match,,
0749c8034743fed2ad8459be7dd01e62,"Norfolk, VA, USA","36.8507689, -76.2858726",36.8507689,-76.2858726,1,,,,,36.851,-76.286,36.851,-76.286,Match,,
0759649ceb6be879fa4fcc194c252214,"Reston, VA, USA","38.9586307, -77.3570028",38.9586307,-77.3570028,1,,,,,38.959,-77.357,38.959,-77.357,Match,,
077560f75e2995bc2d0c07cf4c1a576b,"Guangzhou, Guangdong Province, China","23.12911, 113.264385",23.12911,113.264385,1,,,,,23.129,113.264,23.129,113.264,Match,,
07762c479886bcd12670f2fcc90c7ad5,"New York, NY, USA","40.7127753, -74.0059728",40.7127753,-74.0059728,1,,,,,40.713,-74.006,40.713,-74.006,Match,,
077d107e28b6bc71465663d3817cfa2d,"West Des Moines, IA, USA","41.5638902, -93.7593841",41.5638902,-93.7593841,1,,,,,41.564,-93.759,41.564,-93.759,Match,,
0785c056ea8da87d668aae9af8481579,"Leuven, Flemish Brabant, Belgium","50.8798438, 4.7005176",50.8798438,4.7005176,1,,,,,50.88,4.701,50.88,4.701,Match,,
0787668fd60b2617e780a79c1e3dc1fb,"South San Francisco, CA, USA","37.654656, -122.4077498",37.654656,-122.4077498,1,,,,,37.655,-122.408,37.655,-122.408,Match,,
078db488477a212f43cc3338ee0627fb,"Natick, MA, USA","42.2775281, -71.3468091",42.2775281,-71.3468091,1,,,,,42.278,-71.347,42.278,-71.347,Match,,
0799db3143cd37a2a41aab1e1ed5e96e,"Boca Raton, FL, USA","26.3683064, -80.1289321",26.3683064,-80.1289321,1,,,,,26.368,-80.129,26.368,-80.129,Match,,
07b309f2d7bd1d6134c9a8b3c3efa084,"Loveland, CO, USA","40.3977612, -105.0749801",40.3977612,-105.0749801,1,,,,,40.398,-105.075,40.398,-105.075,Match,,
07d20eb918083dcb298363913496b729,"Cambridge, Cambridgeshire, UK","52.205337, 0.121817",52.205337,0.121817,1,,,,,52.205,0.122,52.205,0.122,Match,,
07e2ce2b55c147e8f1512007578d494f,"Herndon, VA, USA","38.9695545, -77.3860976",38.9695545,-77.3860976,1,,,,,38.97,-77.386,38.97,-77.386,Match,,
07fa1235c0376ee16482b6fabb190ba2,"Charlotte, NC, USA","35.2270869, -80.8431267",35.2270869,-80.8431267,1,,,,,35.227,-80.843,35.227,-80.843,Match,,
08243122f53aa6314af2fa2c9360ae99,"West Warwick, RI, USA","41.7036711, -71.5215024",41.7036711,-71.5215024,1,,,,,41.704,-71.522,41.704,-71.522,Match,,
08443ef4f8fa5fc2a820342522794a86,"Solana Beach, CA, USA","32.991155, -117.2711481",32.991155,-117.2711481,1,,,,,32.991,-117.271,32.991,-117.271,Match,,
0869eeb47c5da402d8f65ab724f7e8ad,"Somerset, NJ, USA","40.497604, -74.4884868",40.497604,-74.4884868,1,,,,,40.498,-74.488,40.498,-74.488,Match,,
087a87b4ad6c6ed09581a3a39d132840,"Central Islip, NY, USA","40.7906538, -73.2017811",40.7906538,-73.2017811,1,,,,,40.791,-73.202,40.791,-73.202,Match,,
08b6f5cc751e4a08d7948284db613b64,"New York, NY, USA","40.7127753, -74.0059728",40.7127753,-74.0059728,1,,,,,40.713,-74.006,40.713,-74.006,Match,,
08bd056593919023960821213c09f055,"San Diego, CA, USA","32.715738, -117.1610838",32.715738,-117.1610838,1,,,,,32.716,-117.161,32.716,-117.161,Match,,
08c2dc950b28a0bb33a8b20c750abc38,"Pittsburgh, PA, USA","40.4406248, -79.9958864",40.4406248,-79.9958864,1,,,,,40.441,-79.996,40.441,-79.996,Match,,
08ef68340c6194a3f94f08eabdbbb9fb,"Jackson, MI,USA","42.245869, -84.4013462",42.245869,-84.4013462,1,,,,,42.246,-84.401,42.246,-84.401,Match,,
08f493a3800313c3c66e36ba39c14997,"Boston, MA, USA","42.3600825, -71.0588801",42.3600825,-71.0588801,1,,,,,42.36,-71.059,42.36,-71.059,Match,,
08f8214e0f1aa6abd765b7121fac590b,"Tucker, GA, USA","33.8545479, -84.2171424",33.8545479,-84.2171424,1,,,,,33.855,-84.217,33.855,-84.217,Match,,
0904e9f7517bb6d81aefea77ac8c9027,"New York, NY, USA","40.7127753, -74.0059728",40.7127753,-74.0059728,1,,,,,40.713,-74.006,40.713,-74.006,Match,,
090ba1bfcb7a04ac9c073d2915da52c9,"Chicago, IL, USA","41.8781136, -87.6297982",41.8781136,-87.6297982,1,,,,,41.878,-87.63,41.878,-87.63,Match,,
09162f395fdc7f73ee1c9e4f3fd5c9b7,"Mississauga, Ontario, Canada","43.5890452, -79.6441198",43.5890452,-79.6441198,1,,,,,43.589,-79.644,43.589,-79.644,Match,,
0927e9e306bf9f1956414b99caae1375,"Baltimore, MD, USA","39.2903848, -76.6121893",39.2903848,-76.6121893,1,,,,,39.29,-76.612,39.29,-76.612,Match,,
092c8a75f1c3b8eaf08d83e40eedf8d9,"Nicosia, Cyprus","35.1855659, 33.3822764",35.1855659,33.3822764,1,,,,,35.186,33.382,35.186,33.382,Match,,
0939229392ea43d9688fa72801fdc9f9,"Morrisville, NC, USA","35.823483, -78.8255621",35.823483,-78.8255621,1,,,,,35.823,-78.826,35.823,-78.826,Match,,
093cb038dad876c3511bdc59633e5cfa,"Paramus, NJ, USA","40.9445428, -74.0754189",40.9445428,-74.0754189,1,,,,,40.945,-74.075,40.945,-74.075,Match,,
093eff5394d3607edb13212302d09e7d,"Wyomissing, PA, USA","40.329537, -75.9652117",40.329537,-75.9652117,1,,,,,40.33,-75.965,40.33,-75.965,Match,,
095bca68c77c498b7964c6f7645f2069,"New York, NY, USA","40.7127753, -74.0059728",40.7127753,-74.0059728,1,,,,,40.713,-74.006,40.713,-74.006,Match,,
0971eb9961580c87ef52756e6a7df59c,"Singapore, Singapore","1.352083, 103.819836",1.352083,103.819836,1,,,,,1.352,103.82,1.352,103.82,Match,,
0980d1bd78bcef419b0db75f63304c5b,"Campbell Soup Company HQ, Camden, NJ, USA","39.9390315, -75.1080212",39.9390315,-75.1080212,1,,,,,39.939,-75.108,39.939,-75.108,Match,,
098937c0bddaf54cb89109630e4f105f,"Vancouver, British Columbia, Canada","49.2827291, -123.1207375",49.2827291,-123.1207375,1,,,,,49.283,-123.121,49.283,-123.121,Match,,
099450c73bb9fd69ce4f55952bb730b9,"New York, NY, USA","40.7127753, -74.0059728",40.7127753,-74.0059728,1,,,,,40.713,-74.006,40.713,-74.006,Match,,
09ab39943d7e4938d6f89198763166e3,"Las Vegas, NV, USA","36.1699412, -115.1398296",36.1699412,-115.1398296,1,,,,,36.17,-115.14,36.17,-115.14,Match,,
09c7363f4201d96ad060d555c40cc1e9,"Houston, Texas 77042","29.7426921, -95.55934889999999",29.7426921,-95.5593489,1,,,,,29.743,-95.559,29.743,-95.559,Match,,
09d373665dc8935b0ffe534daa573baf,"New York, NY, USA","40.7127753, -74.0059728",40.7127753,-74.0059728,1,,,,,40.713,-74.006,40.713,-74.006,Match,,
09d41a8d1b10655be7784cbf2b909c18,"Spartanburg, SC 29303","34.9889226, -81.9569763",34.9889226,-81.9569763,1,,,,,34.989,-81.957,34.989,-81.957,Match,,
09e13b84e1f6f7a1c34c6bad239e6e36,"Boston, MA, USA","42.3600825, -71.0588801",42.3600825,-71.0588801,1,,,,,42.36,-71.059,42.36,-71.059,Match,,
09e3e93ee7c42f8b08452a4bce2daf83,"Elgin, IL, USA","42.0354084, -88.2825668",42.0354084,-88.2825668,1,,,,,42.035,-88.283,42.035,-88.283,Match,,
09ea53b482f503d24aeb65db6d4df27d,"New York, NY, USA","40.7127753, -74.0059728",40.7127753,-74.0059728,1,,,,,40.713,-74.006,40.713,-74.006,Match,,
0a0332ce391c475642c8ddfc5ee401d1,"Hamilton, Bermuda","32.2945837, -64.7858887",32.2945837,-64.7858887,1,,,,,32.295,-64.786,32.295,-64.786,Match,,
0a055ff50c220beaed96b10728337ad1,"AMC Theatres HQ, Shawnee Mission, KS, USA","38.9196496, -94.6478164",38.9196496,-94.6478164,1,,,,,38.92,-94.648,38.92,-94.648,Match,,
0a22f6b71552279363b12c6754741536,"South San Francisco, CA, USA","37.654656, -122.4077498",37.654656,-122.4077498,1,,,,,37.655,-122.408,37.655,-122.408,Match,,
0a289613745ef9036a44d286e97be386,"Birmingham, AL, USA","33.5185892, -86.8103567",33.5185892,-86.8103567,1,,,,,33.519,-86.81,33.519,-86.81,Match,,
0a35837255a92fa6950dd8c35bf2eede,"Santa Clara, CA, USA","37.3541079, -121.9552356",37.3541079,-121.9552356,1,,,,,37.354,-121.955,37.354,-121.955,Match,,
0a38a68d321bb5bc1561ff025d61f571,"Fannie Mae HQ, Haymarket, VA, USA","38.8235869, -77.64207069999999",38.8235869,-77.6420707,1,,,,,38.824,-77.642,38.824,-77.642,Match,,
0a3cb240539178871ff4840ede568591,"South San Francisco, CA, USA","37.654656, -122.4077498",37.654656,-122.4077498,1,,,,,37.655,-122.408,37.655,-122.408,Match,,
0a3cf4b604c45466b3cf83ea8c3a8521,"Amesbury, MA, USA","42.8583925, -70.9300376",42.8583925,-70.9300376,1,,,,,42.858,-70.93,42.858,-70.93,Match,,
0a670c48f46e8c1cd45d8d029a932451,"Pembroke, Bermuda","32.3007672, -64.796263",32.3007672,-64.796263,1,,,,,32.301,-64.796,32.301,-64.796,Match,,
0a6faa7e69fed0c3d5baca719aadb932,"Burlingame, CA, USA","37.5778696, -122.34809",37.5778696,-122.34809,1,,,,,37.578,-122.348,37.578,-122.348,Match,,
0a7729d148f8a78440681f0f261f2021,"Overland Park, KS, USA","38.9822282, -94.6707917",38.9822282,-94.6707917,1,,,,,38.982,-94.671,38.982,-94.671,Match,,
0a7a87653c781ac2998a5d60c75a93bb,"Wilmington, MA, USA","42.5481714, -71.1724467",42.5481714,-71.1724467,1,,,,,42.548,-71.172,42.548,-71.172,Match,,
0a818c7d7194d2b5b0ec921063aa0d14,"Greensboro, NC, USA","36.0726354, -79.7919754",36.0726354,-79.7919754,1,,,,,36.073,-79.792,36.073,-79.792,Match,,
0a83692ffa77e3b43873fb69088cc890,"Santa Clara, CA, USA","37.3541079, -121.9552356",37.3541079,-121.9552356,1,,,,,37.354,-121.955,37.354,-121.955,Match,,
0a8d7a011856e06723f5df27f0788bd6,"Houston, TX, USA","29.7604267, -95.3698028",29.7604267,-95.3698028,1,,,,,29.76,-95.37,29.76,-95.37,Match,,
0a8e3a72b9d889c3e7eb2c94c45cae9c,"Rosh-Ha`Ayin, Israel","32.095838, 34.952177",32.095838,34.952177,1,,,,,32.096,34.952,32.096,34.952,Match,,
0a8ed32cc458065cac44df58899b6da3,"Kirkland, WA, USA","47.6768927, -122.2059833",47.6768927,-122.2059833,1,,,,,47.677,-122.206,47.677,-122.206,Match,,
0aacdfde3ce2451b767f5c5a95665578,"Austin, TX, USA","30.267153, -97.7430608",30.267153,-97.7430608,1,,,,,30.267,-97.743,30.267,-97.743,Match,,
0ab609f214a98c4c23c61918e12bfd4e,"The Woodlands, TX, USA","30.1658207, -95.4612625",30.1658207,-95.4612625,1,,,,,30.166,-95.461,30.166,-95.461,Match,,
0ab96b33d67cca9bf81b86ffb927c42f,"Changi South Lane, Singapore","1.333673, 103.950479",1.333673,103.950479,1,,,,,1.334,103.95,1.334,103.95,Match,,
0ad1389b761079e9663df65e059dbe31,"Los Angeles, CA, USA","34.0522342, -118.2436849",34.0522342,-118.2436849,1,,,,,34.052,-118.244,34.052,-118.244,Match,,
0ae860b4ad520bc4a6f55f44aa721b30,"Arlington, TX, USA","32.735687, -97.1080656",32.735687,-97.1080656,1,,,,,32.736,-97.108,32.736,-97.108,Match,,
0ae8c9a0389e37cd8bef6e62691e5161,"Cleveland, OH, USA","41.49932, -81.6943605",41.49932,-81.6943605,1,,,,,41.499,-81.694,41.499,-81.694,Match,,
0af4c9915ef92f2bac32cf75af1acc8f,"Hilton HQ, McLean, VA, USA","38.92809219999999, -77.2151232",38.9280922,-77.2151232,1,,,,,38.928,-77.215,38.928,-77.215,Match,,
0b270a34f1d312807045332280756f0a,"Marseille, France","43.296482, 5.36978",43.296482,5.36978,1,,,,,43.296,5.37,43.296,5.37,Match,,
be0d9160ee9bb48480b95d99cdf6ca7e,"Stockholm, Sweden","59.3309695,18.0680873",59.3309695,18.0680873,1,,,,,59.331,18.068,59.331,18.068,Match,,
0b300045ac31a3f38e27dd546289d2ec,"Unilever HQ, London, UK","51.5117419,-0.107247",51.5117419,-0.107247,1,,,,,51.512,-0.107,51.512,-0.107,Match,,
0b375df3670432913d8a141abcbe02f4,"Wilmington, DE, USA","39.744655, -75.5483909",39.744655,-75.5483909,1,,,,,39.745,-75.548,39.745,-75.548,Match,,
0b5f7c60eb507c2ac39576d4679fc24c,"Rosemont, IL, USA","41.9867507, -87.8721602",41.9867507,-87.8721602,1,,,,,41.987,-87.872,41.987,-87.872,Match,,
0b82c1a62b6bf4e07bde29e42024247f,"San Jose, CA, USA","37.3382082, -121.8863286",37.3382082,-121.8863286,1,,,,,37.338,-121.886,37.338,-121.886,Match,,
0b89186d624c9a106c72f3f34224c407,"Orlando, FL, USA","28.5383355, -81.3792365",28.5383355,-81.3792365,1,,,,,28.538,-81.379,28.538,-81.379,Match,,
0ba05cab8fdaf66c6c24000b8d89e9d0,"Richmond, VA, USA","37.5407246, -77.4360481",37.5407246,-77.4360481,1,,,,,37.541,-77.436,37.541,-77.436,Match,,
0ba64a1a3e18ae235be4e2a3aabdc323,"Burlington, MA, USA","42.5047161, -71.1956205",42.5047161,-71.1956205,1,,,,,42.505,-71.196,42.505,-71.196,Match,,
0bb5abcc90f15442dcdcc3c02bcbc1e5,"Monaco, Monaco","43.7384176, 7.4246158",43.7384176,7.4246158,1,,,,,43.738,7.425,43.738,7.425,Match,,
0bb983d6f8ff624263a9955ac3d08767,"Seattle, WA, USA","47.6062095, -122.3320708",47.6062095,-122.3320708,1,,,,,47.606,-122.332,47.606,-122.332,Match,,
0bc04c9674e8a18a21909a803cc0f8e8,"New York, NY, USA","40.7127753, -74.0059728",40.7127753,-74.0059728,1,,,,,40.713,-74.006,40.713,-74.006,Match,,
0bc11070409f84d2d11de2c82820334b,"Kennett Square, PA, USA","39.8467767, -75.7116032",39.8467767,-75.7116032,1,,,,,39.847,-75.712,39.847,-75.712,Match,,
0bc2edb870cfe79e48602927cbf36d93,"Mayfield Heights, OH, USA","41.5192189, -81.457896",41.5192189,-81.457896,1,,,,,41.519,-81.458,41.519,-81.458,Match,,
0be04bba13437140ca89cad51166743b,"Prudential Financial HQ, Newark, NJ, USA","40.7369358, -74.1720252",40.7369358,-74.1720252,1,,,,,40.737,-74.172,40.737,-74.172,Match,,
0c124ec27702caeb1aefaf32c9a732a1,"Fort Mill, SC, USA","35.0073697, -80.9450759",35.0073697,-80.9450759,1,,,,,35.007,-80.945,35.007,-80.945,Match,,
0c1b933090756feba2e78789b8e8a956,"Irvine, CA, USA","33.6845673, -117.8265049",33.6845673,-117.8265049,1,,,,,33.685,-117.827,33.685,-117.827,Match,,
0c1e1f00606b4c09a042b3371a8d18da,"Menlo Park, CA, USA","37.4529598, -122.1817252",37.4529598,-122.1817252,1,,,,,37.453,-122.182,37.453,-122.182,Match,,
0c309b70764a9075ee08efbc8d4c8c6b,"Pittsburgh, PA, USA","40.4406248, -79.9958864",40.4406248,-79.9958864,1,,,,,40.441,-79.996,40.441,-79.996,Match,,
0c3724fe27fc67303ad5d6738ba90330,"Morton Grove, IL, USA","42.0405852, -87.7825621",42.0405852,-87.7825621,1,,,,,42.041,-87.783,42.041,-87.783,Match,,
0c41a8ffd017cc702c77c4879fb77472,"Cambridge, MA, USA","42.3736158, -71.1097335",42.3736158,-71.1097335,1,,,,,42.374,-71.11,42.374,-71.11,Match,,
0c4eb1594c30e78b1597531864dbcb7a,"Parsippany, NJ, USA","40.8652865, -74.4173877",40.8652865,-74.4173877,1,,,,,40.865,-74.417,40.865,-74.417,Match,,
0c4fcc581544797df4a6ef6f9aa950f1,"Madrid, Madrid, Spain","40.4167754, -3.7037902",40.4167754,-3.7037902,1,,,,,40.417,-3.704,40.417,-3.704,Match,,
0c7ca1361fd30b560d0d2bfc8a4b0491,"Hamilton, Bermuda","32.2945837, -64.7858887",32.2945837,-64.7858887,1,,,,,32.295,-64.786,32.295,-64.786,Match,,
0c8d72f989770d090fe37347bd204a42,"Strawinskylaan 2555, Amsterdam 1070","52.34058169999999, 4.870327000000001",52.3405817,4.870327,1,,,,,52.341,4.87,52.341,4.87,Match,,
0cb30f7625ecfe6287d05a6d9b346bb2,"Torrance, CA, USA","33.8358492, -118.3406288",33.8358492,-118.3406288,1,,,,,33.836,-118.341,33.836,-118.341,Match,,
0cbc1ddc45aeb20fef919b6623d77cc8,"Melbourne, Florida 32919","28.0907781, -80.6385483",28.0907781,-80.6385483,1,,,,,28.091,-80.639,28.091,-80.639,Match,,
0cbc27b512826dcfd5f68b2876c6ff71,"Tysons, VA, USA","38.9187222, -77.2310925",38.9187222,-77.2310925,1,,,,,38.919,-77.231,38.919,-77.231,Match,,
0cc1b68fc6a0a0590554b3aef15b3ece,"Old Bethpage, NY, USA","40.7625993, -73.4531786",40.7625993,-73.4531786,1,,,,,40.763,-73.453,40.763,-73.453,Match,,
0cc715d2ded63ab34ee6b1d43830930f,"Hulu, LLC HQ, Santa Monica, CA, USA","34.0307009, -118.4739024",34.0307009,-118.4739024,1,,,,,34.031,-118.474,34.031,-118.474,Match,,
0cc772304f2d54598bf8ee412b2c69b5,"Enel Italia S.r.l HQ, Rome, Italy","41.9165476, 12.5024845",41.9165476,12.5024845,1,,,,,41.917,12.502,41.917,12.502,Match,,
0cd17c85048162226365e859724100de,"Midlothian, VA, USA","37.5061069, -77.6490005",37.5061069,-77.6490005,1,,,,,37.506,-77.649,37.506,-77.649,Match,,
0cd5168bfbabc846f8bc72b2b4005fde,"Houston, TX, USA","29.7604267, -95.3698028",29.7604267,-95.3698028,1,,,,,29.76,-95.37,29.76,-95.37,Match,,
0ceb12a796606f3ed50e0d24146d833d,"Denver, CO, USA","39.7392358, -104.990251",39.7392358,-104.990251,1,,,,,39.739,-104.99,39.739,-104.99,Match,,
0d010528f2adb8e6c54b6fa4fbd8f237,"Mettawa, IL, USA","42.2333571, -87.9259058",42.2333571,-87.9259058,1,,,,,42.233,-87.926,42.233,-87.926,Match,,
0d09fff54a04db854f64103be93a7c5d,"Matawan, NJ, USA","40.41483, -74.2295891",40.41483,-74.2295891,1,,,,,40.415,-74.23,40.415,-74.23,Match,,
0d0f42622c01a6f66be2491e033d16d0,"Madison Heights, MI,USA","42.4858692, -83.1052028",42.4858692,-83.1052028,1,,,,,42.486,-83.105,42.486,-83.105,Match,,
0d16650a8605b952ee316d913847eed5,"Ridgeland, MS, USA","32.4284761, -90.1323087",32.4284761,-90.1323087,1,,,,,32.428,-90.132,32.428,-90.132,Match,,
0d17aef50829a53369c643c6982e7a0d,"New York, NY, USA","40.7127753, -74.0059728",40.7127753,-74.0059728,1,,,,,40.713,-74.006,40.713,-74.006,Match,,
0d20f627eb7bd00f1d584e3ae4b49ca1,"Shanghai, China","31.230416, 121.473701",31.230416,121.473701,1,,,,,31.23,121.474,31.23,121.474,Match,,
0d297a226279aa80e71c08d3a6cdf605,"Houston, TX, USA","29.7604267, -95.3698028",29.7604267,-95.3698028,1,,,,,29.76,-95.37,29.76,-95.37,Match,,
0d5208cfd30b03ecb58fa3ad1259f65d,"Cambridge, MA, USA","42.3736158, -71.1097335",42.3736158,-71.1097335,1,,,,,42.374,-71.11,42.374,-71.11,Match,,
0d5c6ba0dc3142ab6a9807af4918f4f9,"Cupertino, CA, USA","37.3229978, -122.0321823",37.3229978,-122.0321823,1,,,,,37.323,-122.032,37.323,-122.032,Match,,
0d658983e897dcc83fc9c1e9494f1718,"Alachua, FL, USA","29.7938144, -82.4944226",29.7938144,-82.4944226,1,,,,,29.794,-82.494,29.794,-82.494,Match,,
0d742b93be0e9af29557d13a96096605,"Dallas, TX, USA","32.7766642, -96.7969879",32.7766642,-96.7969879,1,,,,,32.777,-96.797,32.777,-96.797,Match,,
0d81df4e42b18f35837691ab96ca4bdc,"West Conshohocken, PA, USA","40.0698321, -75.3162951",40.0698321,-75.3162951,1,,,,,40.07,-75.316,40.07,-75.316,Match,,
0d8a0aa28c5c03b76de74db2fdd6c4b3,"Emeryville, CA, USA","37.8395028, -122.2892278",37.8395028,-122.2892278,1,,,,,37.84,-122.289,37.84,-122.289,Match,,
0d8ca50747e087ade520c6bf2ded4a76,"Tampa, FL, USA","27.950575, -82.4571776",27.950575,-82.4571776,1,,,,,27.951,-82.457,27.951,-82.457,Match,,
0da5ad77a4b66bf80812259d05997efc,"Salt Lake City, Utah 84108","40.7645315, -111.8257421",40.7645315,-111.8257421,1,,,,,40.765,-111.826,40.765,-111.826,Match,,
0da8d49bf82a588b71353aa723b69290,"Wichita, Kansas 67220","37.7514329, -97.2879796",37.7514329,-97.2879796,1,,,,,37.751,-97.288,37.751,-97.288,Match,,
0dba347bf66c02d0d92cae47728fd3fa,"Orlando, FL, USA","28.5383355, -81.3792365",28.5383355,-81.3792365,1,,,,,28.538,-81.379,28.538,-81.379,Match,,
0dd54ad07f4dedfe124392682027fa04,"West Orange, NJ, USA","40.7985699, -74.2390828",40.7985699,-74.2390828,1,,,,,40.799,-74.239,40.799,-74.239,Match,,
0dd5bed7441d62cf71e9262203e71db6,"BJ's Wholesale Club HQ, Westborough, MA, USA","42.2872382, -71.5770683",42.2872382,-71.5770683,1,,,,,42.287,-71.577,42.287,-71.577,Match,,
0dee3347d1a8ed4e62eeef072d7fc8b6,"Washington, District Of Columbia, USA","38.9071923, -77.0368707",38.9071923,-77.0368707,1,,,,,38.907,-77.037,38.907,-77.037,Match,,
0dfe20d6ac9a9bf218cc2d6f883dd120,"Duluth, GA, USA","34.0028786, -84.1446376",34.0028786,-84.1446376,1,,,,,34.003,-84.145,34.003,-84.145,Match,,
0e2a1019d940b79454ac2618297a8dcd,"Shenzhen, Guangdong Province, China","22.543096, 114.057865",22.543096,114.057865,1,,,,,22.543,114.058,22.543,114.058,Match,,
0e2f1e7a4de39de1987731a4b8684e3e,"Reno, NV, USA","39.5296329, -119.8138027",39.5296329,-119.8138027,1,,,,,39.53,-119.814,39.53,-119.814,Match,,
0e3be804f379750d14f52fb8a7857b6d,"Atlanta, GA, USA","33.7489954, -84.3879824",33.7489954,-84.3879824,1,,,,,33.749,-84.388,33.749,-84.388,Match,,
0e3f83e9727f51c67df7f16b20c635f2,"Houston, TX, USA","29.7604267, -95.3698028",29.7604267,-95.3698028,1,,,,,29.76,-95.37,29.76,-95.37,Match,,
0e4d38dd8fff27dbc2ab186a693832b5,"Rockville, MD, USA","39.0839973, -77.1527578",39.0839973,-77.1527578,1,,,,,39.084,-77.153,39.084,-77.153,Match,,
0e4eda9d383987bd75f947982c37f95b,"Montreal, Quebec, Canada","45.5016889, -73.567256",45.5016889,-73.567256,1,,,,,45.502,-73.567,45.502,-73.567,Match,,
0e532503284921447ae301a1a6197941,"Austin, TX, USA","30.267153, -97.7430608",30.267153,-97.7430608,1,,,,,30.267,-97.743,30.267,-97.743,Match,,
0e56abbd6338d4292478c2ae408efc52,"Richmond, VA, USA","37.5407246, -77.4360481",37.5407246,-77.4360481,1,,,,,37.541,-77.436,37.541,-77.436,Match,,
0e7e3815e7b821dee2fd722115b788e0,"Plymouth Meeting, PA, USA","40.1023319, -75.2743467",40.1023319,-75.2743467,1,,,,,40.102,-75.274,40.102,-75.274,Match,,
0e92a3972d1f0353c5d8c1d16962004e,"Florham Park, NJ, USA","40.787878, -74.3882072",40.787878,-74.3882072,1,,,,,40.788,-74.388,40.788,-74.388,Match,,
0e9a644adb5292d148baedf43031b8cd,"Quincy, MA, USA","42.2528772, -71.0022705",42.2528772,-71.0022705,1,,,,,42.253,-71.002,42.253,-71.002,Match,,
0eab3c67ac9d6307f2d21b24699b812b,"Dun Laoghaire, Co. Dublin, Ireland","53.2943958, -6.1338666",53.2943958,-6.1338666,1,,,,,53.294,-6.134,53.294,-6.134,Match,,
0ec4d67254bbc53914d055086cf87a70,"Nashville, TN, USA","36.1626638, -86.7816016",36.1626638,-86.7816016,1,,,,,36.163,-86.782,36.163,-86.782,Match,,
0ec84baeea1864c70f2b8aeac473d389,"Westfield, MA, USA","42.1250929, -72.749538",42.1250929,-72.749538,1,,,,,42.125,-72.75,42.125,-72.75,Match,,
0ed1d5e637b9d53e935176c97796d03f,"New York, NY, USA","40.7127753, -74.0059728",40.7127753,-74.0059728,1,,,,,40.713,-74.006,40.713,-74.006,Match,,
0edc8610a926a0d22972ac16afacd796,"Macquarie Group HQ, Sydney, Australia","-33.8678447, 151.2077854",-33.8678447,151.2077854,1,,,,,-33.868,151.208,-33.868,151.208,Match,,
0ef21d01bd663d2e64315cbafdd54d71,"ACCO Brands Corporation HQ, Lake Zurich, IL, USA","42.1969689, -88.0934108",42.1969689,-88.0934108,1,,,,,42.197,-88.093,42.197,-88.093,Match,,
0f049c422ca335b9f50e51cf04bb356d,"Melville, NY, USA","40.7934322, -73.4151214",40.7934322,-73.4151214,1,,,,,40.793,-73.415,40.793,-73.415,Match,,
0f07a51b7a436aed1ebdc5b110f0b374,"Boston, MA, USA","42.3600825, -71.0588801",42.3600825,-71.0588801,1,,,,,42.36,-71.059,42.36,-71.059,Match,,
0f1adda690e0e9742e09a92029c33faf,"Bloomfield Hills, MI,USA","42.583645, -83.2454883",42.583645,-83.2454883,1,,,,,42.584,-83.245,42.584,-83.245,Match,,
0f6d184a3254c6bd862f4db453a39f2f,"Spokane, WA, USA","47.6587802, -117.4260465",47.6587802,-117.4260465,1,,,,,47.659,-117.426,47.659,-117.426,Match,,
0f79a30dc064cd7c257359889b7a4f96,"Pembroke, Bermuda","32.3007672, -64.796263",32.3007672,-64.796263,1,,,,,32.301,-64.796,32.301,-64.796,Match,,
0f7fc7ef23c8c922455a7790403f98a0,"Westlake, TX, USA","32.991235, -97.1950138",32.991235,-97.1950138,1,,,,,32.991,-97.195,32.991,-97.195,Match,,
0f93d94e5881c1cd2980335b76d28996,"Little Rock, AR, USA","34.7464809, -92.2895948",34.7464809,-92.2895948,1,,,,,34.746,-92.29,34.746,-92.29,Match,,
0f9bc5574bee4d49b27da0b3eb1bd1e5,"Long Island City, NY, USA","40.744679, -73.9485424",40.744679,-73.9485424,1,,,,,40.745,-73.949,40.745,-73.949,Match,,
0f9c7f9518c1c00e4b0ee6f3034a8898,"Las Vegas, NV, USA","36.1699412, -115.1398296",36.1699412,-115.1398296,1,,,,,36.17,-115.14,36.17,-115.14,Match,,
0faaa3c57500078892c24aafd0fcc2e1,"Evanston, IL, USA","42.0450722, -87.6876969",42.0450722,-87.6876969,1,,,,,42.045,-87.688,42.045,-87.688,Match,,
0fc3be1432e8ff0dc9a6d62551d62693,"Stamford, CT, USA","41.0534302, -73.5387341",41.0534302,-73.5387341,1,,,,,41.053,-73.539,41.053,-73.539,Match,,
0fce67801915253874a00c05b6351570,"Wanzhou, Chongqing Province, China","30.807667, 108.408661",30.807667,108.408661,1,,,,,30.808,108.409,30.808,108.409,Match,,
0fdd61f53dc73628d008f1b71ee793f0,"St. Louis, MO, USA","38.6270025, -90.1994042",38.6270025,-90.1994042,1,,,,,38.627,-90.199,38.627,-90.199,Match,,
0fe350102c70770dd1a81eda975c43f7,"Manchester, Greater Manchester, UK","53.4807593, -2.2426305",53.4807593,-2.2426305,1,,,,,53.481,-2.243,53.481,-2.243,Match,,
0feba2bedbb38d776136f7d136a56e47,"The Woodlands, TX, USA","30.1658207, -95.4612625",30.1658207,-95.4612625,1,,,,,30.166,-95.461,30.166,-95.461,Match,,
0ffc2e49cc2da2d72c5b37be8b3040d9,"Central, Hong Kong","22.2799907, 114.1587983",22.2799907,114.1587983,1,,,,,22.28,114.159,22.28,114.159,Match,,
100e97308e89cf0ec1ebbb299eede34e,"Houston, TX, USA","29.7604267, -95.3698028",29.7604267,-95.3698028,1,,,,,29.76,-95.37,29.76,-95.37,Match,,
101461f30169976519eed36452feb4a7,"Bellingham, WA, USA","48.7519112, -122.4786854",48.7519112,-122.4786854,1,,,,,48.752,-122.479,48.752,-122.479,Match,,
103a6d0f1e89de0ed8c8ea5f0b5b6549,"Shenzhen, Guangdong Province, China","22.543096, 114.057865",22.543096,114.057865,1,,,,,22.543,114.058,22.543,114.058,Match,,
1047f129b721083c1c409af94a59622f,"Montreal, Quebec, Canada","45.5016889, -73.567256",45.5016889,-73.567256,1,,,,,45.502,-73.567,45.502,-73.567,Match,,
105fc0e46fd1aa169c74ab0625653c4b,"Coles Group HQ, Melbourne, Australia","-37.8454605,145.046344",-37.8454605,145.046344,1,,,,,-37.845,145.046,-37.845,145.046,Match,,
1061803923fd88b95543e868e3b7eb1e,"Laredo, TX, USA","27.5035613, -99.5075519",27.5035613,-99.5075519,1,,,,,27.504,-99.508,27.504,-99.508,Match,,
1094f32cde500376689295aee2f511cc,"Dallas, TX, USA","32.7766642, -96.7969879",32.7766642,-96.7969879,1,,,,,32.777,-96.797,32.777,-96.797,Match,,
10a12a36b6a7ce038cc9b14992c5e98a,"Long Island City, NY, USA","40.744679, -73.9485424",40.744679,-73.9485424,1,,,,,40.745,-73.949,40.745,-73.949,Match,,
10c36e00c6bcb9ad0ced52a64ebd6101,"Ridgefield, CT, USA","41.2840635, -73.4975412",41.2840635,-73.4975412,1,,,,,41.284,-73.498,41.284,-73.498,Match,,
10d8be30dfadb9d4f09553e343b099b0,"New York, NY, USA","40.7127753, -74.0059728",40.7127753,-74.0059728,1,,,,,40.713,-74.006,40.713,-74.006,Match,,
10e1aeeec5bb1f17f664a1b59bbbd12e,"Houston, TX, USA","29.7604267, -95.3698028",29.7604267,-95.3698028,1,,,,,29.76,-95.37,29.76,-95.37,Match,,
110799c4caec30148250e77993767f1c,"Purchase, NY, USA","41.0400135, -73.7144477",41.0400135,-73.7144477,1,,,,,41.04,-73.714,41.04,-73.714,Match,,
1109e569ceb1dea83857e36be1d1f591,"Toronto, Ontario, Canada","43.653226, -79.3831843",43.653226,-79.3831843,1,,,,,43.653,-79.383,43.653,-79.383,Match,,
1110ce770279d333153bc4ebd7cb6eee,"Holland, MI,USA","42.7875235, -86.1089301",42.7875235,-86.1089301,1,,,,,42.788,-86.109,42.788,-86.109,Match,,
11120d273f604d2c319f018899837086,"Maynard, MA, USA","42.4334903, -71.4495058",42.4334903,-71.4495058,1,,,,,42.433,-71.45,42.433,-71.45,Match,,
111a756967043d3c09301270f7734a00,"Englewood, CO, USA","39.6477653, -104.9877597",39.6477653,-104.9877597,1,,,,,39.648,-104.988,39.648,-104.988,Match,,
11316d286a4c89c6b7b0d14f95b4b4f5,"Los Angeles, CA, USA","34.0522342, -118.2436849",34.0522342,-118.2436849,1,,,,,34.052,-118.244,34.052,-118.244,Match,,
113fde49b7fb5424ebe86907d8d08113,"Wilsonville, OR, USA","45.3029903, -122.7726501",45.3029903,-122.7726501,1,,,,,45.303,-122.773,45.303,-122.773,Match,,
1150051df0723467b62d7a37ba12bb5a,"Groupon HQ, Chicago, IL, USA","41.8975334, -87.64338579999999",41.8975334,-87.6433858,1,,,,,41.898,-87.643,41.898,-87.643,Match,,
1170f17f7e928cc551933b700017dc1d,"Houston, Texas 77042","29.7195378, -95.5607885",29.7195378,-95.5607885,1,,,,,29.72,-95.561,29.72,-95.561,Match,,
11716ea55891d17e531d8c3ce0f244b0,"Sunnyvale, CA, USA","37.36883, -122.0363496",37.36883,-122.0363496,1,,,,,37.369,-122.036,37.369,-122.036,Match,,
117dc6dc8dd69bea6f02db3daf3edd5c,"Chicago, IL, USA","41.8781136, -87.6297982",41.8781136,-87.6297982,1,,,,,41.878,-87.63,41.878,-87.63,Match,,
11a15878b8b8b4b13fc8246f628fa84b,"Capital One HQ, McLean, VA, USA","38.9245733, -77.21350629999999",38.9245733,-77.2135063,1,,,,,38.925,-77.214,38.925,-77.214,Match,,
11be9e9a9934018b0112145c8de21107,"Los Angeles, CA, USA","34.0522342, -118.2436849",34.0522342,-118.2436849,1,,,,,34.052,-118.244,34.052,-118.244,Match,,
11df0ce10af9d3c7943825162072df57,"Saint-Laurent, Quebec, Canada","45.4985638, -73.7497567",45.4985638,-73.7497567,1,,,,,45.499,-73.75,45.499,-73.75,Match,,
11e0cde8ca57877c9468674ca2a68cec,"San Marcos, TX, USA","29.8832749, -97.9413941",29.8832749,-97.9413941,1,,,,,29.883,-97.941,29.883,-97.941,Match,,
11e14bd03ed94e4c672589c6c07030a9,"Berkeley, CA, USA","37.8715226, -122.273042",37.8715226,-122.273042,1,,,,,37.872,-122.273,37.872,-122.273,Match,,
11e7eab2f740869555d886080323156f,"Chesterfield, MO, USA","38.6631083, -90.5770675",38.6631083,-90.5770675,1,,,,,38.663,-90.577,38.663,-90.577,Match,,
11f55c1528d26fde3c8f3b806179aae8,"Greenwood Village, CO, USA","39.6172101, -104.9508141",39.6172101,-104.9508141,1,,,,,39.617,-104.951,39.617,-104.951,Match,,
11fc782d38fab4783a6d236e6c380a6d,"Seguin, TX, USA","29.5688411, -97.9647269",29.5688411,-97.9647269,1,,,,,29.569,-97.965,29.569,-97.965,Match,,
120ab25c87217566a9738d09b305a8b2,"New York, NY, USA","40.7127753, -74.0059728",40.7127753,-74.0059728,1,,,,,40.713,-74.006,40.713,-74.006,Match,,
12219c12749be06e4601682965cafb27,"La Jolla, CA, USA","32.8328112, -117.2712717",32.8328112,-117.2712717,1,,,,,32.833,-117.271,32.833,-117.271,Match,,
122664a8569846033146ca73af1a81fd,"Miami, FL, USA","25.7616798, -80.1917902",25.7616798,-80.1917902,1,,,,,25.762,-80.192,25.762,-80.192,Match,,
1260b8a4196fb0245ae41394f10574a1,"The Woodlands, TX, USA","30.1658207, -95.4612625",30.1658207,-95.4612625,1,,,,,30.166,-95.461,30.166,-95.461,Match,,
12784246a88ebdd4bb6e30e0c0f88973,"St. Paul, MN, USA","44.9537029, -93.0899578",44.9537029,-93.0899578,1,,,,,44.954,-93.09,44.954,-93.09,Match,,
127d19a04912568064574d84277ac85c,"Columbus, OH, USA","39.9611755, -82.9987942",39.9611755,-82.9987942,1,,,,,39.961,-82.999,39.961,-82.999,Match,,
12b918af2d8d27053a30bacec368b17d,"Rockford, MI,USA","43.1200272, -85.5600316",43.1200272,-85.5600316,1,,,,,43.12,-85.56,43.12,-85.56,Match,,
12c38be97b656f95d238fa893ae1ac6d,"Columbus Grove, OH, USA","40.9194961, -84.0568896",40.9194961,-84.0568896,1,,,,,40.919,-84.057,40.919,-84.057,Match,,
12c4c6c7d4beec17bbb06fd16ffc2780,"Lod, Israel","31.951014, 34.888075",31.951014,34.888075,1,,,,,31.951,34.888,31.951,34.888,Match,,
12c7082e4971d9d6393ca35e8994627d,"Calgary, Alberta, Canada","51.0447331, -114.0718831",51.0447331,-114.0718831,1,,,,,51.045,-114.072,51.045,-114.072,Match,,
12c9943a3f870960dccebf1c967c6849,"Mitchel Field, NY, USA","40.7238895, -73.5984261",40.7238895,-73.5984261,1,,,,,40.724,-73.598,40.724,-73.598,Match,,
12d01b99ad411b10b3086305dad69c37,"Reston, VA, USA","38.9586307, -77.3570028",38.9586307,-77.3570028,1,,,,,38.959,-77.357,38.959,-77.357,Match,,
12e3047a828f7617e44899155a5050e5,"Muscatine, IA, USA","41.424473, -91.0432051",41.424473,-91.0432051,1,,,,,41.424,-91.043,41.424,-91.043,Match,,
12f9e5647fc4f68399c0809f1f5495ca,"Davis, CA, USA","38.5449065, -121.7405167",38.5449065,-121.7405167,1,,,,,38.545,-121.741,38.545,-121.741,Match,,
1302ab31204d5582b9f437dac858ebef,"DeRidder, LA, USA","30.8463055, -93.2890527",30.8463055,-93.2890527,1,,,,,30.846,-93.289,30.846,-93.289,Match,,
1306f64e136378c8960bf18ec412931d,"Salt Lake City, UT, USA","40.7607793, -111.8910474",40.7607793,-111.8910474,1,,,,,40.761,-111.891,40.761,-111.891,Match,,
1311abf47ca522c5355c85b8f637fb47,"Oswego, NY, USA","43.4553461, -76.5104973",43.4553461,-76.5104973,1,,,,,43.455,-76.51,43.455,-76.51,Match,,
13154f749235bddd5d97b078e7a369ca,"Newark, CA, USA","37.5299765, -122.0383968",37.5299765,-122.0383968,1,,,,,37.53,-122.038,37.53,-122.038,Match,,
131c7fd5d02a6ae550f0565eecbf28aa,"Salt Lake City, UT, USA","40.7607793, -111.8910474",40.7607793,-111.8910474,1,,,,,40.761,-111.891,40.761,-111.891,Match,,
131d16d4fe36008f27813ef99a9f399b,"Lexington, MA, USA","42.4473497, -71.2271531",42.4473497,-71.2271531,1,,,,,42.447,-71.227,42.447,-71.227,Match,,
132505cf5f96635b89ca7ce6256a607a,"Boston, MA, USA","42.3600825, -71.0588801",42.3600825,-71.0588801,1,,,,,42.36,-71.059,42.36,-71.059,Match,,
1351dc229790f8f8860b20b1b94b30fc,"Shakopee, MN, USA","44.7973962, -93.5272861",44.7973962,-93.5272861,1,,,,,44.797,-93.527,44.797,-93.527,Match,,
1371e65cfa6433f3e09ffaf19b743d3c,"Asurion, LLC HQ, Nashville, TN, USA","36.0906751, -86.7465089",36.0906751,-86.7465089,1,,,,,36.091,-86.747,36.091,-86.747,Match,,
137264f17d2a065f97ae1c95e1572bad,"Aurora, IL, USA","41.7605849, -88.3200715",41.7605849,-88.3200715,1,,,,,41.761,-88.32,41.761,-88.32,Match,,
137335682386fb26a937a7e0a05d94ca,"New Albany, OH, USA","40.0903748, -82.7935789",40.0903748,-82.7935789,1,,,,,40.09,-82.794,40.09,-82.794,Match,,
13973f2df031fdfb9c5478fba4a9b0ba,"Bloomberg HQ, New York, NY, USA","40.7128306, -74.00371489999999",40.7128306,-74.0037149,1,,,,,40.713,-74.004,40.713,-74.004,Match,,
13a1f1e3d2e072530b51cd1f4f691b53,"Tesco plc HQ, Welwyn Garden City, England","51.8088691,-0.1989554",51.8088691,-0.1989554,1,,,,,51.809,-0.199,51.809,-0.199,Match,,
13ba8c3e58126aa7bf70a07137f5c4ef,"Woonsocket, RI, USA","42.0028761, -71.5147839",42.0028761,-71.5147839,1,,,,,42.003,-71.515,42.003,-71.515,Match,,
13c483f7b9ce6846a0b425c4d0c090b7,"Amsterdam, Noord-Holland, Netherlands","52.3675734, 4.9041389",52.3675734,4.9041389,1,,,,,52.368,4.904,52.368,4.904,Match,,
13c48ec915354d2f5cb1dd947fdcf278,"Menlo Park, CA, USA","37.4529598, -122.1817252",37.4529598,-122.1817252,1,,,,,37.453,-122.182,37.453,-122.182,Match,,
13cdbaba35be462d0092f544f704baf4,"Family Dollar HQ, Charlotte, NC, USA","35.2095693, -80.9392025",35.2095693,-80.9392025,1,,,,,35.21,-80.939,35.21,-80.939,Match,,
13d8a45b180d56737089313c49f9662f,"Red Bank, NJ, USA","40.3470543, -74.0643065",40.3470543,-74.0643065,1,,,,,40.347,-74.064,40.347,-74.064,Match,,
13e694e8d173935bceead8d31d950313,"Toano, VA, USA","37.3797782, -76.8042261",37.3797782,-76.8042261,1,,,,,37.38,-76.804,37.38,-76.804,Match,,
13ec4f101f5dcb0ae3bf32e2263cd0ee,"Houston, TX, USA","29.7604267, -95.3698028",29.7604267,-95.3698028,1,,,,,29.76,-95.37,29.76,-95.37,Match,,
13fb403daf7a759ee1664ed80da399ae,"San Clemente, CA, USA","33.4273521, -117.6126004",33.4273521,-117.6126004,1,,,,,33.427,-117.613,33.427,-117.613,Match,,
14290bd4019a10b5944a66fa48211971,"Kansas City, MO, USA","39.0997265, -94.5785667",39.0997265,-94.5785667,1,,,,,39.1,-94.579,39.1,-94.579,Match,,
143985134279cd43f9678633c8154038,"Houston, TX, USA","29.7604267, -95.3698028",29.7604267,-95.3698028,1,,,,,29.76,-95.37,29.76,-95.37,Match,,
144d8c910322c4de01556eb6e7ff649f,"West Palm Beach, FL, USA","26.7153424, -80.0533746",26.7153424,-80.0533746,1,,,,,26.715,-80.053,26.715,-80.053,Match,,
1474167f744e5aaeb361d3d21cd57977,"Dallas, TX, USA","32.7766642, -96.7969879",32.7766642,-96.7969879,1,,,,,32.777,-96.797,32.777,-96.797,Match,,
148818803d6a42c651454e11d66f84b2,"New Haven, CT, USA","41.308274, -72.9278835",41.308274,-72.9278835,1,,,,,41.308,-72.928,41.308,-72.928,Match,,
1492dc6067bc6990f006631baa2618b7,"San Diego, CA, USA","32.715738, -117.1610838",32.715738,-117.1610838,1,,,,,32.716,-117.161,32.716,-117.161,Match,,
14a524ad1d8e65086ea266539f73f612,"Rosemont, IL, USA","41.9867507, -87.8721602",41.9867507,-87.8721602,1,,,,,41.987,-87.872,41.987,-87.872,Match,,
14b9201055f29e12531d6bf4d52a675e,"Las Vegas, NV, USA","36.1699412, -115.1398296",36.1699412,-115.1398296,1,,,,,36.17,-115.14,36.17,-115.14,Match,,
14d133b10ef1771be03a222cc450d187,"Oak Brook, IL, USA","41.8397865, -87.9535534",41.8397865,-87.9535534,1,,,,,41.84,-87.954,41.84,-87.954,Match,,
1504c1016c1c6cf5ec8e565d8a4b3f22,"Bad Homburg, Hessen, Germany","50.2268308, 8.6181618",50.2268308,8.6181618,1,,,,,50.227,8.618,50.227,8.618,Match,,
150a5941c01280179aa469e4619f1dd5,"Dallas, TX, USA","32.7766642, -96.7969879",32.7766642,-96.7969879,1,,,,,32.777,-96.797,32.777,-96.797,Match,,
150cb1f370f1fdae5bd1f4d7f2960315,"Atlanta, GA, USA","33.7489954, -84.3879824",33.7489954,-84.3879824,1,,,,,33.749,-84.388,33.749,-84.388,Match,,
154dfb857411f346b7840d2751612c6a,"Austin, TX, USA","30.267153, -97.7430608",30.267153,-97.7430608,1,,,,,30.267,-97.743,30.267,-97.743,Match,,
154fafb538d72b697312eb76efdfc81a,"Duluth, GA, USA","34.0028786, -84.1446376",34.0028786,-84.1446376,1,,,,,34.003,-84.145,34.003,-84.145,Match,,
1553026e80942e802d801d0183ce22f3,"Sugar Land, TX, USA","29.5984434, -95.6225521",29.5984434,-95.6225521,1,,,,,29.598,-95.623,29.598,-95.623,Match,,
1553e4d7c02e81a193b4c1832c07505d,"Maroussi, Greece","38.0549562, 23.807655",38.0549562,23.807655,1,,,,,38.055,23.808,38.055,23.808,Match,,
156d3f1ff98726855a8abf305009f8fa,"Woodbridge, NJ, USA","40.5575986, -74.2846022",40.5575986,-74.2846022,1,,,,,40.558,-74.285,40.558,-74.285,Match,,
1579885b70d2e593745d5c633d72ccec,"Canonsburg, PA, USA","40.2625702, -80.1872797",40.2625702,-80.1872797,1,,,,,40.263,-80.187,40.263,-80.187,Match,,
157f66ab65ee90622d17abd5ab0b0dc5,"Irvine, CA, USA","33.6845673, -117.8265049",33.6845673,-117.8265049,1,,,,,33.685,-117.827,33.685,-117.827,Match,,
15816fa2a4809924d23d646ed454484d,"Lyon, Rhne-Alpes, France","45.764043, 4.835659",45.764043,4.835659,1,,,,,45.764,4.836,45.764,4.836,Match,,
158bf34f2c57e95db0d4e04a4cf101ac,"Singapore, Singapore","1.352083, 103.819836",1.352083,103.819836,1,,,,,1.352,103.82,1.352,103.82,Match,,
15b37b2c1f69a7059c018bcecafca35a,"Bonita Springs, FL, USA","26.339806, -81.7786972",26.339806,-81.7786972,1,,,,,26.34,-81.779,26.34,-81.779,Match,,
15b3b39434e24514040c575fdecb4a7e,"Daimler AG HQ, Stuttgart, Germany","48.78742, 9.236939999999999",48.78742,9.23694,1,,,,,48.787,9.237,48.787,9.237,Match,,
15be8b64ed36e063c2a4175c6a30a92f,"Lake Success, NY, USA","40.7698453, -73.7090428",40.7698453,-73.7090428,1,,,,,40.77,-73.709,40.77,-73.709,Match,,
15bf8aec8ddba360e0f8ec8e9bfdd034,"Elyria, OH, USA","41.3683798, -82.1076486",41.3683798,-82.1076486,1,,,,,41.368,-82.108,41.368,-82.108,Match,,
15d237b17a3bad502bba1734f6a18336,"Waltham, MA, USA","42.3764852, -71.2356113",42.3764852,-71.2356113,1,,,,,42.376,-71.236,42.376,-71.236,Match,,
15e740b5efe14a425b3d97cdbe3add8f,"Chicago, IL, USA","41.8781136, -87.6297982",41.8781136,-87.6297982,1,,,,,41.878,-87.63,41.878,-87.63,Match,,
1606a9e7136c30b1c94c639f1e989891,"Pine Bluff, AR, USA","34.2284312, -92.0031955",34.2284312,-92.0031955,1,,,,,34.228,-92.003,34.228,-92.003,Match,,
1612f1e2222175272d23e3a7ba3b0bc9,"Northrop Grumman HQ, Falls Church, VA, USA","38.8677505, -77.2159054",38.8677505,-77.2159054,1,,,,,38.868,-77.216,38.868,-77.216,Match,,
161fed20415eb6d5b8e10fcb0f02675b,"Santa Clara, CA, USA","37.3541079, -121.9552356",37.3541079,-121.9552356,1,,,,,37.354,-121.955,37.354,-121.955,Match,,
16276952d344372a55016b95b3cbb2b9,"Choice Hotels HQ, Rockville, MD, USA","39.0857316, -77.1489833",39.0857316,-77.1489833,1,,,,,39.086,-77.149,39.086,-77.149,Match,,
162b2a1e7d5d771d2e4aa4fed1555877,"Panera Bread HQ, St. Louis, MO, USA","38.553627, -90.41435899999999",38.553627,-90.414359,1,,,,,38.554,-90.414,38.554,-90.414,Match,,
1641ee9db8deb01ec7bdc7986aa0b17f,"Hartford, CT, USA","41.7658043, -72.6733723",41.7658043,-72.6733723,1,,,,,41.766,-72.673,41.766,-72.673,Match,,
1655b407ecdd269c5752c9aed33f4389,"Oak Ridge, NJ, USA","41.0463617, -74.4856852",41.0463617,-74.4856852,1,,,,,41.046,-74.486,41.046,-74.486,Match,,
16663054d4cf729ade9087e03c647c89,"Allentown, PA, USA","40.6022939, -75.4714098",40.6022939,-75.4714098,1,,,,,40.602,-75.471,40.602,-75.471,Match,,
167355b982052a57474baae5efed5a07,"Westerlaan 10, Rotterdam","51.9053809, 4.4744014",51.9053809,4.4744014,1,,,,,51.905,4.474,51.905,4.474,Match,,
1675cda09e338d907d1ae24f45c79a82,"Houston, TX, USA","29.7604267, -95.3698028",29.7604267,-95.3698028,1,,,,,29.76,-95.37,29.76,-95.37,Match,,
16771a4a6249b682cb233e3da73381ca,"Cincinnati, OH, USA","39.1031182, -84.5120196",39.1031182,-84.5120196,1,,,,,39.103,-84.512,39.103,-84.512,Match,,
167889d6136ef7d643b0a1943d86b753,"Chesterfield, MO, USA","38.6487532, -90.530878",38.6487532,-90.530878,1,,,,,38.649,-90.531,38.649,-90.531,Match,,
1688dfdcdca8b0f3781c947d613e225d,"Green Bay, WI, USA","44.5133188, -88.0132958",44.5133188,-88.0132958,1,,,,,44.513,-88.013,44.513,-88.013,Match,,
1696c53ecc92210b1ff1a4621136c2f4,"Goodyear HQ, Akron, OH, USA","41.0592172, -81.4769863",41.0592172,-81.4769863,1,,,,,41.059,-81.477,41.059,-81.477,Match,,
16a14c1739bb9a91aa09af99fd749fd8,"Austin, TX, USA","30.267153, -97.7430608",30.267153,-97.7430608,1,,,,,30.267,-97.743,30.267,-97.743,Match,,
16b58a703a71f936b7b27bbf1ecf704e,"Sugar Land, TX, USA","29.5984434, -95.6225521",29.5984434,-95.6225521,1,,,,,29.598,-95.623,29.598,-95.623,Match,,
16b700c4e72fcc12cf67d0fe981fa9f1,"Sao Paulo, Sao Paulo, Brazil","-23.5505199, -46.6333094",-23.5505199,-46.6333094,1,,,,,-23.551,-46.633,-23.551,-46.633,Match,,
16c20f18c91366fe7f0f521a3c62994f,"Huntersville, NC, USA","35.410694, -80.8428504",35.410694,-80.8428504,1,,,,,35.411,-80.843,35.411,-80.843,Match,,
16d10d2adf535f20a6b1a90b70be88a6,"San Leandro, CA, USA","37.7257663, -122.1568554",37.7257663,-122.1568554,1,,,,,37.726,-122.157,37.726,-122.157,Match,,
16da36fa75728da526ac595c7c469559,"Ontario, CA, USA","34.0633443, -117.6508876",34.0633443,-117.6508876,1,,,,,34.063,-117.651,34.063,-117.651,Match,,
16e8f1a5b3c09ee68fc77206aea542a8,"Overland Park, KS, USA","38.9822282, -94.6707917",38.9822282,-94.6707917,1,,,,,38.982,-94.671,38.982,-94.671,Match,,
16eb3796340fa0af05dd1a3dfd6989c2,"Las Vegas, NV, USA","36.1699412, -115.1398296",36.1699412,-115.1398296,1,,,,,36.17,-115.14,36.17,-115.14,Match,,
16ec4551d9a0ea689cc6158f28d4b680,"Racine, WI, USA","42.7261309, -87.7828523",42.7261309,-87.7828523,1,,,,,42.726,-87.783,42.726,-87.783,Match,,
16f5ded0b55bce05cb22430473f30d22,"Austin, TX, USA","30.267153, -97.7430608",30.267153,-97.7430608,1,,,,,30.267,-97.743,30.267,-97.743,Match,,
16f891d30be91a161149c66e4977802e,"LinkedIn HQ, Sunnyvale, CA, USA","37.3924779, -122.0408104",37.3924779,-122.0408104,1,,,,,37.392,-122.041,37.392,-122.041,Match,,
16f9a915e3db8d32e7f88ab68c3128b5,"Chicago, IL, USA","41.8781136, -87.6297982",41.8781136,-87.6297982,1,,,,,41.878,-87.63,41.878,-87.63,Match,,
170530dca25861b917743d27ca8f5ff1,"Bristol, CT, USA","41.6717648, -72.9492703",41.6717648,-72.9492703,1,,,,,41.672,-72.949,41.672,-72.949,Match,,
1710dc1082a8794c3845f53530f80079,"Fremont, CA, USA","37.5485396, -121.988583",37.5485396,-121.988583,1,,,,,37.549,-121.989,37.549,-121.989,Match,,
17216a91f9758afb6498622ab750586d,"San Francisco, CA, USA","37.7749295, -122.4194155",37.7749295,-122.4194155,1,,,,,37.775,-122.419,37.775,-122.419,Match,,
172f134c7db3f3afed258f79968ffde0,"Dell HQ, Round Rock, TX, USA","30.4885997, -97.6704954",30.4885997,-97.6704954,1,,,,,30.489,-97.67,30.489,-97.67,Match,,
173894fb72563d39d7d7005cb7675094,"Dallas, TX, USA","32.7766642, -96.7969879",32.7766642,-96.7969879,1,,,,,32.777,-96.797,32.777,-96.797,Match,,
173ffc846f2c3792c5e439621237cc2b,"Minneapolis, MN, USA","44.977753, -93.2650108",44.977753,-93.2650108,1,,,,,44.978,-93.265,44.978,-93.265,Match,,
174aa6e276df07f10ac2c93f1b1d1834,"Rua Toms da Fonseca - Torre A, Lisbon 1600-209","38.7563058, -9.1761924",38.7563058,-9.1761924,1,,,,,38.756,-9.176,38.756,-9.176,Match,,
176cf31e0a283f3e9532f5ba9aaed770,"Indianapolis, IN, USA","39.768403, -86.158068",39.768403,-86.158068,1,,,,,39.768,-86.158,39.768,-86.158,Match,,
176f47c7c2c2a4ba625cd881fbc5e1e1,"Atlanta, GA, USA","33.7489954, -84.3879824",33.7489954,-84.3879824,1,,,,,33.749,-84.388,33.749,-84.388,Match,,
17726b11f9807e5eebea8a7a06a3b961,"Mansfield, OH, USA","40.75839, -82.5154471",40.75839,-82.5154471,1,,,,,40.758,-82.515,40.758,-82.515,Match,,
1796f5a933f14214cf10098c868deb64,"Vancouver, British Columbia, Canada","49.2827291, -123.1207375",49.2827291,-123.1207375,1,,,,,49.283,-123.121,49.283,-123.121,Match,,
17979a441ac0572e6eb3363772e5d3f4,"Secaucus, NJ, USA","40.7895453, -74.0565298",40.7895453,-74.0565298,1,,,,,40.79,-74.057,40.79,-74.057,Match,,
179b0582d7cc88cdb9584dae5d8b2b60,"Alameda, CA, USA","37.7798721, -122.2821855",37.7798721,-122.2821855,1,,,,,37.78,-122.282,37.78,-122.282,Match,,
17a08fef5d8560ee28965a6b9e1f696f,"Indianapolis, IN, USA","39.768403, -86.158068",39.768403,-86.158068,1,,,,,39.768,-86.158,39.768,-86.158,Match,,
17a715a4c569778e5bfb93d7b41577b9,"Rockville, MD, USA","39.0839973, -77.1527578",39.0839973,-77.1527578,1,,,,,39.084,-77.153,39.084,-77.153,Match,,
17a8684a030313c938b04c070c6696e4,"Omaha, NE, USA","41.2565369, -95.9345034",41.2565369,-95.9345034,1,,,,,41.257,-95.935,41.257,-95.935,Match,,
17b7cc608016d6c5b27b13503361bf59,"Tel Aviv, Israel","32.0852999, 34.7817676",32.0852999,34.7817676,1,,,,,32.085,34.782,32.085,34.782,Match,,
17c26583cd92c95c289249b489765b9e,"Houston, TX, USA","29.7604267, -95.3698028",29.7604267,-95.3698028,1,,,,,29.76,-95.37,29.76,-95.37,Match,,
17c8cccfd0f52d455f93df886d3766a0,"Baudette, MN, USA","48.7124736, -94.5999299",48.7124736,-94.5999299,1,,,,,48.712,-94.6,48.712,-94.6,Match,,
17f080e7d8f4258fcaa0f902640fdda4,"Tampa, FL, USA","27.950575, -82.4571776",27.950575,-82.4571776,1,,,,,27.951,-82.457,27.951,-82.457,Match,,
17f950b14a853fff9dd0a1893c2cd831,"Bogot, Colombia","4.7109886, -74.072092",4.7109886,-74.072092,1,,,,,4.711,-74.072,4.711,-74.072,Match,,
18031fff5bf6e76786ac8b2b8ecec981,"Chicago, IL, USA","41.8781136, -87.6297982",41.8781136,-87.6297982,1,,,,,41.878,-87.63,41.878,-87.63,Match,,
180d0f07bea6e793d4e521fb3b247411,"Equinor ASA HQ, Stavanger, Norway","58.8919935,5.7153656",58.8919935,5.7153656,1,,,,,58.892,5.715,58.892,5.715,Match,,
182d191bd34040e9740073057b95d5d7,"Luxembourg City, Luxembourg","49.611621, 6.1319346",49.611621,6.1319346,1,,,,,49.612,6.132,49.612,6.132,Match,,
18479383d3bdbe5cdf4311aea799845a,"South San Francisco, CA, USA","37.654656, -122.4077498",37.654656,-122.4077498,1,,,,,37.655,-122.408,37.655,-122.408,Match,,
1856d7eb3823ec00bbfb7eedea5fb4d1,"Malvern, PA, USA","40.0362184, -75.5138118",40.0362184,-75.5138118,1,,,,,40.036,-75.514,40.036,-75.514,Match,,
1859ca5b073e6c79fdd7973db99c796d,"Fort Lauderdale, FL, USA","26.1224386, -80.1373174",26.1224386,-80.1373174,1,,,,,26.122,-80.137,26.122,-80.137,Match,,
186f6310bdad2a58e8a34ec8a8cd689f,"Santa Monica, CA, USA","34.0194543, -118.4911912",34.0194543,-118.4911912,1,,,,,34.019,-118.491,34.019,-118.491,Match,,
188c36189daaaa972ae017bbf11c918b,"Chicago, IL, USA","41.8781136, -87.6297982",41.8781136,-87.6297982,1,,,,,41.878,-87.63,41.878,-87.63,Match,,
188d2705da9c61e1f8d00486837ed6a2,"Toronto, Ontario, Canada","43.653226, -79.3831843",43.653226,-79.3831843,1,,,,,43.653,-79.383,43.653,-79.383,Match,,
18a8f5ff91a13ec09bd52eb10b0a5be0,"Louisville, KY, USA","38.2526647, -85.7584557",38.2526647,-85.7584557,1,,,,,38.253,-85.758,38.253,-85.758,Match,,
18b883386dfb9523c05681a440bc54bb,"Midrand, Gauteng, South Africa","-25.9991795, 28.1262927",-25.9991795,28.1262927,1,,,,,-25.999,28.126,-25.999,28.126,Match,,
18c73908cdb40a053098c9673005c88d,"Newport, RI, USA","41.4901024, -71.3128285",41.4901024,-71.3128285,1,,,,,41.49,-71.313,41.49,-71.313,Match,,
18c97f3183497d3aaab147830b9ffd59,"Hauppauge, NY, USA","40.8256536, -73.2026138",40.8256536,-73.2026138,1,,,,,40.826,-73.203,40.826,-73.203,Match,,
18ded85669bebe634210cc13f4f3cec9,"Saskatoon, Saskatchewan, Canada","52.157902, -106.6701577",52.157902,-106.6701577,1,,,,,52.158,-106.67,52.158,-106.67,Match,,
18ea798d44793e3d15a197171cf7d1e4,"Melbourne, FL, USA","28.0836269, -80.6081089",28.0836269,-80.6081089,1,,,,,28.084,-80.608,28.084,-80.608,Match,,
18ebf39e7a5d74193e68b641c23a4f92,"Giant Eagle HQ, Pittsburgh, PA, USA","40.5090511, -79.86971539999999",40.5090511,-79.8697154,1,,,,,40.509,-79.87,40.509,-79.87,Match,,
18fb2d049ccb565db497a49e4a11cee0,"Atlanta, GA, USA","33.7489954, -84.3879824",33.7489954,-84.3879824,1,,,,,33.749,-84.388,33.749,-84.388,Match,,
18fd86cd29d718cc63bd5da14b2a0018,"San Francisco, CA, USA","37.7749295, -122.4194155",37.7749295,-122.4194155,1,,,,,37.775,-122.419,37.775,-122.419,Match,,
1903f7015e1e803b89a7a46b7e18f0a6,"Atchison, KS, USA","39.5630521, -95.1216356",39.5630521,-95.1216356,1,,,,,39.563,-95.122,39.563,-95.122,Match,,
1906a53206b21ddcc46a1bdec2ae8aff,"Quebec, Quebec, Canada","46.8138783, -71.2079809",46.8138783,-71.2079809,1,,,,,46.814,-71.208,46.814,-71.208,Match,,
1906cb4a385fe186ff33da6030f4f873,"Broadmeadows, Victoria 3047","-37.6879329, 144.9403009",-37.6879329,144.9403009,1,,,,,-37.688,144.94,-37.688,144.94,Match,,
190cbb6169c91eb202996f4c7438e482,"Cambridge, MA, USA","42.3736158, -71.1097335",42.3736158,-71.1097335,1,,,,,42.374,-71.11,42.374,-71.11,Match,,
1923ed2d76a6d69d21a1169e79c48a56,"Vancouver, WA, USA","45.6257379, -122.6760886",45.6257379,-122.6760886,1,,,,,45.626,-122.676,45.626,-122.676,Match,,
192f64e8ec3ec1ba626d4a7b55171391,"Ames, IA, USA","42.0307812, -93.6319131",42.0307812,-93.6319131,1,,,,,42.031,-93.632,42.031,-93.632,Match,,
1945d2d84c26c4367f5599e741b3cdac,"Irvine, CA, USA","33.6845673, -117.8265049",33.6845673,-117.8265049,1,,,,,33.685,-117.827,33.685,-117.827,Match,,
1968021bbf417bb20ab44fd222c055d2,"Newark, CA, USA","37.5299765, -122.0383968",37.5299765,-122.0383968,1,,,,,37.53,-122.038,37.53,-122.038,Match,,
196f31db2c55dcf8d4f317ac46ef35cc,"Beltsville, MD, USA","39.0348317, -76.9074739",39.0348317,-76.9074739,1,,,,,39.035,-76.907,39.035,-76.907,Match,,
196fed690253c185570007284e57cb56,"Watertown, MA, USA","42.3709299, -71.1828321",42.3709299,-71.1828321,1,,,,,42.371,-71.183,42.371,-71.183,Match,,
1970b993085e65077f5ff83563ba2c75,"Westlake Village, CA, USA","34.1466467, -118.8073729",34.1466467,-118.8073729,1,,,,,34.147,-118.807,34.147,-118.807,Match,,
197299dc43e16c7cf32dfd9bfca1d0bf,"Alpha, NJ, USA","40.6643908, -75.1548362",40.6643908,-75.1548362,1,,,,,40.664,-75.155,40.664,-75.155,Match,,
19825a5c1e8d158039913720c9e7afc9,"London, UK","51.5073509, -0.1277583",51.5073509,-0.1277583,1,,,,,51.507,-0.128,51.507,-0.128,Match,,
199705fb8165869c9b413e527bee4f4c,"Abilene, TX, USA","32.4487364, -99.7331439",32.4487364,-99.7331439,1,,,,,32.449,-99.733,32.449,-99.733,Match,,
19a8fc5ea48ae35f4f4225b8e2879ccd,"Monte Carlo, Monaco","43.7400718, 7.4266436",43.7400718,7.4266436,1,,,,,43.74,7.427,43.74,7.427,Match,,
19e3a14487e6d9077406b09cc26f994a,"Lake Forest, IL, USA","42.2586342, -87.840625",42.2586342,-87.840625,1,,,,,42.259,-87.841,42.259,-87.841,Match,,
19ed1a9f49895c64e95dc95d23bf95f7,"Boston Scientific HQ, Marlborough, MA, USA","42.3614809, -71.5591961",42.3614809,-71.5591961,1,,,,,42.361,-71.559,42.361,-71.559,Match,,
1a0feb3ecec0fba3a8ba085b5a9d3153,"Honolulu, HI, USA","21.3069444, -157.8583333",21.3069444,-157.8583333,1,,,,,21.307,-157.858,21.307,-157.858,Match,,
1a29a909fbb426db8c6f99fbf6225d46,"Stoughton, MA, USA","42.1229099, -71.1092012",42.1229099,-71.1092012,1,,,,,42.123,-71.109,42.123,-71.109,Match,,
1a2a24047dab09fa635f61edd6baa9ff,"Texas Instruments Incorporated HQ, Dallas, TX, USA","32.9117026, -96.7526654",32.9117026,-96.7526654,1,,,,,32.912,-96.753,32.912,-96.753,Match,,
1a2bdfdea59ec1d5a32c9e47ffec8c5b,"Raleigh, NC, USA","35.7795897, -78.6381787",35.7795897,-78.6381787,1,,,,,35.78,-78.638,35.78,-78.638,Match,,
1a379d49b8e21336a9ab4c5153ca1c95,"Secaucus, NJ, USA","40.7895453, -74.0565298",40.7895453,-74.0565298,1,,,,,40.79,-74.057,40.79,-74.057,Match,,
1a3f2b131daa5ad6f5d96d78768e9162,"Hess Corporation HQ, New York, NY, USA","40.7579754, -73.98231919999999",40.7579754,-73.9823192,1,,,,,40.758,-73.982,40.758,-73.982,Match,,
1a4abbdda63fcdcb59737a1864929d80,"Shanghai, China","31.230416, 121.473701",31.230416,121.473701,1,,,,,31.23,121.474,31.23,121.474,Match,,
1a61a36ab189a84d2682ad82b67eb33f,"San Diego, CA, USA","32.715738, -117.1610838",32.715738,-117.1610838,1,,,,,32.716,-117.161,32.716,-117.161,Match,,
1a63b6f654f27ac09e96502284942e47,"Vancouver, British Columbia, Canada","49.2827291, -123.1207375",49.2827291,-123.1207375,1,,,,,49.283,-123.121,49.283,-123.121,Match,,
1a77e5cb2db559f6a9c59b980c98c2a9,"Sunnyvale, CA, USA","37.36883, -122.0363496",37.36883,-122.0363496,1,,,,,37.369,-122.036,37.369,-122.036,Match,,
1a9961666b7ee01dc5aecfe8d88faead,"Orlando, FL, USA","28.5383355, -81.3792365",28.5383355,-81.3792365,1,,,,,28.538,-81.379,28.538,-81.379,Match,,
1aa01e423c54bc94ddca3346ea396dd8,"Irvine, CA, USA","33.6845673, -117.8265049",33.6845673,-117.8265049,1,,,,,33.685,-117.827,33.685,-117.827,Match,,
1aa16941982829c483d280c8615bb99b,"Santa Monica, CA, USA","34.0194543, -118.4911912",34.0194543,-118.4911912,1,,,,,34.019,-118.491,34.019,-118.491,Match,,
1aea85ca4efd83657e9859dfd0db68b2,"Marietta, GA, USA","33.952602, -84.5499327",33.952602,-84.5499327,1,,,,,33.953,-84.55,33.953,-84.55,Match,,
1aee4ad21cfe8b58271f72a21f0830e1,"St. Louis, MO, USA","38.6270025, -90.1994042",38.6270025,-90.1994042,1,,,,,38.627,-90.199,38.627,-90.199,Match,,
1af1f09d309b165fef79223216574a96,"Sao Paulo, Sao Paulo, Brazil","-23.5505199, -46.6333094",-23.5505199,-46.6333094,1,,,,,-23.551,-46.633,-23.551,-46.633,Match,,
1afb452670ffa6dfac49e52a7fd74e51,"Naples, FL, USA","26.1420358, -81.7948103",26.1420358,-81.7948103,1,,,,,26.142,-81.795,26.142,-81.795,Match,,
1b112dc6a8516b45bbe601f4ace77104,"Hamilton, Bermuda","32.2945837, -64.7858887",32.2945837,-64.7858887,1,,,,,32.295,-64.786,32.295,-64.786,Match,,
1b15f33484b7bdf0b7e4745519e6f212,"San Antonio, TX, USA","29.4241219, -98.4936282",29.4241219,-98.4936282,1,,,,,29.424,-98.494,29.424,-98.494,Match,,
1b2a1bccabfcc7bf71adcbdb34a4ecc2,"Woodside Energy Ltd HQ, Perth, Australia","-31.953808, 115.8498629",-31.953808,115.8498629,1,,,,,-31.954,115.85,-31.954,115.85,Match,,
1b463f306b0ced3a4aa00df8eca1acb8,"New York, NY, USA","40.7127753, -74.0059728",40.7127753,-74.0059728,1,,,,,40.713,-74.006,40.713,-74.006,Match,,
1b4b16557d05fe8226226b5d3383e48f,"Tel Aviv, Israel","32.0852999, 34.7817676",32.0852999,34.7817676,1,,,,,32.085,34.782,32.085,34.782,Match,,
1b6c80b8f66954eb1c4e1e13facf8b6d,"Dallas, TX, USA","32.7766642, -96.7969879",32.7766642,-96.7969879,1,,,,,32.777,-96.797,32.777,-96.797,Match,,
1b76a1b4e1f3c485fa6ed2a845814345,"F.N.B. Corporation HQ, Pittsburgh, PA, USA","40.4487944, -80.00344539999999",40.4487944,-80.0034454,1,,,,,40.449,-80.003,40.449,-80.003,Match,,
1b8156a079801f56e376099efbb8ff38,"Salt Lake City, UT, USA","40.7607793, -111.8910474",40.7607793,-111.8910474,1,,,,,40.761,-111.891,40.761,-111.891,Match,,
1b822ee42f8289c9646b11f11221708b,"Cambridge, MA, USA","42.3736158, -71.1097335",42.3736158,-71.1097335,1,,,,,42.374,-71.11,42.374,-71.11,Match,,
1b9c4f335ce7709011f3dfad62f47306,"San Diego, CA, USA","32.715738, -117.1610838",32.715738,-117.1610838,1,,,,,32.716,-117.161,32.716,-117.161,Match,,
1ba6cffe652f2586b92ee0ae3ad5c924,"Toronto, Ontario, Canada","43.653226, -79.3831843",43.653226,-79.3831843,1,,,,,43.653,-79.383,43.653,-79.383,Match,,
1bcf8be67b59aab7721f98ae30f1bc46,"Chicago, IL, USA","41.8781136, -87.6297982",41.8781136,-87.6297982,1,,,,,41.878,-87.63,41.878,-87.63,Match,,
1bd01c442740e2ff035b858aa49b957a,"Louisville, KY, USA","38.2526647, -85.7584557",38.2526647,-85.7584557,1,,,,,38.253,-85.758,38.253,-85.758,Match,,
1bf669621134ea968410c1e5213352c0,"Austin, TX, USA","30.267153, -97.7430608",30.267153,-97.7430608,1,,,,,30.267,-97.743,30.267,-97.743,Match,,
1c15334f9fb45a77abd44d8bec09d772,"Mississauga, Ontario, Canada","43.5890452, -79.6441198",43.5890452,-79.6441198,1,,,,,43.589,-79.644,43.589,-79.644,Match,,
1c1a7a694545266e9097edda3e8cb2f8,"Houston, TX, USA","29.7604267, -95.3698028",29.7604267,-95.3698028,1,,,,,29.76,-95.37,29.76,-95.37,Match,,
1c25e632d240e0b6190284dd95d7d2d1,"Santa Clara, CA, USA","37.3541079, -121.9552356",37.3541079,-121.9552356,1,,,,,37.354,-121.955,37.354,-121.955,Match,,
1c2baa74a7fee14a252489bed58a426c,"Omaha, NE, USA","41.2565369, -95.9345034",41.2565369,-95.9345034,1,,,,,41.257,-95.935,41.257,-95.935,Match,,
1c3b377c794fc0cafc087346d01d0a13,"Hormel Foods HQ, Austin, MN, USA","43.6764807, -92.97556279999999",43.6764807,-92.9755628,1,,,,,43.676,-92.976,43.676,-92.976,Match,,
1c466548a7daa8190e9c6e51b292793b,"Ballerup, Capital Region Of Denmark, Denmark","55.724508, 12.354765",55.724508,12.354765,1,,,,,55.725,12.355,55.725,12.355,Match,,
1c5451bc2ac051c34dbf7e2bdd4c5286,"Wayne, PA, USA","40.0415996, -75.3698895",40.0415996,-75.3698895,1,,,,,40.042,-75.37,40.042,-75.37,Match,,
1c550113bbd7bc9a893044d0d9a57629,"Montreal, Quebec, Canada","45.5016889, -73.567256",45.5016889,-73.567256,1,,,,,45.502,-73.567,45.502,-73.567,Match,,
1c5ad1895ac374832d948494963a4bb2,"Lenexa, KS, USA","38.9536174, -94.7335709",38.9536174,-94.7335709,1,,,,,38.954,-94.734,38.954,-94.734,Match,,
1c5b8fe4a912bc365db12ce42506cd83,"Poughkeepsie, NY, USA","41.7003713, -73.9209701",41.7003713,-73.9209701,1,,,,,41.7,-73.921,41.7,-73.921,Match,,
1c617881f1194dd78b8dac36a1579b20,"Beijing, China","39.9041999, 116.4073963",39.9041999,116.4073963,1,,,,,39.904,116.407,39.904,116.407,Match,,
1c6b7355d109e907bd5a0a22fe8c5c29,"Universal Music Group HQ, Santa Monica, CA, USA","34.0194543, -118.4911912",34.0194543,-118.4911912,1,,,,,34.019,-118.491,34.019,-118.491,Match,,
1c7918ed256be41afde266614784b84c,"Guangzhou, Guangdong Province, China","23.12911, 113.264385",23.12911,113.264385,1,,,,,23.129,113.264,23.129,113.264,Match,,
1c7f53abe31309e953fda92e6b447b3b,"Melville, NY, USA","40.7934322, -73.4151214",40.7934322,-73.4151214,1,,,,,40.793,-73.415,40.793,-73.415,Match,,
1cb134be4c341441d394951c92b6f997,"Dyson Ltd HQ, Malmesbury, UK","51.595938, -2.1037678",51.595938,-2.1037678,1,,,,,51.596,-2.104,51.596,-2.104,Match,,
1cb3e64e8cf3c2607881a9b7b7fcf985,"Seattle, WA, USA","47.6062095, -122.3320708",47.6062095,-122.3320708,1,,,,,47.606,-122.332,47.606,-122.332,Match,,
1cb7baab8f4e17238bf34dbd99e2be50,"New York, NY, USA","40.7127753, -74.0059728",40.7127753,-74.0059728,1,,,,,40.713,-74.006,40.713,-74.006,Match,,
1cb91d9497b4e9eeae4db025f804d409,"Phoenix, AZ, USA","33.4483771, -112.0740373",33.4483771,-112.0740373,1,,,,,33.448,-112.074,33.448,-112.074,Match,,
1ccd4a0122c71cabc85c1d4fbbd52f5c,"Amsterdam, Noord-Holland, Netherlands","52.3675734, 4.9041389",52.3675734,4.9041389,1,,,,,52.368,4.904,52.368,4.904,Match,,
1cd2c8c8879bc36c62ad81c0ba79c29d,"Madison, WI, USA","43.0730517, -89.4012302",43.0730517,-89.4012302,1,,,,,43.073,-89.401,43.073,-89.401,Match,,
1cde8845056166585630cec21d7f84aa,"Bloomfield Hills, MI,USA","42.583645, -83.2454883",42.583645,-83.2454883,1,,,,,42.584,-83.245,42.584,-83.245,Match,,
1ce4ea6215e86f73acffa1cd9b3af1d5,"Cambridge, MA, USA","42.3736158, -71.1097335",42.3736158,-71.1097335,1,,,,,42.374,-71.11,42.374,-71.11,Match,,
1ce97e9f8ca19e4a927ff7deb1d3abd3,"Chicago, IL, USA","41.8781136, -87.6297982",41.8781136,-87.6297982,1,,,,,41.878,-87.63,41.878,-87.63,Match,,
1cfc6ff9581618175b2acc03844b825f,"Moorestown, NJ, USA","39.9688817, -74.948886",39.9688817,-74.948886,1,,,,,39.969,-74.949,39.969,-74.949,Match,,
1d18d063caff5d6979bed6e99243244b,"Wilmington, DE, USA","39.744655, -75.5483909",39.744655,-75.5483909,1,,,,,39.745,-75.548,39.745,-75.548,Match,,
1d21729cc22c9cbc6f425fbd66e9580c,"Hayward, CA, USA","37.6687665, -122.0809964",37.6687665,-122.0809964,1,,,,,37.669,-122.081,37.669,-122.081,Match,,
1d622d8c89175f093b48dbba53a94a2c,"Fort Smith, AR, USA","35.3859242, -94.3985475",35.3859242,-94.3985475,1,,,,,35.386,-94.399,35.386,-94.399,Match,,
1d66d54286c9bedc49941c388fbe56be,"Suncor HQ, Calgary, Canada","51.047918, -114.0644613",51.047918,-114.0644613,1,,,,,51.048,-114.064,51.048,-114.064,Match,,
1d67248edc3b688ce9c842c7f1db4fd2,"Newton, NC, USA","35.6698552, -81.2214708",35.6698552,-81.2214708,1,,,,,35.67,-81.221,35.67,-81.221,Match,,
1d6bad58be5cf0e94c0c5e0ad499da49,"Fort Collins, CO, USA","40.5852602, -105.084423",40.5852602,-105.084423,1,,,,,40.585,-105.084,40.585,-105.084,Match,,
1d81ca0dd710c65554c35e9a913f1126,"Lazard Asset Management HQ, New York, NY, USA","40.7593755, -73.9799726",40.7593755,-73.9799726,1,,,,,40.759,-73.98,40.759,-73.98,Match,,
1d93f923dc329b1f556e636af5b6f707,"Overland Park, KS, USA","38.9822282, -94.6707917",38.9822282,-94.6707917,1,,,,,38.982,-94.671,38.982,-94.671,Match,,
1d94ee5bcadea106f615479551052d17,"Seoul, South Korea","37.566535, 126.9779692",37.566535,126.9779692,1,,,,,37.567,126.978,37.567,126.978,Match,,
1dac3e17977c16d16c998a6d462bd59c,"Tokyo, Japan","35.6761919, 139.6503106",35.6761919,139.6503106,1,,,,,35.676,139.65,35.676,139.65,Match,,
1dbcc8b8a1e11305ba711919d1290076,"Beijing, China","39.9041999, 116.4073963",39.9041999,116.4073963,1,,,,,39.904,116.407,39.904,116.407,Match,,
1dbcdeb5c47c12bff1078ca1148aa011,"Ventura, CA, USA","34.2804923, -119.2945199",34.2804923,-119.2945199,1,,,,,34.28,-119.295,34.28,-119.295,Match,,
1dc01c5bc420aeeeb3c91dfd99828ce7,"Erie, PA, USA","42.1292241, -80.085059",42.1292241,-80.085059,1,,,,,42.129,-80.085,42.129,-80.085,Match,,
1dd5303d9417c43e8226222646f8d307,"Rochester, NY, USA","43.1565779, -77.6088465",43.1565779,-77.6088465,1,,,,,43.157,-77.609,43.157,-77.609,Match,,
1e03bb3aeabeabeb5b3eee544c34d3ef,"Cary, North Carolina 27513","35.8184931, -78.7539266",35.8184931,-78.7539266,1,,,,,35.818,-78.754,35.818,-78.754,Match,,
1e09eb73cc28ddab4a7d5f110bb91492,"MetLife HQ, New York, NY, USA","40.7533488, -73.9766668",40.7533488,-73.9766668,1,,,,,40.753,-73.977,40.753,-73.977,Match,,
1e5267449e4394ebd4fca232fabe5667,"Lehi, UT, USA","40.3916172, -111.8507662",40.3916172,-111.8507662,1,,,,,40.392,-111.851,40.392,-111.851,Match,,
1e600266ad4eb801ec4fd88cb08284ee,"Tainan City, Taiwan","22.9997281, 120.2270277",22.9997281,120.2270277,1,,,,,23,120.227,23,120.227,Match,,
1e6bf44944f59a740527711213fed59d,"The Woodlands, TX, USA","30.1658207, -95.4612625",30.1658207,-95.4612625,1,,,,,30.166,-95.461,30.166,-95.461,Match,,
1e703edbb40e18469bfa5898cb779e6d,"San Diego, CA, USA","32.715738, -117.1610838",32.715738,-117.1610838,1,,,,,32.716,-117.161,32.716,-117.161,Match,,
1e72a4359006e99d5f34aefae8f32017,"Irving, TX, USA","32.8140177, -96.9488945",32.8140177,-96.9488945,1,,,,,32.814,-96.949,32.814,-96.949,Match,,
1e7da0f9772fa15b8c1dbcb13251fb88,"New York, NY, USA","40.7127753, -74.0059728",40.7127753,-74.0059728,1,,,,,40.713,-74.006,40.713,-74.006,Match,,
1e8728300b0ee59d7fc9c401967809a6,"Hilliard, OH, USA","40.0333961, -83.1582451",40.0333961,-83.1582451,1,,,,,40.033,-83.158,40.033,-83.158,Match,,
1e8efb6d2c02a70af5041088361f83f3,"Netflix, Inc. HQ, Los Gatos, CA, USA","37.2593139, -121.9619835",37.2593139,-121.9619835,1,,,,,37.259,-121.962,37.259,-121.962,Match,,
1e9811e2dae64cccd1e4881b9bdde0af,"Palo Alto, CA, USA","37.4418834, -122.1430195",37.4418834,-122.1430195,1,,,,,37.442,-122.143,37.442,-122.143,Match,,
1ebaa90cdd394dfdd7cc3ec2edba0d1e,"Delta, British Columbia, Canada","49.0952155, -123.0264758",49.0952155,-123.0264758,1,,,,,49.095,-123.026,49.095,-123.026,Match,,
1ec804fb57f06288ef1ffc112e9ec961,"Denver, CO, USA","39.7392358, -104.990251",39.7392358,-104.990251,1,,,,,39.739,-104.99,39.739,-104.99,Match,,
1ec80e2e650e0dd58790bce9c30b0cd9,"Illinois, USA","42.0974442, -87.8236963",42.0974442,-87.8236963,1,,,,,42.097,-87.824,42.097,-87.824,Match,,
1edb022bb84c2fa425ffe195327d22db,"Wilmington, DE, USA","39.744655, -75.5483909",39.744655,-75.5483909,1,,,,,39.745,-75.548,39.745,-75.548,Match,,
1eee3025bee1baaeb0e34791939ff715,"Canonsburg, PA, USA","40.2625702, -80.1872797",40.2625702,-80.1872797,1,,,,,40.263,-80.187,40.263,-80.187,Match,,
1ef0102c6a04f8668eb7fc318a5250a9,"New York, NY, USA","40.7127753, -74.0059728",40.7127753,-74.0059728,1,,,,,40.713,-74.006,40.713,-74.006,Match,,
1f0d1ac39c356c4bb2956387ed63cc3c,"Mayfield Heights, OH, USA","41.5192189, -81.457896",41.5192189,-81.457896,1,,,,,41.519,-81.458,41.519,-81.458,Match,,
1f1fdd89aa2537d1df40cb033b77f44d,"San Diego, CA, USA","32.715738, -117.1610838",32.715738,-117.1610838,1,,,,,32.716,-117.161,32.716,-117.161,Match,,
1f2b92c8c8fd42cf6415d15d9c71a9a0,"Toronto, Ontario, Canada","43.653226, -79.3831843",43.653226,-79.3831843,1,,,,,43.653,-79.383,43.653,-79.383,Match,,
1f34be465487db300d6a587bd202f1f9,"Grosse Pointe Farms, MI,USA","42.4092038, -82.8918587",42.4092038,-82.8918587,1,,,,,42.409,-82.892,42.409,-82.892,Match,,
1f46a67ae7e6023e6cffca51f4a46c16,"Biogen HQ, Cambridge, MA, USA","42.3662897, -71.0857637",42.3662897,-71.0857637,1,,,,,42.366,-71.086,42.366,-71.086,Match,,
1f55c64c21e8d20a3b2d61eb30f2844b,"Cambridge, MA, USA","42.3736158, -71.1097335",42.3736158,-71.1097335,1,,,,,42.374,-71.11,42.374,-71.11,Match,,
1f6b09433ddff11d175e7e8680ef6f21,"Caesars Entertainment HQ, Las Vegas, NV, USA","36.1165658, -115.1752403",36.1165658,-115.1752403,1,,,,,36.117,-115.175,36.117,-115.175,Match,,
1f752e63315b2f27599ac68cd6b27f15,"Wanchai, Hong Kong","22.276022, 114.1751471",22.276022,114.1751471,1,,,,,22.276,114.175,22.276,114.175,Match,,
1f8aac41beee31501643c1197f51556e,"London, Greater London, UK","51.5073509, -0.1277583",51.5073509,-0.1277583,1,,,,,51.507,-0.128,51.507,-0.128,Match,,
1fb79ffd99c69fe52aad6317426fa1ee,"Richmond, VA, USA","37.5407246, -77.4360481",37.5407246,-77.4360481,1,,,,,37.541,-77.436,37.541,-77.436,Match,,
1fbbad0baa62e0c0298043a29d94cf28,"Southwest Airlines Co. HQ, Dallas, TX, USA","32.84540700000001, -96.86211329999999",32.845407,-96.8621133,1,,,,,32.845,-96.862,32.845,-96.862,Match,,
1fcc8d66d49d6d08f60bf0225748584d,"Seattle, WA, USA","47.6062095, -122.3320708",47.6062095,-122.3320708,1,,,,,47.606,-122.332,47.606,-122.332,Match,,
1fd2e9c7a347dcb0a7c8c4f3c55d82cc,"Shanghai, China","31.230416, 121.473701",31.230416,121.473701,1,,,,,31.23,121.474,31.23,121.474,Match,,
1fdf112fc5b2a34b904350f49d01fd95,"Hamilton, Bermuda","32.2945837, -64.7858887",32.2945837,-64.7858887,1,,,,,32.295,-64.786,32.295,-64.786,Match,,
1fdf9d6ce915248a2708f454e88b8fda,"New York, NY, USA","40.7127753, -74.0059728",40.7127753,-74.0059728,1,,,,,40.713,-74.006,40.713,-74.006,Match,,
1fe1d22e6e767feb1e2b9f6477dc9a24,"Feltham, Middlesex, UK","51.444148, -0.410772",51.444148,-0.410772,1,,,,,51.444,-0.411,51.444,-0.411,Match,,
1ff17b627afea818098df1ff4fd2526a,"Charlotte, NC 28210","35.1517607, -80.8402873",35.1517607,-80.8402873,1,,,,,35.152,-80.84,35.152,-80.84,Match,,
1ff39e78dcf62fc3e190bb50b732acda,"Clearwater, FL, USA","27.9658533, -82.8001026",27.9658533,-82.8001026,1,,,,,27.966,-82.8,27.966,-82.8,Match,,
1ff8bd7f7e8e20867550825c73d56386,"Chicago, IL, USA","41.8781136, -87.6297982",41.8781136,-87.6297982,1,,,,,41.878,-87.63,41.878,-87.63,Match,,
20156daa6a9f045a2911e1e716c9adfc,"Miramar, FL, USA","25.9860762, -80.3035602",25.9860762,-80.3035602,1,,,,,25.986,-80.304,25.986,-80.304,Match,,
201ad1fbd6b93e7a274c84fe94a59a15,"Boston, MA, USA","42.3600825, -71.0588801",42.3600825,-71.0588801,1,,,,,42.36,-71.059,42.36,-71.059,Match,,
201bcd91a5d042f4e587be80fd3378ff,"CSX Transportation HQ, Jacksonville, FL, USA","30.32452109999999, -81.6640579",30.3245211,-81.6640579,1,,,,,30.325,-81.664,30.325,-81.664,Match,,
2033112339ca9f92c198e156f2fbe9da,"Parsippany, NJ, USA","40.8652865, -74.4173877",40.8652865,-74.4173877,1,,,,,40.865,-74.417,40.865,-74.417,Match,,
2037bdb717b3511c220447491342823c,"British American Tobacco HQ, London, UK","51.5117643, -0.1133317",51.5117643,-0.1133317,1,,,,,51.512,-0.113,51.512,-0.113,Match,,
203842a0003ebdb21e3de088b59b7c40,"Jacksonville, FL, USA","30.3321838, -81.655651",30.3321838,-81.655651,1,,,,,30.332,-81.656,30.332,-81.656,Match,,
203cdf3255eaf49423081e750b3886d5,"Beaverton, OR, USA","45.4888761, -122.8013771",45.4888761,-122.8013771,1,,,,,45.489,-122.801,45.489,-122.801,Match,,
20400c7ba06425baad13911f3e09d79f,"North Kansas City, MO, USA","39.1429081, -94.5729781",39.1429081,-94.5729781,1,,,,,39.143,-94.573,39.143,-94.573,Match,,
205bda139c313556f53facc6bcd9fb08,"Weston, FL, USA","26.1003654, -80.3997748",26.1003654,-80.3997748,1,,,,,26.1,-80.4,26.1,-80.4,Match,,
2068f3802e4ad38f6146d81353ae41c2,"Marlborough, MA, USA","42.3459271, -71.5522874",42.3459271,-71.5522874,1,,,,,42.346,-71.552,42.346,-71.552,Match,,
2070f30565bc6c08bad976726ed2d595,"Dublin, Co. Dublin, Ireland","53.3498053, -6.2603097",53.3498053,-6.2603097,1,,,,,53.35,-6.26,53.35,-6.26,Match,,
2081e5971ab9d0f07c2737ee46e373ca,"Beachwood, OH, USA","41.4644979, -81.5087322",41.4644979,-81.5087322,1,,,,,41.464,-81.509,41.464,-81.509,Match,,
2084e9b63e1e624651708716fc37236e,"Cranbury, NJ, USA","40.3025907, -74.511172",40.3025907,-74.511172,1,,,,,40.303,-74.511,40.303,-74.511,Match,,
208993b35a789d7f73003a6fcc7ac999,"Toronto, Ontario, Canada","43.653226, -79.3831843",43.653226,-79.3831843,1,,,,,43.653,-79.383,43.653,-79.383,Match,,
20c1e0cf88e457e4b64d9aea64c58193,"Toronto, Ontario, Canada","43.653226, -79.3831843",43.653226,-79.3831843,1,,,,,43.653,-79.383,43.653,-79.383,Match,,
20e5d776a477d58bd147b4d925402a11,"Fort Lauderdale, FL, USA","26.1224386, -80.1373174",26.1224386,-80.1373174,1,,,,,26.122,-80.137,26.122,-80.137,Match,,
20f9cc5b7bbe205f4980f471600584f9,"Kraft Heinz Company HQ, Chicago, IL, USA","41.8852827, -87.62151229999999",41.8852827,-87.6215123,1,,,,,41.885,-87.622,41.885,-87.622,Match,,
20fc87d2a8fb8ac6823a31674fde2fe0,"Nashville, TN, USA","36.1626638, -86.7816016",36.1626638,-86.7816016,1,,,,,36.163,-86.782,36.163,-86.782,Match,,
2114a060d0e8eeed78eec1d4cbb06a5a,"Houston, TX, USA","29.7604267, -95.3698028",29.7604267,-95.3698028,1,,,,,29.76,-95.37,29.76,-95.37,Match,,
2130952c9608a342202e7d993b57c634,"Sykesville, MD, USA","39.3737149, -76.9677566",39.3737149,-76.9677566,1,,,,,39.374,-76.968,39.374,-76.968,Match,,
2130ef9a7cb5ef3066f4df2cc794a5db,"DTE Energy HQ, Detroit, MI, USA","42.3336342, -83.057724",42.3336342,-83.057724,1,,,,,42.334,-83.058,42.334,-83.058,Match,,
21351d23e977ee7545a320bbb04c03f8,"Dublin, Co. Dublin, Ireland","53.3498053, -6.2603097",53.3498053,-6.2603097,1,,,,,53.35,-6.26,53.35,-6.26,Match,,
2137a6af48348a2d1fa40c2c15a4de36,"Minneapolis, MN, USA","44.977753, -93.2650108",44.977753,-93.2650108,1,,,,,44.978,-93.265,44.978,-93.265,Match,,
2155e5abbdfd293b3e6d007d7c8fbb7a,"Fort Lauderdale, FL, USA","26.062846, -80.16477309999999",26.062846,-80.1647731,1,,,,,26.063,-80.165,26.063,-80.165,Match,,
216750aaa23e1094715bfb3d3441730c,"Hamilton, Bermuda","32.2945837, -64.7858887",32.2945837,-64.7858887,1,,,,,32.295,-64.786,32.295,-64.786,Match,,
217fdeacb0afb1051866fd5d70bc05ef,"New York, NY, USA","40.7127753, -74.0059728",40.7127753,-74.0059728,1,,,,,40.713,-74.006,40.713,-74.006,Match,,
21829c9193047df4d2ab6eb90ffd1d23,"Ann Arbor, MI,USA","42.2808256, -83.7430378",42.2808256,-83.7430378,1,,,,,42.281,-83.743,42.281,-83.743,Match,,
219e44be793598a43a4440e308d3b729,"Addison, TX, USA","32.96179, -96.8291685",32.96179,-96.8291685,1,,,,,32.962,-96.829,32.962,-96.829,Match,,
21aeae6b2d5630ed8ee6b7bd79a8ec10,"Denver, CO, USA","39.7392358, -104.990251",39.7392358,-104.990251,1,,,,,39.739,-104.99,39.739,-104.99,Match,,
21b3b898458110f2ef51f1df99931bc4,"Birmingham, MI,USA","42.5467012, -83.2113192",42.5467012,-83.2113192,1,,,,,42.547,-83.211,42.547,-83.211,Match,,
21ca629afb1b7c9884f97a2f5e9593ff,"Chandler, AZ, USA","33.3061605, -111.8412502",33.3061605,-111.8412502,1,,,,,33.306,-111.841,33.306,-111.841,Match,,
21d495737fc81a7d77f488a7aedac092,"Berlin, Berlin, Germany","52.5200066, 13.404954",52.5200066,13.404954,1,,,,,52.52,13.405,52.52,13.405,Match,,
21d77df4ea048cec72159244d2477312,"Cambridge, MA, USA","42.3736158, -71.1097335",42.3736158,-71.1097335,1,,,,,42.374,-71.11,42.374,-71.11,Match,,
21e815a3b998be1a2c243166eeec7eb4,"Oklahoma City, OK, USA","35.4675602, -97.5164276",35.4675602,-97.5164276,1,,,,,35.468,-97.516,35.468,-97.516,Match,,
21edaa40fd9eb9d3176b0ec0c0fc94ab,"Moncton, New Brunswick, Canada","46.0878165, -64.7782313",46.0878165,-64.7782313,1,,,,,46.088,-64.778,46.088,-64.778,Match,,
21f0e468967c579855d9ef4fe1dcf98b,"New York, NY, USA","40.7127753, -74.0059728",40.7127753,-74.0059728,1,,,,,40.713,-74.006,40.713,-74.006,Match,,
21fbcfcc7ead6e1beb63f9121c98e990,"New York, NY, USA","40.7127753, -74.0059728",40.7127753,-74.0059728,1,,,,,40.713,-74.006,40.713,-74.006,Match,,
21fd674125827114efa14efd67060e36,"Bedford, MA, USA","42.4906231, -71.2760089",42.4906231,-71.2760089,1,,,,,42.491,-71.276,42.491,-71.276,Match,,
220ff3293d88b1eda150873b568b7fc2,"Carmel, IN, USA","39.978371, -86.1180435",39.978371,-86.1180435,1,,,,,39.978,-86.118,39.978,-86.118,Match,,
22107f1bd5d5959e733e3a0bbd906417,"San Diego, CA 92121","32.893868, -117.2361493",32.893868,-117.2361493,1,,,,,32.894,-117.236,32.894,-117.236,Match,,
22161c226236878608685d94e5e8c358,"Shatin, New Territories, Hong Kong","22.3771304, 114.1974398",22.3771304,114.1974398,1,,,,,22.377,114.197,22.377,114.197,Match,,
223582be04b80f3ef16f9b8ea9886d76,"Bloomington, MN, USA","44.840798, -93.2982799",44.840798,-93.2982799,1,,,,,44.841,-93.298,44.841,-93.298,Match,,
223b9c4f0d97047616210f65af02b041,"Brooklyn, NY, USA","40.6781784, -73.9441579",40.6781784,-73.9441579,1,,,,,40.678,-73.944,40.678,-73.944,Match,,
2246a8cf969b09d505f4ebc9255a2cea,"New York, NY, USA","40.7127753, -74.0059728",40.7127753,-74.0059728,1,,,,,40.713,-74.006,40.713,-74.006,Match,,
22493e5c1f806c39f06d40097b984e0e,"Dublin, Co. Dublin, Ireland","53.3498053, -6.2603097",53.3498053,-6.2603097,1,,,,,53.35,-6.26,53.35,-6.26,Match,,
224d2566872325a01a118bdbb2b31cad,"Bethesda, MD, USA","38.984652, -77.0947092",38.984652,-77.0947092,1,,,,,38.985,-77.095,38.985,-77.095,Match,,
225af2fa5596ea4077daac4b63a24e6b,"Quincy, CA, USA","39.9368363, -120.9471764",39.9368363,-120.9471764,1,,,,,39.937,-120.947,39.937,-120.947,Match,,
22669e7d8b8d9119b575f9b4ca057c2f,"New York, NY, USA","40.7127753, -74.0059728",40.7127753,-74.0059728,1,,,,,40.713,-74.006,40.713,-74.006,Match,,
22823aa6e7e23c230ff9aaca58621c2e,"Repsol HQ, Madrid, Spain","40.39761499999999, -3.6843962",40.397615,-3.6843962,1,,,,,40.398,-3.684,40.398,-3.684,Match,,
22834a861b7cf60fd268fd88f6ee4220,"Dallas, TX, USA","32.7766642, -96.7969879",32.7766642,-96.7969879,1,,,,,32.777,-96.797,32.777,-96.797,Match,,
22897ee652ef305ea8454b1c48a93534,"Pacific Gas & Electric HQ, San Francisco, CA, USA","37.7915801, -122.3958235",37.7915801,-122.3958235,1,,,,,37.792,-122.396,37.792,-122.396,Match,,
228c1a67e68dc56649d6bdc3be18c174,"Findlay, OH, USA","41.04422, -83.6499321",41.04422,-83.6499321,1,,,,,41.044,-83.65,41.044,-83.65,Match,,
229c9cef8432ee55112a8c0daa2cf131,"Dallas, TX, USA","32.7766642, -96.7969879",32.7766642,-96.7969879,1,,,,,32.777,-96.797,32.777,-96.797,Match,,
22a70da6a5cc28f5f4da736e7a93ff08,"U.S. Bank National Association HQ, Minneapolis, MN, USA","44.977753, -93.2650108",44.977753,-93.2650108,1,,,,,44.978,-93.265,44.978,-93.265,Match,,
22b213f95b0df032bd311a7bb4bf24cd,"San Diego, CA, USA","32.715738, -117.1610838",32.715738,-117.1610838,1,,,,,32.716,-117.161,32.716,-117.161,Match,,
22ba78a74cd3946c02c4bb9921dd2d67,"Costco HQ, Issaquah, WA, USA","47.5485708, -122.0506521",47.5485708,-122.0506521,1,,,,,47.549,-122.051,47.549,-122.051,Match,,
22c0623ecc9d9bd9770eee17c0727213,"Paris, Ile-De-France, France","48.856614, 2.3522219",48.856614,2.3522219,1,,,,,48.857,2.352,48.857,2.352,Match,,
22c58f15d0f80b48bedf071db426437b,"Rancho Cordova, CA, USA","38.5890723, -121.302728",38.5890723,-121.302728,1,,,,,38.589,-121.303,38.589,-121.303,Match,,
22d246fd1bff715a2a77992f91870bd8,"Buenos Aires, Capital Federal, Argentina","-34.6036844, -58.3815591",-34.6036844,-58.3815591,1,,,,,-34.604,-58.382,-34.604,-58.382,Match,,
22d7f01de207203d0716a3995900cc81,"Montebello, NY, USA","41.1359287, -74.118477",41.1359287,-74.118477,1,,,,,41.136,-74.118,41.136,-74.118,Match,,
22e25df102d25dd96fc33b84fba2ec70,"Boston, MA, USA","42.3600825, -71.0588801",42.3600825,-71.0588801,1,,,,,42.36,-71.059,42.36,-71.059,Match,,
22fc522a03ce4b1748be2b0075e26551,"Navient HQ, Wilmington, DE, USA","39.7384665, -75.5590563",39.7384665,-75.5590563,1,,,,,39.738,-75.559,39.738,-75.559,Match,,
23110f4e48bfd0c1f76766a677888ece,"Rio Tinto HQ, London, UK","51.5082026, -0.1354276",51.5082026,-0.1354276,1,,,,,51.508,-0.135,51.508,-0.135,Match,,
23348070c0100c82c5402b48c283d35c,"Charlotte, NC, USA","35.2270869, -80.8431267",35.2270869,-80.8431267,1,,,,,35.227,-80.843,35.227,-80.843,Match,,
234d2566896dc5e78afd62286556374e,"Ayer, MA, USA","42.5611947, -71.5899054",42.5611947,-71.5899054,1,,,,,42.561,-71.59,42.561,-71.59,Match,,
2353425f4e591525f60942edc39c9da6,"Luxembourg City, Luxembourg","49.611621, 6.1319346",49.611621,6.1319346,1,,,,,49.612,6.132,49.612,6.132,Match,,
235827e0a0f9f0a26bfbb7d5bf42f99f,"Milwaukee, WI, USA","43.0389025, -87.9064736",43.0389025,-87.9064736,1,,,,,43.039,-87.906,43.039,-87.906,Match,,
236a38c56c715b12142e980759975de5,"Las Vegas, NV, USA","36.1699412, -115.1398296",36.1699412,-115.1398296,1,,,,,36.17,-115.14,36.17,-115.14,Match,,
238a47faaf2b28f3ba9e4641d0deceb1,"Bassett, VA, USA","36.7593036, -79.9903195",36.7593036,-79.9903195,1,,,,,36.759,-79.99,36.759,-79.99,Match,,
23b0e6d993632e17d7b8b8c68bf5ed54,"W.L. Gore & Associates, Inc. HQ, Newark, DE, USA","39.7088999, -75.7470757",39.7088999,-75.7470757,1,,,,,39.709,-75.747,39.709,-75.747,Match,,
23d8bfb442b3a5bbd8873340b07d11e9,"Denver, CO, USA","39.7392358, -104.990251",39.7392358,-104.990251,1,,,,,39.739,-104.99,39.739,-104.99,Match,,
23dc591cbfe9cc32e33bca15afb78e49,"Houston, TX, USA","29.7604267, -95.3698028",29.7604267,-95.3698028,1,,,,,29.76,-95.37,29.76,-95.37,Match,,
23f2482029477cdcc861ccbbf55de206,"Dublin, Co. Dublin, Ireland","53.3498053, -6.2603097",53.3498053,-6.2603097,1,,,,,53.35,-6.26,53.35,-6.26,Match,,
2415741656ea862d6611b63bfa817ebf,"Singapore, Singapore","1.352083, 103.819836",1.352083,103.819836,1,,,,,1.352,103.82,1.352,103.82,Match,,
241c598003a13d35c30c700201e10dd4,"Oslo, Oslo, Norway","59.9138688, 10.7522454",59.9138688,10.7522454,1,,,,,59.914,10.752,59.914,10.752,Match,,
245b0259ae4cedd5cd8c07e8f06e24fc,"7-Eleven HQ, Dallas, TX, USA","32.7832518, -96.7982316",32.7832518,-96.7982316,1,,,,,32.783,-96.798,32.783,-96.798,Match,,
24632b25d12743021462dc7a81587d50,"Manhattan Beach, CA, USA","33.8847361, -118.4109089",33.8847361,-118.4109089,1,,,,,33.885,-118.411,33.885,-118.411,Match,,
24635fab910d9bab148fdab719b9e8d8,"Thermo Fisher Scientific Inc HQ, Waltham, MA, USA","42.3929224,-71.263783",42.3929224,-71.263783,1,,,,,42.393,-71.264,42.393,-71.264,Match,,
247778ec65ab7b493e675ac0da6831ae,"Miami, FL, USA","25.7616798, -80.1917902",25.7616798,-80.1917902,1,,,,,25.762,-80.192,25.762,-80.192,Match,,
2483b0868ee7a6673c85fee03465ca61,"Bedford, MA, USA","42.4906231, -71.2760089",42.4906231,-71.2760089,1,,,,,42.491,-71.276,42.491,-71.276,Match,,
24928f56135b78124b282f9fef44dd3a,"San Diego, California 92108","32.7639482, -117.1543703",32.7639482,-117.1543703,1,,,,,32.764,-117.154,32.764,-117.154,Match,,
24a004a5f303abfa8b411119131662aa,"Quincy, IL, USA","39.9356016, -91.4098726",39.9356016,-91.4098726,1,,,,,39.936,-91.41,39.936,-91.41,Match,,
24a24c2e6d2f2dd9f13bda85f368d403,"Santa Monica, CA, USA","34.0194543, -118.4911912",34.0194543,-118.4911912,1,,,,,34.019,-118.491,34.019,-118.491,Match,,
24c040cba818bd5c54d8b263b7e64d7c,"Charlotte, NC, USA","35.2270869, -80.8431267",35.2270869,-80.8431267,1,,,,,35.227,-80.843,35.227,-80.843,Match,,
24c390f1e173b31bc29dba12f3ff3748,"Vancouver, WA, USA","45.6257379, -122.6760886",45.6257379,-122.6760886,1,,,,,45.626,-122.676,45.626,-122.676,Match,,
24cbb5e0b2e8f30d94aef068ae296556,"Richland, WA, USA","46.28042, -119.2751996",46.28042,-119.2751996,1,,,,,46.28,-119.275,46.28,-119.275,Match,,
24cce950dfc9dee004cb94f7be451e82,"International Olympic Committee HQ, Lausanne, Switzerland","46.5180419,6.5945958",46.5180419,6.5945958,1,,,,,46.518,6.595,46.518,6.595,Match,,
24d98bac48b0a41b92d5b0697fdf5224,"Commerce, CA, USA","34.0005691, -118.1597929",34.0005691,-118.1597929,1,,,,,34.001,-118.16,34.001,-118.16,Match,,
24fcb0dfb054dd23373cb168e05958f4,"South San Francisco, CA, USA","37.654656, -122.4077498",37.654656,-122.4077498,1,,,,,37.655,-122.408,37.655,-122.408,Match,,
2526091c824ade6d5f9cd4fe687ebc6e,"Rolling Meadows, IL, USA","42.0841936, -88.0131275",42.0841936,-88.0131275,1,,,,,42.084,-88.013,42.084,-88.013,Match,,
252db0d6399cb907417e6bc9b56042d5,"Airbus HQ, Leiden, Netherlands","52.16456530000001, 4.4707497",52.1645653,4.4707497,1,,,,,52.165,4.471,52.165,4.471,Match,,
252e49934986513346298d5d361d19dc,"Sao Paulo, Sao Paulo, Brazil","-23.5505199, -46.6333094",-23.5505199,-46.6333094,1,,,,,-23.551,-46.633,-23.551,-46.633,Match,,
2542d810a3ad46b624ee6795e1082e6f,"Blue Cross Blue Shield HQ, Chicago, IL, USA","41.8781136, -87.6297982",41.8781136,-87.6297982,1,,,,,41.878,-87.63,41.878,-87.63,Match,,
25457847cf2e259e0efdeec2ee20aa41,"San Jose, CA, USA","37.3382082, -121.8863286",37.3382082,-121.8863286,1,,,,,37.338,-121.886,37.338,-121.886,Match,,
2548e58f30c13d22bcbefa7b24d7b718,"San Jose, CA, USA","37.3382082, -121.8863286",37.3382082,-121.8863286,1,,,,,37.338,-121.886,37.338,-121.886,Match,,
2549d7651279ac9064e19d1f2ac6b066,"Beijing, China","39.9041999, 116.4073963",39.9041999,116.4073963,1,,,,,39.904,116.407,39.904,116.407,Match,,
254c2576b8f5ce5eccd39e482fbf4177,"Naugatuck, CT, USA","41.485921, -73.0506972",41.485921,-73.0506972,1,,,,,41.486,-73.051,41.486,-73.051,Match,,
25758750f358c475affc6fd5c908ee62,"Birmingham, AL, USA","33.5185892, -86.8103567",33.5185892,-86.8103567,1,,,,,33.519,-86.81,33.519,-86.81,Match,,
257d66ce1ba2f397f62c8e676108361d,"New York, NY, USA","40.7127753, -74.0059728",40.7127753,-74.0059728,1,,,,,40.713,-74.006,40.713,-74.006,Match,,
25df92948b61f472e9a040390d091eaf,"Houston, TX, USA","29.7604267, -95.3698028",29.7604267,-95.3698028,1,,,,,29.76,-95.37,29.76,-95.37,Match,,
25ec2963a512175e123def05b878a2b9,"Redmond, WA, USA","47.6739881, -122.121512",47.6739881,-122.121512,1,,,,,47.674,-122.122,47.674,-122.122,Match,,
2612e9b1c895b53fc8a9c14c1583ed54,"Dover, DE, USA","39.158168, -75.5243682",39.158168,-75.5243682,1,,,,,39.158,-75.524,39.158,-75.524,Match,,
261ca381e67f0cb888a74db6c71ad466,"Lake Mary, FL, USA","28.7588833, -81.3178446",28.7588833,-81.3178446,1,,,,,28.759,-81.318,28.759,-81.318,Match,,
26667afd18f74e6f04cf03b0ac63dfec,"Dublin, Co. Dublin, Ireland","53.3498053, -6.2603097",53.3498053,-6.2603097,1,,,,,53.35,-6.26,53.35,-6.26,Match,,
2684f2a7538b3cda7623786b41744c74,"Rye, NY, USA","40.9806535, -73.6837399",40.9806535,-73.6837399,1,,,,,40.981,-73.684,40.981,-73.684,Match,,
2699dddf46a647fb6f7043cb5861613f,"Birmingham, AL, USA","33.5185892, -86.8103567",33.5185892,-86.8103567,1,,,,,33.519,-86.81,33.519,-86.81,Match,,
269e8e4fa705eb0e530023f5ca3efe39,"Houston, TX, USA","29.7604267, -95.3698028",29.7604267,-95.3698028,1,,,,,29.76,-95.37,29.76,-95.37,Match,,
26a190e305683f85e370a1ea3c4c6976,"North Billerica, MA, USA","42.5831997, -71.2848663",42.5831997,-71.2848663,1,,,,,42.583,-71.285,42.583,-71.285,Match,,
26a3a70445106cfafd9693201c9b6b85,"Dunn, NC, USA","35.3062743, -78.6089028",35.3062743,-78.6089028,1,,,,,35.306,-78.609,35.306,-78.609,Match,,
26b0b3cbaf2e869f6d0eaccda5520aa8,"New York, NY, USA","40.7127753, -74.0059728",40.7127753,-74.0059728,1,,,,,40.713,-74.006,40.713,-74.006,Match,,
26bd9c22e7ba01c2e3f0b4ff574d355f,"Tulsa, OK, USA","36.1539816, -95.992775",36.1539816,-95.992775,1,,,,,36.154,-95.993,36.154,-95.993,Match,,
26c00f157654b36fe61b89ab6bbe7ba5,"Baltimore, MD, USA","39.2903848, -76.6121893",39.2903848,-76.6121893,1,,,,,39.29,-76.612,39.29,-76.612,Match,,
