handle,caption_name,location_lower,include_groups,entity_type,location,lat,long,exclude_groups,,ENTITY_LABEL,name,description,source,source_identifier,global_identifier
agweathernet,Agriculture meteorologist,"olympia, wa",commodity match;ag commodity;company;country;stateprovince;imports;exports;drought;severe weather;soil;biofuel;pest;region;frost;agricultureminister;agricultureministry,agricultural weather forecaster,"Olympia, WA",47.0378741,-122.9006951,,"47.0378741, -122.9006951",AgriculturalWeatherForecaster,Agriculture meteorologist,,dgm_agr_mentioner_entities,3edd31581cd32f46a524d68592b8ed58,dgm_agr_mentioner_entities__3edd31581cd32f46a524d68592b8ed58
skydrama,Agriculture meteorologist,"urbana, illinois",commodity match;ag commodity;company;country;stateprovince;imports;exports;drought;severe weather;soil;biofuel;pest;region;frost;agricultureminister;agricultureministry,agricultural weather forecaster,"Urbana, Illinois",40.1105875,-88.2072697,,"40.1105875, -88.2072697",AgriculturalWeatherForecaster,Agriculture meteorologist,,dgm_agr_mentioner_entities,3edd31581cd32f46a524d68592b8ed58,dgm_agr_mentioner_entities__3edd31581cd32f46a524d68592b8ed58
markaingalls,Agriculture meteorologist,"starkville, ms",commodity match;ag commodity;company;country;stateprovince;imports;exports;drought;severe weather;soil;biofuel;pest;region;frost;agricultureminister;agricultureministry,agricultural weather forecaster,"Starkville, MS",33.4503998,-88.8183872,,"33.4503998, -88.8183872",AgriculturalWeatherForecaster,Agriculture meteorologist,,dgm_agr_mentioner_entities,3edd31581cd32f46a524d68592b8ed58,dgm_agr_mentioner_entities__3edd31581cd32f46a524d68592b8ed58
awnmetwenatchee,Agriculture meteorologist,"wenatchee, wa",commodity match;ag commodity;company;country;stateprovince;imports;exports;drought;severe weather;soil;biofuel;pest;region;frost;agricultureminister;agricultureministry,agricultural weather forecaster,"Wenatchee, WA",47.4234599,-120.3103494,,"47.4234599, -120.3103494",AgriculturalWeatherForecaster,Agriculture meteorologist,,dgm_agr_mentioner_entities,3edd31581cd32f46a524d68592b8ed58,dgm_agr_mentioner_entities__3edd31581cd32f46a524d68592b8ed58
awnmet_prosser,Agriculture meteorologist,"prosser, wa",commodity match;ag commodity;company;country;stateprovince;imports;exports;drought;severe weather;soil;biofuel;pest;region;frost;agricultureminister;agricultureministry,agricultural weather forecaster,"Prosser, WA",46.2067997,-119.7689223,,"46.2067997, -119.7689223",AgriculturalWeatherForecaster,Agriculture meteorologist,,dgm_agr_mentioner_entities,3edd31581cd32f46a524d68592b8ed58,dgm_agr_mentioner_entities__3edd31581cd32f46a524d68592b8ed58
mb_agweather_dr,Agriculture meteorologist,"manitoba, canada",commodity match;ag commodity;company;country;stateprovince;imports;exports;drought;severe weather;soil;biofuel;pest;region;frost;agricultureminister;agricultureministry,agricultural weather forecaster,"Manitoba, Canada",53.7608608,-98.8138762,,"53.7608608, -98.8138762",AgriculturalWeatherForecaster,Agriculture meteorologist,,dgm_agr_mentioner_entities,3edd31581cd32f46a524d68592b8ed58,dgm_agr_mentioner_entities__3edd31581cd32f46a524d68592b8ed58
sencropuk,Agriculture meteorologist,"royston, england",commodity match;ag commodity;company;country;stateprovince;imports;exports;drought;severe weather;soil;biofuel;pest;region;frost;agricultureminister;agricultureministry,agricultural weather forecaster,"Royston, England",52.048142,-0.024066,,"52.048142, -0.024066",AgriculturalWeatherForecaster,Agriculture meteorologist,,dgm_agr_mentioner_entities,3edd31581cd32f46a524d68592b8ed58,dgm_agr_mentioner_entities__3edd31581cd32f46a524d68592b8ed58
christina_loren,Agriculture meteorologist,"nashville, tn",commodity match;ag commodity;company;country;stateprovince;imports;exports;drought;severe weather;soil;biofuel;pest;region;frost;agricultureminister;agricultureministry,agricultural weather forecaster,"Nashville, TN",36.1626638,-86.7816016,,"36.1626638, -86.7816016",AgriculturalWeatherForecaster,Agriculture meteorologist,,dgm_agr_mentioner_entities,3edd31581cd32f46a524d68592b8ed58,dgm_agr_mentioner_entities__3edd31581cd32f46a524d68592b8ed58
dustinwgme,Agriculture meteorologist,"portland, me",commodity match;ag commodity;company;country;stateprovince;imports;exports;drought;severe weather;soil;biofuel;pest;region;frost;agricultureminister;agricultureministry,agricultural weather forecaster,"Portland, ME",43.6590993,-70.2568189,,"43.6590993, -70.2568189",AgriculturalWeatherForecaster,Agriculture meteorologist,,dgm_agr_mentioner_entities,3edd31581cd32f46a524d68592b8ed58,dgm_agr_mentioner_entities__3edd31581cd32f46a524d68592b8ed58
metpeak,Agriculture meteorologist,british columbia,commodity match;ag commodity;company;country;stateprovince;imports;exports;drought;severe weather;soil;biofuel;pest;region;frost;agricultureminister;agricultureministry,agricultural weather forecaster,British Columbia,53.7266683,-127.6476205,,"53.7266683, -127.6476205",AgriculturalWeatherForecaster,Agriculture meteorologist,,dgm_agr_mentioner_entities,3edd31581cd32f46a524d68592b8ed58,dgm_agr_mentioner_entities__3edd31581cd32f46a524d68592b8ed58
agroclimatecdn,Agriculture meteorologist,"regina, canada",commodity match;ag commodity;company;country;stateprovince;imports;exports;drought;severe weather;soil;biofuel;pest;region;frost;agricultureminister;agricultureministry,agricultural weather forecaster,"Regina, Canada",50.4452112,-104.6188943,,"50.4452112, -104.6188943",AgriculturalWeatherForecaster,Agriculture meteorologist,,dgm_agr_mentioner_entities,3edd31581cd32f46a524d68592b8ed58,dgm_agr_mentioner_entities__3edd31581cd32f46a524d68592b8ed58
edvalleewx,Agriculture meteorologist,"orlando, fl",commodity match;ag commodity;company;country;stateprovince;imports;exports;drought;severe weather;soil;biofuel;pest;region;frost;agricultureminister;agricultureministry,agricultural weather forecaster,"Orlando, FL",28.5383832,-81.3789269,,"28.5383832, -81.3789269",AgriculturalWeatherForecaster,Agriculture meteorologist,,dgm_agr_mentioner_entities,3edd31581cd32f46a524d68592b8ed58,dgm_agr_mentioner_entities__3edd31581cd32f46a524d68592b8ed58
empirewx,Agriculture meteorologist,new jersey,commodity match;ag commodity;company;country;stateprovince;imports;exports;drought;severe weather;soil;biofuel;pest;region;frost;agricultureminister;agricultureministry,agricultural weather forecaster,New Jersey,40.0583238,-74.4056612,,"40.0583238, -74.4056612",AgriculturalWeatherForecaster,Agriculture meteorologist,,dgm_agr_mentioner_entities,3edd31581cd32f46a524d68592b8ed58,dgm_agr_mentioner_entities__3edd31581cd32f46a524d68592b8ed58
rudyruitenberg,Agriculture meteorologist,"paris, france",commodity match;ag commodity;company;country;stateprovince;imports;exports;drought;severe weather;soil;biofuel;pest;region;frost;agricultureminister;agricultureministry,agricultural weather forecaster,"Paris, France",48.856614,2.3522219,,"48.856614, 2.3522219",AgriculturalWeatherForecaster,Agriculture meteorologist,,dgm_agr_mentioner_entities,3edd31581cd32f46a524d68592b8ed58,dgm_agr_mentioner_entities__3edd31581cd32f46a524d68592b8ed58
indywx,Agriculture meteorologist,"indianapolis, in",commodity match;ag commodity;company;country;stateprovince;imports;exports;drought;severe weather;soil;biofuel;pest;region;frost;agricultureminister;agricultureministry,agricultural weather forecaster,"Indianapolis, IN",39.768403,-86.158068,,"39.768403, -86.158068",AgriculturalWeatherForecaster,Agriculture meteorologist,,dgm_agr_mentioner_entities,3edd31581cd32f46a524d68592b8ed58,dgm_agr_mentioner_entities__3edd31581cd32f46a524d68592b8ed58
se_agclimate,Agriculture meteorologist,"athens, ga",commodity match;ag commodity;company;country;stateprovince;imports;exports;drought;severe weather;soil;biofuel;pest;region;frost;agricultureminister;agricultureministry,agricultural weather forecaster,"Athens, GA",33.9519347,-83.357567,,"33.9519347, -83.357567",AgriculturalWeatherForecaster,Agriculture meteorologist,,dgm_agr_mentioner_entities,3edd31581cd32f46a524d68592b8ed58,dgm_agr_mentioner_entities__3edd31581cd32f46a524d68592b8ed58
maxar_weather,Agriculture meteorologist,"gaithersburg, md",commodity match;ag commodity;company;country;stateprovince;imports;exports;drought;severe weather;soil;biofuel;pest;region;frost;agricultureminister;agricultureministry,agricultural weather forecaster,"Gaithersburg, MD",39.1439689,-77.2016062,,"39.1439689, -77.2016062",AgriculturalWeatherForecaster,Agriculture meteorologist,,dgm_agr_mentioner_entities,3edd31581cd32f46a524d68592b8ed58,dgm_agr_mentioner_entities__3edd31581cd32f46a524d68592b8ed58
farmersweekly,Farmers Weekly,"sutton, uk",commodity match;ag commodity;company;country;stateprovince;imports;exports;drought;severe weather;soil;biofuel;pest;region;frost;agricultureminister;agricultureministry,agriculture press,"Sutton, UK",51.3614279,-0.193961,,"51.3614279, -0.193961",AgriculturePress,Farmers Weekly,,dgm_agr_mentioner_entities,b32df0b238d99174d4a9fe90f619d1e9,dgm_agr_mentioner_entities__b32df0b238d99174d4a9fe90f619d1e9
westernproducer,The Western Producer,"saskatoon, canada",commodity match;ag commodity;company;country;stateprovince;imports;exports;drought;severe weather;soil;biofuel;pest;region;frost;agricultureminister;agricultureministry,agriculture press,"Saskatoon, Canada",52.157902,-106.6701577,,"52.157902, -106.6701577",AgriculturePress,The Western Producer,,dgm_agr_mentioner_entities,e3ac4ac74235a554a47b07bd85f39875,dgm_agr_mentioner_entities__e3ac4ac74235a554a47b07bd85f39875
dtnpf,The Progressive Farmer,"birmingham, al",commodity match;ag commodity;company;country;stateprovince;imports;exports;drought;severe weather;soil;biofuel;pest;region;frost;agricultureminister;agricultureministry,agriculture press,"Birmingham, AL",33.5185892,-86.8103567,,"33.5185892, -86.8103567",AgriculturePress,The Progressive Farmer,,dgm_agr_mentioner_entities,37b91f37e816c252170d3bbba7c3c98e,dgm_agr_mentioner_entities__37b91f37e816c252170d3bbba7c3c98e
biofuelsmag,Biofuels International,"morden, uk",commodity match;ag commodity;company;country;stateprovince;imports;exports;drought;severe weather;soil;biofuel;pest;region;frost;agricultureminister;agricultureministry,agriculture press,"Morden, UK",51.394943,-0.19446,,"51.394943, -0.19446",AgriculturePress,Biofuels International,,dgm_agr_mentioner_entities,1595fb837f0658b3a0f44c24f96b2a77,dgm_agr_mentioner_entities__1595fb837f0658b3a0f44c24f96b2a77
farmjournal,Farm Journal,"philadelphia, pa",commodity match;ag commodity;company;country;stateprovince;imports;exports;drought;severe weather;soil;biofuel;pest;region;frost;agricultureminister;agricultureministry,agriculture press,"Philadelphia, PA",39.9525839,-75.1652215,,"39.9525839, -75.1652215",AgriculturePress,Farm Journal,,dgm_agr_mentioner_entities,d92fe4d9736238b031a2991424f31e7f,dgm_agr_mentioner_entities__d92fe4d9736238b031a2991424f31e7f
farmersadviser,The Daily Scoop,"webster city, ia",commodity match;ag commodity;company;country;stateprovince;imports;exports;drought;severe weather;soil;biofuel;pest;region;frost;agricultureminister;agricultureministry,agriculture press,"Webster City, IA",42.4694321,-93.8159149,,"42.4694321, -93.8159149",AgriculturePress,The Daily Scoop,,dgm_agr_mentioner_entities,e010184af8631c9abc005c866764dc19,dgm_agr_mentioner_entities__e010184af8631c9abc005c866764dc19
farmfutures,Farm Progress,"irving, tx",commodity match;ag commodity;company;country;stateprovince;imports;exports;drought;severe weather;soil;biofuel;pest;region;frost;agricultureminister;agricultureministry,agriculture press,"Irving, TX",32.8140177,-96.9488945,,"32.8140177, -96.9488945",AgriculturePress,Farm Progress,,dgm_agr_mentioner_entities,bedae6161f658e275a4b4af1b80459e4,dgm_agr_mentioner_entities__bedae6161f658e275a4b4af1b80459e4
ethanolmagazine,Ethanol Producer Magazine,"grand forks, nd",commodity match;ag commodity;company;country;stateprovince;imports;exports;drought;severe weather;soil;biofuel;pest;region;frost;agricultureminister;agricultureministry,agriculture press,"Grand Forks, ND",47.9252568,-97.0328547,,"47.9252568, -97.0328547",AgriculturePress,Ethanol Producer Magazine,,dgm_agr_mentioner_entities,e67f25ad6a3908e05d438fefd2cdf289,dgm_agr_mentioner_entities__e67f25ad6a3908e05d438fefd2cdf289
sugarindustry,Sugarcane Industry News,"chennai, india",commodity match;ag commodity;company;country;stateprovince;imports;exports;drought;severe weather;soil;biofuel;pest;region;frost;agricultureminister;agricultureministry,agriculture press,"Chennai, India",13.0826802,80.2707184,,"13.0826802, 80.2707184",AgriculturePress,Sugarcane Industry News,,dgm_agr_mentioner_entities,5f134c2fd5fedb6d61fd37c789b65991,dgm_agr_mentioner_entities__5f134c2fd5fedb6d61fd37c789b65991
franceagricole,La France Agricole,"paris, france",commodity match;ag commodity;company;country;stateprovince;imports;exports;drought;severe weather;soil;biofuel;pest;region;frost;agricultureminister;agricultureministry,agriculture press,"Paris, France",48.856614,2.3522219,,"48.856614, 2.3522219",AgriculturePress,La France Agricole,,dgm_agr_mentioner_entities,56f951e8571a6aeb10bf2dc054fc0fd2,dgm_agr_mentioner_entities__56f951e8571a6aeb10bf2dc054fc0fd2
worldgrain,World Grain,"kansas city, mo",commodity match;ag commodity;company;country;stateprovince;imports;exports;drought;severe weather;soil;biofuel;pest;region;frost;agricultureminister;agricultureministry,agriculture press,"Kansas City, MO",39.0997265,-94.5785667,,"39.0997265, -94.5785667",AgriculturePress,World Grain,,dgm_agr_mentioner_entities,6933e1c71a52ec2c3d906e74bb22b537,dgm_agr_mentioner_entities__6933e1c71a52ec2c3d906e74bb22b537
successfulfarm,Successful Farming,"des moines, io",commodity match;ag commodity;company;country;stateprovince;imports;exports;drought;severe weather;soil;biofuel;pest;region;frost;agricultureminister;agricultureministry,agriculture press,"Des Moines, IO",41.5868353,-93.6249593,,"41.5868353, -93.6249593",AgriculturePress,Successful Farming,,dgm_agr_mentioner_entities,6ce9bfcd02810bac0fa137d38681ce58,dgm_agr_mentioner_entities__6ce9bfcd02810bac0fa137d38681ce58
profarmer,Pro Farmer,"cedar falls, ia",commodity match;ag commodity;company;country;stateprovince;imports;exports;drought;severe weather;soil;biofuel;pest;region;frost;agricultureminister;agricultureministry,agriculture press,"Cedar Falls, IA",42.5348993,-92.4453161,,"42.5348993, -92.4453161",AgriculturePress,Pro Farmer,,dgm_agr_mentioner_entities,c1f64dc849b6d118040191667a6c4554,dgm_agr_mentioner_entities__c1f64dc849b6d118040191667a6c4554
agrilandireland,Agriland,"dublin, ireland",commodity match;ag commodity;company;country;stateprovince;imports;exports;drought;severe weather;soil;biofuel;pest;region;frost;agricultureminister;agricultureministry,agriculture press,"Dublin, Ireland",53.3498053,-6.2603097,,"53.3498053, -6.2603097",AgriculturePress,Agriland,,dgm_agr_mentioner_entities,f608fc365d5db2e98f8be495d8741262,dgm_agr_mentioner_entities__f608fc365d5db2e98f8be495d8741262
nhf_magazine,National Hog Farmer,"st. charles, il",commodity match;ag commodity;company;country;stateprovince;imports;exports;drought;severe weather;soil;biofuel;pest;region;frost;agricultureminister;agricultureministry,agriculture press,"St. Charles, IL",41.9141945,-88.3086867,,"41.9141945, -88.3086867",AgriculturePress,National Hog Farmer,,dgm_agr_mentioner_entities,24f46a762561d3738d6b1d3c6340af8c,dgm_agr_mentioner_entities__24f46a762561d3738d6b1d3c6340af8c
fj_pork,Pork Business,"philadelphia, pa",commodity match;ag commodity;company;country;stateprovince;imports;exports;drought;severe weather;soil;biofuel;pest;region;frost;agricultureminister;agricultureministry,agriculture press,"Philadelphia, PA",39.9525839,-75.1652215,,"39.9525839, -75.1652215",AgriculturePress,Pork Business,,dgm_agr_mentioner_entities,132e1125a7092087e36462c4fd7786d4,dgm_agr_mentioner_entities__132e1125a7092087e36462c4fd7786d4
farminguk,FarmingUK,"brighouse, uk",commodity match;ag commodity;company;country;stateprovince;imports;exports;drought;severe weather;soil;biofuel;pest;region;frost;agricultureminister;agricultureministry,agriculture press,"Brighouse, UK",53.699729,-1.782501,,"53.699729, -1.782501",AgriculturePress,FarmingUK,,dgm_agr_mentioner_entities,f7d2bdf989d92fa7f3db91c807a6a1a0,dgm_agr_mentioner_entities__f7d2bdf989d92fa7f3db91c807a6a1a0
agweekmagazine,Agriculture Week,"fargo, nd",commodity match;ag commodity;company;country;stateprovince;imports;exports;drought;severe weather;soil;biofuel;pest;region;frost;agricultureminister;agricultureministry,agriculture press,"Fargo, ND",46.8771863,-96.7898034,,"46.8771863, -96.7898034",AgriculturePress,Agriculture Week,,dgm_agr_mentioner_entities,d29c067973f1856bd4af9ad646a5cf38,dgm_agr_mentioner_entities__d29c067973f1856bd4af9ad646a5cf38
jordbruk,Jordbruksaktuellt,"orebro, sweden",commodity match;ag commodity;company;country;stateprovince;imports;exports;drought;severe weather;soil;biofuel;pest;region;frost;agricultureminister;agricultureministry,agriculture press,"Orebro, Sweden",59.2752626,15.2134105,,"59.2752626, 15.2134105",AgriculturePress,Jordbruksaktuellt,,dgm_agr_mentioner_entities,c88fba7cbe178e26b4b0bc799d6de589,dgm_agr_mentioner_entities__c88fba7cbe178e26b4b0bc799d6de589
agrilanduk,Agriland UK,"london, uk",commodity match;ag commodity;company;country;stateprovince;imports;exports;drought;severe weather;soil;biofuel;pest;region;frost;agricultureminister;agricultureministry,agriculture press,"London, UK",51.5073509,-0.1277583,,"51.5073509, -0.1277583",AgriculturePress,Agriland UK,,dgm_agr_mentioner_entities,62e1d3b31450a943938d060977d2cfe1,dgm_agr_mentioner_entities__62e1d3b31450a943938d060977d2cfe1
agroinvestor,Agroinvestor,"moscow, russia",commodity match;ag commodity;company;country;stateprovince;imports;exports;drought;severe weather;soil;biofuel;pest;region;frost;agricultureminister;agricultureministry,agriculture press,"Moscow, Russia",55.755826,37.6172999,,"55.755826, 37.6172999",AgriculturePress,Agroinvestor,,dgm_agr_mentioner_entities,35dd97755171214a2cb7460e9fb67201,dgm_agr_mentioner_entities__35dd97755171214a2cb7460e9fb67201
farmsnews,Farms News,"ames, ia",commodity match;ag commodity;company;country;stateprovince;imports;exports;drought;severe weather;soil;biofuel;pest;region;frost;agricultureminister;agricultureministry,agriculture press,"Ames, IA",42.0307812,-93.6319131,,"42.0307812, -93.6319131",AgriculturePress,Farms News,,dgm_agr_mentioner_entities,a31479f3e2794d8122ebd67ea99ca707,dgm_agr_mentioner_entities__a31479f3e2794d8122ebd67ea99ca707
einagrinews,EIN Presswire,"washington, d.c",commodity match;ag commodity;company;country;stateprovince;imports;exports;drought;severe weather;soil;biofuel;pest;region;frost;agricultureminister;agricultureministry,agriculture press,"Washington, D.C",38.9071923,-77.0368707,,"38.9071923, -77.0368707",AgriculturePress,EIN Presswire,,dgm_agr_mentioner_entities,bdff7f3a1ea9b4d7f45e8d2baaa8d598,dgm_agr_mentioner_entities__bdff7f3a1ea9b4d7f45e8d2baaa8d598
precisionagnow,PrecisionAg Global,"willoughby, oh",commodity match;ag commodity;company;country;stateprovince;imports;exports;drought;severe weather;soil;biofuel;pest;region;frost;agricultureminister;agricultureministry,agriculture press,"Willoughby, OH",41.6397696,-81.4065011,,"41.6397696, -81.4065011",AgriculturePress,PrecisionAg Global,,dgm_agr_mentioner_entities,b09646430d3a6b9faaa58fe85c362007,dgm_agr_mentioner_entities__b09646430d3a6b9faaa58fe85c362007
croplifemag,CropLife,"willoughby, oh",commodity match;ag commodity;company;country;stateprovince;imports;exports;drought;severe weather;soil;biofuel;pest;region;frost;agricultureminister;agricultureministry,agriculture press,"Willoughby, OH",41.6397696,-81.4065011,,"41.6397696, -81.4065011",AgriculturePress,CropLife,,dgm_agr_mentioner_entities,ed754166f651880e409d362500a8c509,dgm_agr_mentioner_entities__ed754166f651880e409d362500a8c509
cultivarlemag,Cultivar,"metz, france",commodity match;ag commodity;company;country;stateprovince;imports;exports;drought;severe weather;soil;biofuel;pest;region;frost;agricultureminister;agricultureministry,agriculture press,"Metz, France",49.1193089,6.1757156,,"49.1193089, 6.1757156",AgriculturePress,Cultivar,,dgm_agr_mentioner_entities,4f4d42a376d4f40c4f5e4b32f27da9f1,dgm_agr_mentioner_entities__4f4d42a376d4f40c4f5e4b32f27da9f1
oilseedandgrain,Oilseed and Grain,"danvers, ma",commodity match;ag commodity;company;country;stateprovince;imports;exports;drought;severe weather;soil;biofuel;pest;region;frost;agricultureminister;agricultureministry,agriculture press,"Danvers, MA",42.5750009,-70.932122,,"42.5750009, -70.932122",AgriculturePress,Oilseed and Grain,,dgm_agr_mentioner_entities,d105802a4686c01c0d3f12a89489beca,dgm_agr_mentioner_entities__d105802a4686c01c0d3f12a89489beca
feedandgrainmag,Feed & Grain magazine,"fort atkinson, wi",commodity match;ag commodity;company;country;stateprovince;imports;exports;drought;severe weather;soil;biofuel;pest;region;frost;agricultureminister;agricultureministry,agriculture press,"Fort Atkinson, WI",42.9288944,-88.8370509,,"42.9288944, -88.8370509",AgriculturePress,Feed & Grain magazine,,dgm_agr_mentioner_entities,d47af116bda77e5793660b62b7b77336,dgm_agr_mentioner_entities__d47af116bda77e5793660b62b7b77336
agrimoney,Agrimoney,"london, uk",commodity match;ag commodity;company;country;stateprovince;imports;exports;drought;severe weather;soil;biofuel;pest;region;frost;agricultureminister;agricultureministry,agriculture press,"London, UK",51.5073509,-0.1277583,,"51.5073509, -0.1277583",AgriculturePress,Agrimoney,,dgm_agr_mentioner_entities,d8ce465f4d6e8a7d3c353d88bcbd8c82,dgm_agr_mentioner_entities__d8ce465f4d6e8a7d3c353d88bcbd8c82
ocj_ohioagnet,Ohio's Country Journal,"columbus, oh",commodity match;ag commodity;company;country;stateprovince;imports;exports;drought;severe weather;soil;biofuel;pest;region;frost;agricultureminister;agricultureministry,agriculture press,"Columbus, OH",39.9611755,-82.9987942,,"39.9611755, -82.9987942",AgriculturePress,Ohio's Country Journal,,dgm_agr_mentioner_entities,f7e68d0417d2c2e26746f6ef726eee26,dgm_agr_mentioner_entities__f7e68d0417d2c2e26746f6ef726eee26
sugaronline,Sugaronline,"london, uk",commodity match;ag commodity;company;country;stateprovince;imports;exports;drought;severe weather;soil;biofuel;pest;region;frost;agricultureminister;agricultureministry,agriculture press,"London, UK",51.5073509,-0.1277583,,"51.5073509, -0.1277583",AgriculturePress,Sugaronline,,dgm_agr_mentioner_entities,f3a2229e43d6b164ac9016a11d974711,dgm_agr_mentioner_entities__f3a2229e43d6b164ac9016a11d974711
sugarcaneorg,Sugarcane,"sao paulo, brazil",commodity match;ag commodity;company;country;stateprovince;imports;exports;drought;severe weather;soil;biofuel;pest;region;frost;agricultureminister;agricultureministry,agriculture press,"Sao Paulo, Brazil",-23.5557714,-46.6395571,,"-23.5557714, -46.6395571",AgriculturePress,Sugarcane,,dgm_agr_mentioner_entities,a943b37838a2e5ec127bbaacda39a046,dgm_agr_mentioner_entities__a943b37838a2e5ec127bbaacda39a046
ruralrootscda,Rural Roots Canada,"calgary, canada",commodity match;ag commodity;company;country;stateprovince;imports;exports;drought;severe weather;soil;biofuel;pest;region;frost;agricultureminister;agricultureministry,agriculture press,"Calgary, Canada",51.0447331,-114.0718831,,"51.0447331, -114.0718831",AgriculturePress,Rural Roots Canada,,dgm_agr_mentioner_entities,9c2a5e11df76564341a067a4a4235f58,dgm_agr_mentioner_entities__9c2a5e11df76564341a067a4a4235f58
farmersjournal,Irish Farmers Journal,"dublin, ireland",commodity match;ag commodity;company;country;stateprovince;imports;exports;drought;severe weather;soil;biofuel;pest;region;frost;agricultureminister;agricultureministry,agriculture press,"Dublin, Ireland",53.3498053,-6.2603097,,"53.3498053, -6.2603097",AgriculturePress,Irish Farmers Journal,,dgm_agr_mentioner_entities,271380f6060d3e546e5f0c554a1c0d4a,dgm_agr_mentioner_entities__271380f6060d3e546e5f0c554a1c0d4a
ecomercioagr,eComercio Agrario,"madrid, spain",commodity match;ag commodity;company;country;stateprovince;imports;exports;drought;severe weather;soil;biofuel;pest;region;frost;agricultureminister;agricultureministry,agriculture press,"Madrid, Spain",40.4167754,-3.7037902,,"40.4167754, -3.7037902",AgriculturePress,eComercio Agrario,,dgm_agr_mentioner_entities,aa29bedf62443e68846c4103de37d9a1,dgm_agr_mentioner_entities__aa29bedf62443e68846c4103de37d9a1
agrarheute_com,agrarheute,"munich, germany",commodity match;ag commodity;company;country;stateprovince;imports;exports;drought;severe weather;soil;biofuel;pest;region;frost;agricultureminister;agricultureministry,agriculture press,"Munich, Germany",48.1351253,11.5819805,,"48.1351253, 11.5819805",AgriculturePress,agrarheute,,dgm_agr_mentioner_entities,7559208417ae17a929c3a7d7fed7d97f,dgm_agr_mentioner_entities__7559208417ae17a929c3a7d7fed7d97f
farmweekly,Farm Weekly,"perth, australia",commodity match;ag commodity;company;country;stateprovince;imports;exports;drought;severe weather;soil;biofuel;pest;region;frost;agricultureminister;agricultureministry,agriculture press,"Perth, Australia",-31.9523123,115.861309,,"-31.9523123, 115.861309",AgriculturePress,Farm Weekly,,dgm_agr_mentioner_entities,ed6e832a006d225a8cd56c640b41dff1,dgm_agr_mentioner_entities__ed6e832a006d225a8cd56c640b41dff1
farmonline,FarmOnline,"north richmond, australia",commodity match;ag commodity;company;country;stateprovince;imports;exports;drought;severe weather;soil;biofuel;pest;region;frost;agricultureminister;agricultureministry,agriculture press,"North Richmond, Australia",-33.5798326,150.7195805,,"-33.5798326, 150.7195805",AgriculturePress,FarmOnline,,dgm_agr_mentioner_entities,267593ed7a0f5687e960cffbcd15e061,dgm_agr_mentioner_entities__267593ed7a0f5687e960cffbcd15e061
theausfarmer,The Australian Farmer,"roseville, australia",commodity match;ag commodity;company;country;stateprovince;imports;exports;drought;severe weather;soil;biofuel;pest;region;frost;agricultureminister;agricultureministry,agriculture press,"Roseville, Australia",-33.7842176,151.1894277,,"-33.7842176, 151.1894277",AgriculturePress,The Australian Farmer,,dgm_agr_mentioner_entities,0dd107174952db817776eb8eedf475ed,dgm_agr_mentioner_entities__0dd107174952db817776eb8eedf475ed
thelandnews,The Land,"orange, australia",commodity match;ag commodity;company;country;stateprovince;imports;exports;drought;severe weather;soil;biofuel;pest;region;frost;agricultureminister;agricultureministry,agriculture press,"Orange, Australia",-33.283333,149.1,,"-33.283333, 149.1",AgriculturePress,The Land,,dgm_agr_mentioner_entities,bc744caca1f6c11a3902037a70396475,dgm_agr_mentioner_entities__bc744caca1f6c11a3902037a70396475
theweeklytimes,The Weekly Times,"melbourne, australia",commodity match;ag commodity;company;country;stateprovince;imports;exports;drought;severe weather;soil;biofuel;pest;region;frost;agricultureminister;agricultureministry,agriculture press,"Melbourne, Australia",-37.8136276,144.9630576,,"-37.8136276, 144.9630576",AgriculturePress,The Weekly Times,,dgm_agr_mentioner_entities,302f40058688f5caba87495eff8d4ba4,dgm_agr_mentioner_entities__302f40058688f5caba87495eff8d4ba4
ontfarmernews,Ontario Farmer,"london, ontario, canada",commodity match;ag commodity;company;country;stateprovince;imports;exports;drought;severe weather;soil;biofuel;pest;region;frost;agricultureminister;agricultureministry,agriculture press,"London, Ontario, Canada",42.9849233,-81.2452768,,"42.9849233, -81.2452768",AgriculturePress,Ontario Farmer,,dgm_agr_mentioner_entities,8e655fb719d5d63f815bf1f006aa5bd4,dgm_agr_mentioner_entities__8e655fb719d5d63f815bf1f006aa5bd4
topcropmag,Top Crop Magazine,"simcoe, canada",commodity match;ag commodity;company;country;stateprovince;imports;exports;drought;severe weather;soil;biofuel;pest;region;frost;agricultureminister;agricultureministry,agriculture press,"Simcoe, Canada",42.8372632,-80.3040424,,"42.8372632, -80.3040424",AgriculturePress,Top Crop Magazine,,dgm_agr_mentioner_entities,da1155529e17062c83fff3a6a7f6017c,dgm_agr_mentioner_entities__da1155529e17062c83fff3a6a7f6017c
farmersweeklysa,Farmer's Weekly,"johannesburg, south africa",commodity match;ag commodity;company;country;stateprovince;imports;exports;drought;severe weather;soil;biofuel;pest;region;frost;agricultureminister;agricultureministry,agriculture press,"Johannesburg, South Africa",-26.2041028,28.0473051,,"-26.2041028, 28.0473051",AgriculturePress,Farmer's Weekly,,dgm_agr_mentioner_entities,68e943f902ce13d2641d0f43e0d1c08f,dgm_agr_mentioner_entities__68e943f902ce13d2641d0f43e0d1c08f
harvestsa3,Harvest SA,"cape town, south africa",commodity match;ag commodity;company;country;stateprovince;imports;exports;drought;severe weather;soil;biofuel;pest;region;frost;agricultureminister;agricultureministry,agriculture press,"Cape Town, South Africa",-33.9248685,18.4240553,,"-33.9248685, 18.4240553",AgriculturePress,Harvest SA,,dgm_agr_mentioner_entities,1b5329d86ea5bc68fcf226f00a24a78c,dgm_agr_mentioner_entities__1b5329d86ea5bc68fcf226f00a24a78c
africanfarming,African Farming,"cape town, south africa",commodity match;ag commodity;company;country;stateprovince;imports;exports;drought;severe weather;soil;biofuel;pest;region;frost;agricultureminister;agricultureministry,agriculture press,"Cape Town, South Africa",-33.9248685,18.4240553,,"-33.9248685, 18.4240553",AgriculturePress,African Farming,,dgm_agr_mentioner_entities,442ae5f745ae32dbd31ee9370360ea23,dgm_agr_mentioner_entities__442ae5f745ae32dbd31ee9370360ea23
ftcommodities,FT Commodities,"london, uk",commodity match;ag commodity;company;country;stateprovince;imports;exports;drought;severe weather;soil;biofuel;pest;region;frost;agricultureminister;agricultureministry,agriculture press,"London, UK",51.5073509,-0.1277583,,"51.5073509, -0.1277583",AgriculturePress,FT Commodities,,dgm_agr_mentioner_entities,1e1de348ff018b6b496f199d87809f64,dgm_agr_mentioner_entities__1e1de348ff018b6b496f199d87809f64
bncommodities,Bloomberg Commodities,"new york, ny",commodity match;ag commodity;company;country;stateprovince;imports;exports;drought;severe weather;soil;biofuel;pest;region;frost;agricultureminister;agricultureministry,agriculture press,"New York, NY",40.7127753,-74.0059728,,"40.7127753, -74.0059728",AgriculturePress,Bloomberg Commodities,,dgm_agr_mentioner_entities,1115e5dff5e5fcef3b88ca309924053d,dgm_agr_mentioner_entities__1115e5dff5e5fcef3b88ca309924053d
plattsag,Platts Agriculture,"london, uk",commodity match;ag commodity;company;country;stateprovince;imports;exports;drought;severe weather;soil;biofuel;pest;region;frost;agricultureminister;agricultureministry,agriculture press,"London, UK",51.5073509,-0.1277583,,"51.5073509, -0.1277583",AgriculturePress,Platts Agriculture,,dgm_agr_mentioner_entities,97df4650f5ff14e2a063bbf0ab749025,dgm_agr_mentioner_entities__97df4650f5ff14e2a063bbf0ab749025
reutersag,Reuters,"london, uk",commodity match;ag commodity;company;country;stateprovince;imports;exports;drought;severe weather;soil;biofuel;pest;region;frost;agricultureminister;agricultureministry,agriculture press,"London, UK",51.5073509,-0.1277583,,"51.5073509, -0.1277583",AgriculturePress,Reuters,,dgm_agr_mentioner_entities,7513717dba8b208fe06799dcc54e59e2,dgm_agr_mentioner_entities__7513717dba8b208fe06799dcc54e59e2
jeffpeterson01,Agriculture analyst,"lincoln, ne",commodity match;ag commodity;company;country;stateprovince;imports;exports;drought;severe weather;soil;biofuel;pest;region;frost;agricultureminister;agricultureministry,agriculture analyst,"Lincoln, NE",40.813616,-96.7025955,,"40.813616, -96.7025955",AgricultureAnalyst,Agriculture analyst,,dgm_agr_mentioner_entities,6a4de7014d68761bdff92627c4f58a97,dgm_agr_mentioner_entities__6a4de7014d68761bdff92627c4f58a97
kimchipman1,Agriculture analyst,washington dc,commodity match;ag commodity;company;country;stateprovince;imports;exports;drought;severe weather;soil;biofuel;pest;region;frost;agricultureminister;agricultureministry,agriculture analyst,Washington DC,38.9071923,-77.0368707,,"38.9071923, -77.0368707",AgricultureAnalyst,Agriculture analyst,,dgm_agr_mentioner_entities,6a4de7014d68761bdff92627c4f58a97,dgm_agr_mentioner_entities__6a4de7014d68761bdff92627c4f58a97
lhallhorizon,Agriculture analyst,"williston, nd",commodity match;ag commodity;company;country;stateprovince;imports;exports;drought;severe weather;soil;biofuel;pest;region;frost;agricultureminister;agricultureministry,agriculture analyst,"Williston, ND",48.1469683,-103.6179745,,"48.1469683, -103.6179745",AgricultureAnalyst,Agriculture analyst,,dgm_agr_mentioner_entities,6a4de7014d68761bdff92627c4f58a97,dgm_agr_mentioner_entities__6a4de7014d68761bdff92627c4f58a97
hedgeit,Agriculture analyst,"st paul, mn",commodity match;ag commodity;company;country;stateprovince;imports;exports;drought;severe weather;soil;biofuel;pest;region;frost;agricultureminister;agricultureministry,agriculture analyst,"St Paul, MN",44.9537029,-93.0899578,,"44.9537029, -93.0899578",AgricultureAnalyst,Agriculture analyst,,dgm_agr_mentioner_entities,6a4de7014d68761bdff92627c4f58a97,dgm_agr_mentioner_entities__6a4de7014d68761bdff92627c4f58a97
acomrb,Agriculture analyst,"monte carlo, monaco",commodity match;ag commodity;company;country;stateprovince;imports;exports;drought;severe weather;soil;biofuel;pest;region;frost;agricultureminister;agricultureministry,agriculture analyst,"Monte Carlo, Monaco",43.7400718,7.4266436,,"43.7400718, 7.4266436",AgricultureAnalyst,Agriculture analyst,,dgm_agr_mentioner_entities,6a4de7014d68761bdff92627c4f58a97,dgm_agr_mentioner_entities__6a4de7014d68761bdff92627c4f58a97
jarkko_niemi,Agriculture analyst,"sein채joki, finland",commodity match;ag commodity;company;country;stateprovince;imports;exports;drought;severe weather;soil;biofuel;pest;region;frost;agricultureminister;agricultureministry,agriculture analyst,"Sein채joki, Finland",62.787735,22.8504338,,"62.787735, 22.8504338",AgricultureAnalyst,Agriculture analyst,,dgm_agr_mentioner_entities,6a4de7014d68761bdff92627c4f58a97,dgm_agr_mentioner_entities__6a4de7014d68761bdff92627c4f58a97
lsynkovska,Agriculture analyst,"dnipro, ukraine",commodity match;ag commodity;company;country;stateprovince;imports;exports;drought;severe weather;soil;biofuel;pest;region;frost;agricultureminister;agricultureministry,agriculture analyst,"Dnipro, Ukraine",48.464717,35.046183,,"48.464717, 35.046183",AgricultureAnalyst,Agriculture analyst,,dgm_agr_mentioner_entities,6a4de7014d68761bdff92627c4f58a97,dgm_agr_mentioner_entities__6a4de7014d68761bdff92627c4f58a97
rallydasafra,Agriculture analyst,"brasilia, brazil",commodity match;ag commodity;company;country;stateprovince;imports;exports;drought;severe weather;soil;biofuel;pest;region;frost;agricultureminister;agricultureministry,agriculture analyst,"Brasilia, Brazil",-15.7975174,-47.8918881,,"-15.7975174, -47.8918881",AgricultureAnalyst,Agriculture analyst,,dgm_agr_mentioner_entities,6a4de7014d68761bdff92627c4f58a97,dgm_agr_mentioner_entities__6a4de7014d68761bdff92627c4f58a97
andredebastiani,Agriculture analyst,"florian처polis, brazil",commodity match;ag commodity;company;country;stateprovince;imports;exports;drought;severe weather;soil;biofuel;pest;region;frost;agricultureminister;agricultureministry,agriculture analyst,"Florian처polis, Brazil",-27.5948036,-48.5569286,,"-27.5948036, -48.5569286",AgricultureAnalyst,Agriculture analyst,,dgm_agr_mentioner_entities,6a4de7014d68761bdff92627c4f58a97,dgm_agr_mentioner_entities__6a4de7014d68761bdff92627c4f58a97
agroconsult,Agriculture analyst,"brasilia, brazil",commodity match;ag commodity;company;country;stateprovince;imports;exports;drought;severe weather;soil;biofuel;pest;region;frost;agricultureminister;agricultureministry,agriculture analyst,"Brasilia, Brazil",-15.7975174,-47.8918881,,"-15.7975174, -47.8918881",AgricultureAnalyst,Agriculture analyst,,dgm_agr_mentioner_entities,6a4de7014d68761bdff92627c4f58a97,dgm_agr_mentioner_entities__6a4de7014d68761bdff92627c4f58a97
tarsoveloso,Agriculture analyst,"chicago, il",commodity match;ag commodity;company;country;stateprovince;imports;exports;drought;severe weather;soil;biofuel;pest;region;frost;agricultureminister;agricultureministry,agriculture analyst,"Chicago, IL",41.8781136,-87.6297982,,"41.8781136, -87.6297982",AgricultureAnalyst,Agriculture analyst,,dgm_agr_mentioner_entities,6a4de7014d68761bdff92627c4f58a97,dgm_agr_mentioner_entities__6a4de7014d68761bdff92627c4f58a97
benbelgica,Agriculture analyst,"ghent, belgium",commodity match;ag commodity;company;country;stateprovince;imports;exports;drought;severe weather;soil;biofuel;pest;region;frost;agricultureminister;agricultureministry,agriculture analyst,"Ghent, Belgium",51.0543422,3.7174243,,"51.0543422, 3.7174243",AgricultureAnalyst,Agriculture analyst,,dgm_agr_mentioner_entities,6a4de7014d68761bdff92627c4f58a97,dgm_agr_mentioner_entities__6a4de7014d68761bdff92627c4f58a97
jinghe17215567,Agriculture analyst,"beijing, china",commodity match;ag commodity;company;country;stateprovince;imports;exports;drought;severe weather;soil;biofuel;pest;region;frost;agricultureminister;agricultureministry,agriculture analyst,"Beijing, China",39.9041999,116.4073963,,"39.9041999, 116.4073963",AgricultureAnalyst,Agriculture analyst,,dgm_agr_mentioner_entities,6a4de7014d68761bdff92627c4f58a97,dgm_agr_mentioner_entities__6a4de7014d68761bdff92627c4f58a97
cerealpar,Agriculture analyst,"valletta, malta",commodity match;ag commodity;company;country;stateprovince;imports;exports;drought;severe weather;soil;biofuel;pest;region;frost;agricultureminister;agricultureministry,agriculture analyst,"Valletta, Malta",35.8989085,14.5145528,,"35.8989085, 14.5145528",AgricultureAnalyst,Agriculture analyst,,dgm_agr_mentioner_entities,6a4de7014d68761bdff92627c4f58a97,dgm_agr_mentioner_entities__6a4de7014d68761bdff92627c4f58a97
olivialiu2011,Agriculture analyst,"san diego, ca",commodity match;ag commodity;company;country;stateprovince;imports;exports;drought;severe weather;soil;biofuel;pest;region;frost;agricultureminister;agricultureministry,agriculture analyst,"San Diego, CA",32.715738,-117.1610838,,"32.715738, -117.1610838",AgricultureAnalyst,Agriculture analyst,,dgm_agr_mentioner_entities,6a4de7014d68761bdff92627c4f58a97,dgm_agr_mentioner_entities__6a4de7014d68761bdff92627c4f58a97
crushtraders,Agriculture analyst,"chicago, il",commodity match;ag commodity;company;country;stateprovince;imports;exports;drought;severe weather;soil;biofuel;pest;region;frost;agricultureminister;agricultureministry,agriculture analyst,"Chicago, IL",41.8781136,-87.6297982,,"41.8781136, -87.6297982",AgricultureAnalyst,Agriculture analyst,,dgm_agr_mentioner_entities,6a4de7014d68761bdff92627c4f58a97,dgm_agr_mentioner_entities__6a4de7014d68761bdff92627c4f58a97
lnfield,Agriculture analyst,"buenos aires, argentina",commodity match;ag commodity;company;country;stateprovince;imports;exports;drought;severe weather;soil;biofuel;pest;region;frost;agricultureminister;agricultureministry,agriculture analyst,"Buenos Aires, Argentina",-34.6036844,-58.3815591,,"-34.6036844, -58.3815591",AgricultureAnalyst,Agriculture analyst,,dgm_agr_mentioner_entities,6a4de7014d68761bdff92627c4f58a97,dgm_agr_mentioner_entities__6a4de7014d68761bdff92627c4f58a97
benbrownmu,Agriculture analyst,"columbia, mo",commodity match;ag commodity;company;country;stateprovince;imports;exports;drought;severe weather;soil;biofuel;pest;region;frost;agricultureminister;agricultureministry,agriculture analyst,"Columbia, MO",38.9517053,-92.3340724,,"38.9517053, -92.3340724",AgricultureAnalyst,Agriculture analyst,,dgm_agr_mentioner_entities,6a4de7014d68761bdff92627c4f58a97,dgm_agr_mentioner_entities__6a4de7014d68761bdff92627c4f58a97
bjsplitt,Agriculture analyst,"arlington heights, il",commodity match;ag commodity;company;country;stateprovince;imports;exports;drought;severe weather;soil;biofuel;pest;region;frost;agricultureminister;agricultureministry,agriculture analyst,"Arlington Heights, IL",42.0883603,-87.9806265,,"42.0883603, -87.9806265",AgricultureAnalyst,Agriculture analyst,,dgm_agr_mentioner_entities,6a4de7014d68761bdff92627c4f58a97,dgm_agr_mentioner_entities__6a4de7014d68761bdff92627c4f58a97
markosleo,Agriculture analyst,washington dc,commodity match;ag commodity;company;country;stateprovince;imports;exports;drought;severe weather;soil;biofuel;pest;region;frost;agricultureminister;agricultureministry,agriculture analyst,Washington DC,38.9071923,-77.0368707,,"38.9071923, -77.0368707",AgricultureAnalyst,Agriculture analyst,,dgm_agr_mentioner_entities,6a4de7014d68761bdff92627c4f58a97,dgm_agr_mentioner_entities__6a4de7014d68761bdff92627c4f58a97
shah_neil,Agriculture analyst,"new york, ny",commodity match;ag commodity;company;country;stateprovince;imports;exports;drought;severe weather;soil;biofuel;pest;region;frost;agricultureminister;agricultureministry,agriculture analyst,"New York, NY",40.7127753,-74.0059728,,"40.7127753, -74.0059728",AgricultureAnalyst,Agriculture analyst,,dgm_agr_mentioner_entities,6a4de7014d68761bdff92627c4f58a97,dgm_agr_mentioner_entities__6a4de7014d68761bdff92627c4f58a97
infofimix,Agriculture analyst,"montevideo, uruguay",commodity match;ag commodity;company;country;stateprovince;imports;exports;drought;severe weather;soil;biofuel;pest;region;frost;agricultureminister;agricultureministry,agriculture analyst,"Montevideo, Uruguay",-34.9011127,-56.1645314,,"-34.9011127, -56.1645314",AgricultureAnalyst,Agriculture analyst,,dgm_agr_mentioner_entities,6a4de7014d68761bdff92627c4f58a97,dgm_agr_mentioner_entities__6a4de7014d68761bdff92627c4f58a97
rakepark,Agriculture analyst,"london, uk",commodity match;ag commodity;company;country;stateprovince;imports;exports;drought;severe weather;soil;biofuel;pest;region;frost;agricultureminister;agricultureministry,agriculture analyst,"London, UK",51.5073509,-0.1277583,,"51.5073509, -0.1277583",AgricultureAnalyst,Agriculture analyst,,dgm_agr_mentioner_entities,6a4de7014d68761bdff92627c4f58a97,dgm_agr_mentioner_entities__6a4de7014d68761bdff92627c4f58a97
graincast,Agriculture analyst,"michigan, usa",commodity match;ag commodity;company;country;stateprovince;imports;exports;drought;severe weather;soil;biofuel;pest;region;frost;agricultureminister;agricultureministry,agriculture analyst,"Michigan, USA",44.3148443,-85.6023643,,"44.3148443, -85.6023643",AgricultureAnalyst,Agriculture analyst,,dgm_agr_mentioner_entities,6a4de7014d68761bdff92627c4f58a97,dgm_agr_mentioner_entities__6a4de7014d68761bdff92627c4f58a97
thegrainguy,Agriculture analyst,"willow lake, sd",commodity match;ag commodity;company;country;stateprovince;imports;exports;drought;severe weather;soil;biofuel;pest;region;frost;agricultureminister;agricultureministry,agriculture analyst,"Willow Lake, SD",44.627469,-97.6370273,,"44.627469, -97.6370273",AgricultureAnalyst,Agriculture analyst,,dgm_agr_mentioner_entities,6a4de7014d68761bdff92627c4f58a97,dgm_agr_mentioner_entities__6a4de7014d68761bdff92627c4f58a97
eduardovanin4,Agriculture analyst,"curbita, brazil",commodity match;ag commodity;company;country;stateprovince;imports;exports;drought;severe weather;soil;biofuel;pest;region;frost;agricultureminister;agricultureministry,agriculture analyst,"Curbita, Brazil",-25.4372382,-49.2699727,,"-25.4372382, -49.2699727",AgricultureAnalyst,Agriculture analyst,,dgm_agr_mentioner_entities,6a4de7014d68761bdff92627c4f58a97,dgm_agr_mentioner_entities__6a4de7014d68761bdff92627c4f58a97
grainhedging,Agriculture analyst,washington dc,commodity match;ag commodity;company;country;stateprovince;imports;exports;drought;severe weather;soil;biofuel;pest;region;frost;agricultureminister;agricultureministry,agriculture analyst,Washington DC,38.9071923,-77.0368707,,"38.9071923, -77.0368707",AgricultureAnalyst,Agriculture analyst,,dgm_agr_mentioner_entities,6a4de7014d68761bdff92627c4f58a97,dgm_agr_mentioner_entities__6a4de7014d68761bdff92627c4f58a97
alexeyyegorov,Agriculture analyst,"moscow, russia",commodity match;ag commodity;company;country;stateprovince;imports;exports;drought;severe weather;soil;biofuel;pest;region;frost;agricultureminister;agricultureministry,agriculture analyst,"Moscow, Russia",55.755826,37.6172999,,"55.755826, 37.6172999",AgricultureAnalyst,Agriculture analyst,,dgm_agr_mentioner_entities,6a4de7014d68761bdff92627c4f58a97,dgm_agr_mentioner_entities__6a4de7014d68761bdff92627c4f58a97
kannbwx,Agriculture analyst,"fort collins, co",commodity match;ag commodity;company;country;stateprovince;imports;exports;drought;severe weather;soil;biofuel;pest;region;frost;agricultureminister;agricultureministry,agriculture analyst,"Fort Collins, CO",40.5852602,-105.084423,,"40.5852602, -105.084423",AgricultureAnalyst,Agriculture analyst,,dgm_agr_mentioner_entities,6a4de7014d68761bdff92627c4f58a97,dgm_agr_mentioner_entities__6a4de7014d68761bdff92627c4f58a97
cornbroker21,Agriculture analyst,"mckinney, tx",commodity match;ag commodity;company;country;stateprovince;imports;exports;drought;severe weather;soil;biofuel;pest;region;frost;agricultureminister;agricultureministry,agriculture analyst,"McKinney, TX",33.1983388,-96.6389342,,"33.1983388, -96.6389342",AgricultureAnalyst,Agriculture analyst,,dgm_agr_mentioner_entities,6a4de7014d68761bdff92627c4f58a97,dgm_agr_mentioner_entities__6a4de7014d68761bdff92627c4f58a97
arlanff101,Agriculture analyst,"new york, ny",commodity match;ag commodity;company;country;stateprovince;imports;exports;drought;severe weather;soil;biofuel;pest;region;frost;agricultureminister;agricultureministry,agriculture analyst,"New York, NY",40.7127753,-74.0059728,,"40.7127753, -74.0059728",AgricultureAnalyst,Agriculture analyst,,dgm_agr_mentioner_entities,6a4de7014d68761bdff92627c4f58a97,dgm_agr_mentioner_entities__6a4de7014d68761bdff92627c4f58a97
markettomarket,Agriculture analyst,"johnston, iowa",commodity match;ag commodity;company;country;stateprovince;imports;exports;drought;severe weather;soil;biofuel;pest;region;frost;agricultureminister;agricultureministry,agriculture analyst,"Johnston, Iowa",41.6709834,-93.7130493,,"41.6709834, -93.7130493",AgricultureAnalyst,Agriculture analyst,,dgm_agr_mentioner_entities,6a4de7014d68761bdff92627c4f58a97,dgm_agr_mentioner_entities__6a4de7014d68761bdff92627c4f58a97
jasonlbritt,Agriculture analyst,"kansas city, missouri",commodity match;ag commodity;company;country;stateprovince;imports;exports;drought;severe weather;soil;biofuel;pest;region;frost;agricultureminister;agricultureministry,agriculture analyst,"Kansas City, Missouri",39.0997265,-94.5785667,,"39.0997265, -94.5785667",AgricultureAnalyst,Agriculture analyst,,dgm_agr_mentioner_entities,6a4de7014d68761bdff92627c4f58a97,dgm_agr_mentioner_entities__6a4de7014d68761bdff92627c4f58a97
schuelkecorn,Agriculture analyst,"millington, tn",commodity match;ag commodity;company;country;stateprovince;imports;exports;drought;severe weather;soil;biofuel;pest;region;frost;agricultureminister;agricultureministry,agriculture analyst,"Millington, TN",35.3414744,-89.8973084,,"35.3414744, -89.8973084",AgricultureAnalyst,Agriculture analyst,,dgm_agr_mentioner_entities,6a4de7014d68761bdff92627c4f58a97,dgm_agr_mentioner_entities__6a4de7014d68761bdff92627c4f58a97
sizov_andre,Agriculture analyst,"kyiv, ukraine",commodity match;ag commodity;company;country;stateprovince;imports;exports;drought;severe weather;soil;biofuel;pest;region;frost;agricultureminister;agricultureministry,agriculture analyst,"Kyiv, Ukraine",50.4501,30.5234,,"50.4501, 30.5234",AgricultureAnalyst,Agriculture analyst,,dgm_agr_mentioner_entities,6a4de7014d68761bdff92627c4f58a97,dgm_agr_mentioner_entities__6a4de7014d68761bdff92627c4f58a97
scottirwinui,Agriculture analyst,"champaign, il",commodity match;ag commodity;company;country;stateprovince;imports;exports;drought;severe weather;soil;biofuel;pest;region;frost;agricultureminister;agricultureministry,agriculture analyst,"Champaign, IL",40.1164204,-88.2433829,,"40.1164204, -88.2433829",AgricultureAnalyst,Agriculture analyst,,dgm_agr_mentioner_entities,6a4de7014d68761bdff92627c4f58a97,dgm_agr_mentioner_entities__6a4de7014d68761bdff92627c4f58a97
grainmonster,Agriculture analyst,"jefferson city, mo",commodity match;ag commodity;company;country;stateprovince;imports;exports;drought;severe weather;soil;biofuel;pest;region;frost;agricultureminister;agricultureministry,agriculture analyst,"Jefferson City, MO",38.5767017,-92.1735164,,"38.5767017, -92.1735164",AgricultureAnalyst,Agriculture analyst,,dgm_agr_mentioner_entities,6a4de7014d68761bdff92627c4f58a97,dgm_agr_mentioner_entities__6a4de7014d68761bdff92627c4f58a97
openingprint,Agriculture analyst,unknown,commodity match;ag commodity;company;country;stateprovince;imports;exports;drought;severe weather;soil;biofuel;pest;region;frost;agricultureminister;agricultureministry,agriculture analyst,Unknown,35.2207201,-80.8577983,,"35.2207201, -80.8577983",AgricultureAnalyst,Agriculture analyst,,dgm_agr_mentioner_entities,6a4de7014d68761bdff92627c4f58a97,dgm_agr_mentioner_entities__6a4de7014d68761bdff92627c4f58a97
e_energy_adams,Agriculture analyst,"adams, ne",commodity match;ag commodity;company;country;stateprovince;imports;exports;drought;severe weather;soil;biofuel;pest;region;frost;agricultureminister;agricultureministry,agriculture analyst,"Adams, NE",40.4611108,-96.5094615,,"40.4611108, -96.5094615",AgricultureAnalyst,Agriculture analyst,,dgm_agr_mentioner_entities,6a4de7014d68761bdff92627c4f58a97,dgm_agr_mentioner_entities__6a4de7014d68761bdff92627c4f58a97
greg_drovers,Agriculture analyst,"lenexa, ks",commodity match;ag commodity;company;country;stateprovince;imports;exports;drought;severe weather;soil;biofuel;pest;region;frost;agricultureminister;agricultureministry,agriculture analyst,"Lenexa, KS",38.9536174,-94.7335709,,"38.9536174, -94.7335709",AgricultureAnalyst,Agriculture analyst,,dgm_agr_mentioner_entities,6a4de7014d68761bdff92627c4f58a97,dgm_agr_mentioner_entities__6a4de7014d68761bdff92627c4f58a97
mokanjim,Agriculture analyst,"passaic, mo",commodity match;ag commodity;company;country;stateprovince;imports;exports;drought;severe weather;soil;biofuel;pest;region;frost;agricultureminister;agricultureministry,agriculture analyst,"Passaic, MO",38.3219655,-94.3482833,,"38.3219655, -94.3482833",AgricultureAnalyst,Agriculture analyst,,dgm_agr_mentioner_entities,6a4de7014d68761bdff92627c4f58a97,dgm_agr_mentioner_entities__6a4de7014d68761bdff92627c4f58a97
usdafsa,Agriculture analyst,washington dc,commodity match;ag commodity;company;country;stateprovince;imports;exports;drought;severe weather;soil;biofuel;pest;region;frost;agricultureminister;agricultureministry,agriculture analyst,Washington DC,38.9071923,-77.0368707,,"38.9071923, -77.0368707",AgricultureAnalyst,Agriculture analyst,,dgm_agr_mentioner_entities,6a4de7014d68761bdff92627c4f58a97,dgm_agr_mentioner_entities__6a4de7014d68761bdff92627c4f58a97
grainsoilseeds,Agriculture analyst,"mato grosso, brazil",commodity match;ag commodity;company;country;stateprovince;imports;exports;drought;severe weather;soil;biofuel;pest;region;frost;agricultureminister;agricultureministry,agriculture analyst,"Mato Grosso, Brazil",-12.6818712,-56.921099,,"-12.6818712, -56.921099",AgricultureAnalyst,Agriculture analyst,,dgm_agr_mentioner_entities,6a4de7014d68761bdff92627c4f58a97,dgm_agr_mentioner_entities__6a4de7014d68761bdff92627c4f58a97
1beantrader,Agriculture analyst,washington dc,commodity match;ag commodity;company;country;stateprovince;imports;exports;drought;severe weather;soil;biofuel;pest;region;frost;agricultureminister;agricultureministry,agriculture analyst,Washington DC,38.9071923,-77.0368707,,"38.9071923, -77.0368707",AgricultureAnalyst,Agriculture analyst,,dgm_agr_mentioner_entities,6a4de7014d68761bdff92627c4f58a97,dgm_agr_mentioner_entities__6a4de7014d68761bdff92627c4f58a97
russiangraintra,Agriculture analyst,"moscow, russia",commodity match;ag commodity;company;country;stateprovince;imports;exports;drought;severe weather;soil;biofuel;pest;region;frost;agricultureminister;agricultureministry,agriculture analyst,"Moscow, Russia",55.755826,37.6172999,,"55.755826, 37.6172999",AgricultureAnalyst,Agriculture analyst,,dgm_agr_mentioner_entities,6a4de7014d68761bdff92627c4f58a97,dgm_agr_mentioner_entities__6a4de7014d68761bdff92627c4f58a97
teleginskik,Agriculture analyst,"curbita, brazil",commodity match;ag commodity;company;country;stateprovince;imports;exports;drought;severe weather;soil;biofuel;pest;region;frost;agricultureminister;agricultureministry,agriculture analyst,"Curbita, Brazil",-25.4372382,-49.2699727,,"-25.4372382, -49.2699727",AgricultureAnalyst,Agriculture analyst,,dgm_agr_mentioner_entities,6a4de7014d68761bdff92627c4f58a97,dgm_agr_mentioner_entities__6a4de7014d68761bdff92627c4f58a97
n_kauffman,Agriculture analyst,"omaha, ne",commodity match;ag commodity;company;country;stateprovince;imports;exports;drought;severe weather;soil;biofuel;pest;region;frost;agricultureminister;agricultureministry,agriculture analyst,"Omaha, NE",41.2565369,-95.9345034,,"41.2565369, -95.9345034",AgricultureAnalyst,Agriculture analyst,,dgm_agr_mentioner_entities,6a4de7014d68761bdff92627c4f58a97,dgm_agr_mentioner_entities__6a4de7014d68761bdff92627c4f58a97
cheers2schweers,Agriculture analyst,"lincoln, ne",commodity match;ag commodity;company;country;stateprovince;imports;exports;drought;severe weather;soil;biofuel;pest;region;frost;agricultureminister;agricultureministry,agriculture analyst,"Lincoln, NE",40.813616,-96.7025955,,"40.813616, -96.7025955",AgricultureAnalyst,Agriculture analyst,,dgm_agr_mentioner_entities,6a4de7014d68761bdff92627c4f58a97,dgm_agr_mentioner_entities__6a4de7014d68761bdff92627c4f58a97
cofeed5,Agriculture analyst,"beijing, china",commodity match;ag commodity;company;country;stateprovince;imports;exports;drought;severe weather;soil;biofuel;pest;region;frost;agricultureminister;agricultureministry,agriculture analyst,"Beijing, China",39.9041999,116.4073963,,"39.9041999, 116.4073963",AgricultureAnalyst,Agriculture analyst,,dgm_agr_mentioner_entities,6a4de7014d68761bdff92627c4f58a97,dgm_agr_mentioner_entities__6a4de7014d68761bdff92627c4f58a97
benjaminbodart,Agriculture analyst,"bern, switzerland",commodity match;ag commodity;company;country;stateprovince;imports;exports;drought;severe weather;soil;biofuel;pest;region;frost;agricultureminister;agricultureministry,agriculture analyst,"Bern, Switzerland",46.9479739,7.4474468,,"46.9479739, 7.4474468",AgricultureAnalyst,Agriculture analyst,,dgm_agr_mentioner_entities,6a4de7014d68761bdff92627c4f58a97,dgm_agr_mentioner_entities__6a4de7014d68761bdff92627c4f58a97
sherwin929,Agriculture analyst,"chicago, il",commodity match;ag commodity;company;country;stateprovince;imports;exports;drought;severe weather;soil;biofuel;pest;region;frost;agricultureminister;agricultureministry,agriculture analyst,"Chicago, IL",41.8781136,-87.6297982,,"41.8781136, -87.6297982",AgricultureAnalyst,Agriculture analyst,,dgm_agr_mentioner_entities,6a4de7014d68761bdff92627c4f58a97,dgm_agr_mentioner_entities__6a4de7014d68761bdff92627c4f58a97
tom__whittaker,Agriculture analyst,"london, uk",commodity match;ag commodity;company;country;stateprovince;imports;exports;drought;severe weather;soil;biofuel;pest;region;frost;agricultureminister;agricultureministry,agriculture analyst,"London, UK",51.5073509,-0.1277583,,"51.5073509, -0.1277583",AgricultureAnalyst,Agriculture analyst,,dgm_agr_mentioner_entities,6a4de7014d68761bdff92627c4f58a97,dgm_agr_mentioner_entities__6a4de7014d68761bdff92627c4f58a97
garciagrain,Agriculture analyst,"donna, tx",commodity match;ag commodity;company;country;stateprovince;imports;exports;drought;severe weather;soil;biofuel;pest;region;frost;agricultureminister;agricultureministry,agriculture analyst,"Donna, TX",26.1703525,-98.05195,,"26.1703525, -98.05195",AgricultureAnalyst,Agriculture analyst,,dgm_agr_mentioner_entities,6a4de7014d68761bdff92627c4f58a97,dgm_agr_mentioner_entities__6a4de7014d68761bdff92627c4f58a97
grainstats,Agriculture analyst,washington dc,commodity match;ag commodity;company;country;stateprovince;imports;exports;drought;severe weather;soil;biofuel;pest;region;frost;agricultureminister;agricultureministry,agriculture analyst,Washington DC,38.9071923,-77.0368707,,"38.9071923, -77.0368707",AgricultureAnalyst,Agriculture analyst,,dgm_agr_mentioner_entities,6a4de7014d68761bdff92627c4f58a97,dgm_agr_mentioner_entities__6a4de7014d68761bdff92627c4f58a97
siqueiradaniele,Agriculture analyst,"parana, brazil",commodity match;ag commodity;company;country;stateprovince;imports;exports;drought;severe weather;soil;biofuel;pest;region;frost;agricultureminister;agricultureministry,agriculture analyst,"Parana, Brazil",-25.2520888,-52.0215415,,"-25.2520888, -52.0215415",AgricultureAnalyst,Agriculture analyst,,dgm_agr_mentioner_entities,6a4de7014d68761bdff92627c4f58a97,dgm_agr_mentioner_entities__6a4de7014d68761bdff92627c4f58a97
meyermarco48,Agriculture analyst,"cape town, south africa",commodity match;ag commodity;company;country;stateprovince;imports;exports;drought;severe weather;soil;biofuel;pest;region;frost;agricultureminister;agricultureministry,agriculture analyst,"Cape Town, South Africa",-33.9248685,18.4240553,,"-33.9248685, 18.4240553",AgricultureAnalyst,Agriculture analyst,,dgm_agr_mentioner_entities,6a4de7014d68761bdff92627c4f58a97,dgm_agr_mentioner_entities__6a4de7014d68761bdff92627c4f58a97
meatpoultry,Agriculture analyst,"kansas city, missouri",commodity match;ag commodity;company;country;stateprovince;imports;exports;drought;severe weather;soil;biofuel;pest;region;frost;agricultureminister;agricultureministry,agriculture analyst,"Kansas City, Missouri",39.0997265,-94.5785667,,"39.0997265, -94.5785667",AgricultureAnalyst,Agriculture analyst,,dgm_agr_mentioner_entities,6a4de7014d68761bdff92627c4f58a97,dgm_agr_mentioner_entities__6a4de7014d68761bdff92627c4f58a97
cottonzapata,Agriculture analyst,"isle of skye, uk",commodity match;ag commodity;company;country;stateprovince;imports;exports;drought;severe weather;soil;biofuel;pest;region;frost;agricultureminister;agricultureministry,agriculture analyst,"Isle of Skye, UK",57.2736278,-6.2155023,,"57.2736278, -6.2155023",AgricultureAnalyst,Agriculture analyst,,dgm_agr_mentioner_entities,6a4de7014d68761bdff92627c4f58a97,dgm_agr_mentioner_entities__6a4de7014d68761bdff92627c4f58a97
usda_ers,Agriculture analyst,washington dc,commodity match;ag commodity;company;country;stateprovince;imports;exports;drought;severe weather;soil;biofuel;pest;region;frost;agricultureminister;agricultureministry,agriculture analyst,Washington DC,38.9071923,-77.0368707,,"38.9071923, -77.0368707",AgricultureAnalyst,Agriculture analyst,,dgm_agr_mentioner_entities,6a4de7014d68761bdff92627c4f58a97,dgm_agr_mentioner_entities__6a4de7014d68761bdff92627c4f58a97
freddygrain,Agriculture analyst,"buenos aires, argentina",commodity match;ag commodity;company;country;stateprovince;imports;exports;drought;severe weather;soil;biofuel;pest;region;frost;agricultureminister;agricultureministry,agriculture analyst,"Buenos Aires, Argentina",-34.6036844,-58.3815591,,"-34.6036844, -58.3815591",AgricultureAnalyst,Agriculture analyst,,dgm_agr_mentioner_entities,6a4de7014d68761bdff92627c4f58a97,dgm_agr_mentioner_entities__6a4de7014d68761bdff92627c4f58a97
rtdp30,Agriculture analyst,"fort worth, tx",commodity match;ag commodity;company;country;stateprovince;imports;exports;drought;severe weather;soil;biofuel;pest;region;frost;agricultureminister;agricultureministry,agriculture analyst,"Fort Worth, TX",32.7554883,-97.3307658,,"32.7554883, -97.3307658",AgricultureAnalyst,Agriculture analyst,,dgm_agr_mentioner_entities,6a4de7014d68761bdff92627c4f58a97,dgm_agr_mentioner_entities__6a4de7014d68761bdff92627c4f58a97
jaysonlusk,Agriculture analyst,"west lafayette, in",commodity match;ag commodity;company;country;stateprovince;imports;exports;drought;severe weather;soil;biofuel;pest;region;frost;agricultureminister;agricultureministry,agriculture analyst,"West Lafayette, IN",40.4258686,-86.9080655,,"40.4258686, -86.9080655",AgricultureAnalyst,Agriculture analyst,,dgm_agr_mentioner_entities,6a4de7014d68761bdff92627c4f58a97,dgm_agr_mentioner_entities__6a4de7014d68761bdff92627c4f58a97
spglobalplatts,Agriculture analyst,"london, uk",commodity match;ag commodity;company;country;stateprovince;imports;exports;drought;severe weather;soil;biofuel;pest;region;frost;agricultureminister;agricultureministry,agriculture analyst,"London, UK",51.5073509,-0.1277583,,"51.5073509, -0.1277583",AgricultureAnalyst,Agriculture analyst,,dgm_agr_mentioner_entities,6a4de7014d68761bdff92627c4f58a97,dgm_agr_mentioner_entities__6a4de7014d68761bdff92627c4f58a97
mitchrozeboom,Agriculture analyst,"des moines, ia",commodity match;ag commodity;company;country;stateprovince;imports;exports;drought;severe weather;soil;biofuel;pest;region;frost;agricultureminister;agricultureministry,agriculture analyst,"Des Moines, IA",41.5868353,-93.6249593,,"41.5868353, -93.6249593",AgricultureAnalyst,Agriculture analyst,,dgm_agr_mentioner_entities,6a4de7014d68761bdff92627c4f58a97,dgm_agr_mentioner_entities__6a4de7014d68761bdff92627c4f58a97
trentkubik,Agriculture analyst,"pierre, sd",commodity match;ag commodity;company;country;stateprovince;imports;exports;drought;severe weather;soil;biofuel;pest;region;frost;agricultureminister;agricultureministry,agriculture analyst,"Pierre, SD",44.3667876,-100.3537522,,"44.3667876, -100.3537522",AgricultureAnalyst,Agriculture analyst,,dgm_agr_mentioner_entities,6a4de7014d68761bdff92627c4f58a97,dgm_agr_mentioner_entities__6a4de7014d68761bdff92627c4f58a97
jasonschley,Agriculture analyst,"beadle county, sd",commodity match;ag commodity;company;country;stateprovince;imports;exports;drought;severe weather;soil;biofuel;pest;region;frost;agricultureminister;agricultureministry,agriculture analyst,"Beadle County, SD",44.4797351,-98.2212979,,"44.4797351, -98.2212979",AgricultureAnalyst,Agriculture analyst,,dgm_agr_mentioner_entities,6a4de7014d68761bdff92627c4f58a97,dgm_agr_mentioner_entities__6a4de7014d68761bdff92627c4f58a97
reecespufff,Agriculture analyst,"new york, ny",commodity match;ag commodity;company;country;stateprovince;imports;exports;drought;severe weather;soil;biofuel;pest;region;frost;agricultureminister;agricultureministry,agriculture analyst,"New York, NY",40.7127753,-74.0059728,,"40.7127753, -74.0059728",AgricultureAnalyst,Agriculture analyst,,dgm_agr_mentioner_entities,6a4de7014d68761bdff92627c4f58a97,dgm_agr_mentioner_entities__6a4de7014d68761bdff92627c4f58a97
ochefedoboss1,Agriculture analyst,washington dc,commodity match;ag commodity;company;country;stateprovince;imports;exports;drought;severe weather;soil;biofuel;pest;region;frost;agricultureminister;agricultureministry,agriculture analyst,Washington DC,38.9071923,-77.0368707,,"38.9071923, -77.0368707",AgricultureAnalyst,Agriculture analyst,,dgm_agr_mentioner_entities,6a4de7014d68761bdff92627c4f58a97,dgm_agr_mentioner_entities__6a4de7014d68761bdff92627c4f58a97
cattlenomics,Agriculture analyst,"loveland, co",commodity match;ag commodity;company;country;stateprovince;imports;exports;drought;severe weather;soil;biofuel;pest;region;frost;agricultureminister;agricultureministry,agriculture analyst,"Loveland, CO",40.3977612,-105.0749801,,"40.3977612, -105.0749801",AgricultureAnalyst,Agriculture analyst,,dgm_agr_mentioner_entities,6a4de7014d68761bdff92627c4f58a97,dgm_agr_mentioner_entities__6a4de7014d68761bdff92627c4f58a97
londervilleag,Agriculture analyst,"des moines, ia",commodity match;ag commodity;company;country;stateprovince;imports;exports;drought;severe weather;soil;biofuel;pest;region;frost;agricultureminister;agricultureministry,agriculture analyst,"Des Moines, IA",41.5868353,-93.6249593,,"41.5868353, -93.6249593",AgricultureAnalyst,Agriculture analyst,,dgm_agr_mentioner_entities,6a4de7014d68761bdff92627c4f58a97,dgm_agr_mentioner_entities__6a4de7014d68761bdff92627c4f58a97
mikemcglone11,Agriculture analyst,"new york, ny",commodity match;ag commodity;company;country;stateprovince;imports;exports;drought;severe weather;soil;biofuel;pest;region;frost;agricultureminister;agricultureministry,agriculture analyst,"New York, NY",40.7127753,-74.0059728,,"40.7127753, -74.0059728",AgricultureAnalyst,Agriculture analyst,,dgm_agr_mentioner_entities,6a4de7014d68761bdff92627c4f58a97,dgm_agr_mentioner_entities__6a4de7014d68761bdff92627c4f58a97
therealgerlach,Agriculture analyst,"monroe, la",commodity match;ag commodity;company;country;stateprovince;imports;exports;drought;severe weather;soil;biofuel;pest;region;frost;agricultureminister;agricultureministry,agriculture analyst,"Monroe, LA",32.5093109,-92.1193012,,"32.5093109, -92.1193012",AgricultureAnalyst,Agriculture analyst,,dgm_agr_mentioner_entities,6a4de7014d68761bdff92627c4f58a97,dgm_agr_mentioner_entities__6a4de7014d68761bdff92627c4f58a97
michaelminormar,Agriculture analyst,"luverne, mn",commodity match;ag commodity;company;country;stateprovince;imports;exports;drought;severe weather;soil;biofuel;pest;region;frost;agricultureminister;agricultureministry,agriculture analyst,"Luverne, MN",43.6555249,-96.2025289,,"43.6555249, -96.2025289",AgricultureAnalyst,Agriculture analyst,,dgm_agr_mentioner_entities,6a4de7014d68761bdff92627c4f58a97,dgm_agr_mentioner_entities__6a4de7014d68761bdff92627c4f58a97
commodityweek,Agriculture analyst,"chicago, il",commodity match;ag commodity;company;country;stateprovince;imports;exports;drought;severe weather;soil;biofuel;pest;region;frost;agricultureminister;agricultureministry,agriculture analyst,"Chicago, IL",41.8781136,-87.6297982,,"41.8781136, -87.6297982",AgricultureAnalyst,Agriculture analyst,,dgm_agr_mentioner_entities,6a4de7014d68761bdff92627c4f58a97,dgm_agr_mentioner_entities__6a4de7014d68761bdff92627c4f58a97
caitlinbowman96,Agriculture analyst,"dubbo, australia",commodity match;ag commodity;company;country;stateprovince;imports;exports;drought;severe weather;soil;biofuel;pest;region;frost;agricultureminister;agricultureministry,agriculture analyst,"Dubbo, Australia",-32.2443908,148.614418,,"-32.2443908, 148.614418",AgricultureAnalyst,Agriculture analyst,,dgm_agr_mentioner_entities,6a4de7014d68761bdff92627c4f58a97,dgm_agr_mentioner_entities__6a4de7014d68761bdff92627c4f58a97
bornbullish,Agriculture analyst,"chicago, il",commodity match;ag commodity;company;country;stateprovince;imports;exports;drought;severe weather;soil;biofuel;pest;region;frost;agricultureminister;agricultureministry,agriculture analyst,"Chicago, IL",41.8781136,-87.6297982,,"41.8781136, -87.6297982",AgricultureAnalyst,Agriculture analyst,,dgm_agr_mentioner_entities,6a4de7014d68761bdff92627c4f58a97,dgm_agr_mentioner_entities__6a4de7014d68761bdff92627c4f58a97
jake_moline,Agriculture analyst,"new york, ny",commodity match;ag commodity;company;country;stateprovince;imports;exports;drought;severe weather;soil;biofuel;pest;region;frost;agricultureminister;agricultureministry,agriculture analyst,"New York, NY",40.7127753,-74.0059728,,"40.7127753, -74.0059728",AgricultureAnalyst,Agriculture analyst,,dgm_agr_mentioner_entities,6a4de7014d68761bdff92627c4f58a97,dgm_agr_mentioner_entities__6a4de7014d68761bdff92627c4f58a97
ainmakesgrain,Agriculture analyst,mississippi,commodity match;ag commodity;company;country;stateprovince;imports;exports;drought;severe weather;soil;biofuel;pest;region;frost;agricultureminister;agricultureministry,agriculture analyst,Mississippi,32.3546679,-89.3985283,,"32.3546679, -89.3985283",AgricultureAnalyst,Agriculture analyst,,dgm_agr_mentioner_entities,6a4de7014d68761bdff92627c4f58a97,dgm_agr_mentioner_entities__6a4de7014d68761bdff92627c4f58a97
_zwicker,Agriculture analyst,"waco, tx",commodity match;ag commodity;company;country;stateprovince;imports;exports;drought;severe weather;soil;biofuel;pest;region;frost;agricultureminister;agricultureministry,agriculture analyst,"Waco, TX",31.549333,-97.1466695,,"31.549333, -97.1466695",AgricultureAnalyst,Agriculture analyst,,dgm_agr_mentioner_entities,6a4de7014d68761bdff92627c4f58a97,dgm_agr_mentioner_entities__6a4de7014d68761bdff92627c4f58a97
agmarketnetwork,Agriculture analyst,"memphis, tn",commodity match;ag commodity;company;country;stateprovince;imports;exports;drought;severe weather;soil;biofuel;pest;region;frost;agricultureminister;agricultureministry,agriculture analyst,"Memphis, TN",35.1495343,-90.0489801,,"35.1495343, -90.0489801",AgricultureAnalyst,Agriculture analyst,,dgm_agr_mentioner_entities,6a4de7014d68761bdff92627c4f58a97,dgm_agr_mentioner_entities__6a4de7014d68761bdff92627c4f58a97
barvainvest,Agriculture analyst,"kyiv, ukraine",commodity match;ag commodity;company;country;stateprovince;imports;exports;drought;severe weather;soil;biofuel;pest;region;frost;agricultureminister;agricultureministry,agriculture analyst,"Kyiv, Ukraine",50.4501,30.5234,,"50.4501, 30.5234",AgricultureAnalyst,Agriculture analyst,,dgm_agr_mentioner_entities,6a4de7014d68761bdff92627c4f58a97,dgm_agr_mentioner_entities__6a4de7014d68761bdff92627c4f58a97
pauldubravec,Agriculture analyst,"bloomington, il",commodity match;ag commodity;company;country;stateprovince;imports;exports;drought;severe weather;soil;biofuel;pest;region;frost;agricultureminister;agricultureministry,agriculture analyst,"Bloomington, IL",40.4842027,-88.9936873,,"40.4842027, -88.9936873",AgricultureAnalyst,Agriculture analyst,,dgm_agr_mentioner_entities,6a4de7014d68761bdff92627c4f58a97,dgm_agr_mentioner_entities__6a4de7014d68761bdff92627c4f58a97
arakoon88,Agriculture analyst,"austin, tx",commodity match;ag commodity;company;country;stateprovince;imports;exports;drought;severe weather;soil;biofuel;pest;region;frost;agricultureminister;agricultureministry,agriculture analyst,"Austin, TX",30.267153,-97.7430608,,"30.267153, -97.7430608",AgricultureAnalyst,Agriculture analyst,,dgm_agr_mentioner_entities,6a4de7014d68761bdff92627c4f58a97,dgm_agr_mentioner_entities__6a4de7014d68761bdff92627c4f58a97
sdsoybean,Agriculture analyst,"sioux. falls, sd",commodity match;ag commodity;company;country;stateprovince;imports;exports;drought;severe weather;soil;biofuel;pest;region;frost;agricultureminister;agricultureministry,agriculture analyst,"Sioux. Falls, SD",43.5460223,-96.731265,,"43.5460223, -96.731265",AgricultureAnalyst,Agriculture analyst,,dgm_agr_mentioner_entities,6a4de7014d68761bdff92627c4f58a97,dgm_agr_mentioner_entities__6a4de7014d68761bdff92627c4f58a97
clipperdata,Agriculture analyst,"houston, tx",commodity match;ag commodity;company;country;stateprovince;imports;exports;drought;severe weather;soil;biofuel;pest;region;frost;agricultureminister;agricultureministry,agriculture analyst,"Houston, TX",29.7604267,-95.3698028,,"29.7604267, -95.3698028",AgricultureAnalyst,Agriculture analyst,,dgm_agr_mentioner_entities,6a4de7014d68761bdff92627c4f58a97,dgm_agr_mentioner_entities__6a4de7014d68761bdff92627c4f58a97
vickyfedchenko,Agriculture analyst,"kyiv, ukraine",commodity match;ag commodity;company;country;stateprovince;imports;exports;drought;severe weather;soil;biofuel;pest;region;frost;agricultureminister;agricultureministry,agriculture analyst,"Kyiv, Ukraine",50.4501,30.5234,,"50.4501, 30.5234",AgricultureAnalyst,Agriculture analyst,,dgm_agr_mentioner_entities,6a4de7014d68761bdff92627c4f58a97,dgm_agr_mentioner_entities__6a4de7014d68761bdff92627c4f58a97
cbsifferath,Agriculture analyst,washington dc,commodity match;ag commodity;company;country;stateprovince;imports;exports;drought;severe weather;soil;biofuel;pest;region;frost;agricultureminister;agricultureministry,agriculture analyst,Washington DC,38.9071923,-77.0368707,,"38.9071923, -77.0368707",AgricultureAnalyst,Agriculture analyst,,dgm_agr_mentioner_entities,6a4de7014d68761bdff92627c4f58a97,dgm_agr_mentioner_entities__6a4de7014d68761bdff92627c4f58a97
agrivisor,Agriculture analyst,"bloomington, il",commodity match;ag commodity;company;country;stateprovince;imports;exports;drought;severe weather;soil;biofuel;pest;region;frost;agricultureminister;agricultureministry,agriculture analyst,"Bloomington, IL",40.4842027,-88.9936873,,"40.4842027, -88.9936873",AgricultureAnalyst,Agriculture analyst,,dgm_agr_mentioner_entities,6a4de7014d68761bdff92627c4f58a97,dgm_agr_mentioner_entities__6a4de7014d68761bdff92627c4f58a97
basis_bias,Agriculture analyst,"austin, tx",commodity match;ag commodity;company;country;stateprovince;imports;exports;drought;severe weather;soil;biofuel;pest;region;frost;agricultureminister;agricultureministry,agriculture analyst,"Austin, TX",30.267153,-97.7430608,,"30.267153, -97.7430608",AgricultureAnalyst,Agriculture analyst,,dgm_agr_mentioner_entities,6a4de7014d68761bdff92627c4f58a97,dgm_agr_mentioner_entities__6a4de7014d68761bdff92627c4f58a97
tinno4ka86,Agriculture analyst,washington dc,commodity match;ag commodity;company;country;stateprovince;imports;exports;drought;severe weather;soil;biofuel;pest;region;frost;agricultureminister;agricultureministry,agriculture analyst,Washington DC,38.9071923,-77.0368707,,"38.9071923, -77.0368707",AgricultureAnalyst,Agriculture analyst,,dgm_agr_mentioner_entities,6a4de7014d68761bdff92627c4f58a97,dgm_agr_mentioner_entities__6a4de7014d68761bdff92627c4f58a97
gavilon_,Agriculture analyst,"omaha, ne",commodity match;ag commodity;company;country;stateprovince;imports;exports;drought;severe weather;soil;biofuel;pest;region;frost;agricultureminister;agricultureministry,agriculture analyst,"Omaha, NE",41.2565369,-95.9345034,,"41.2565369, -95.9345034",AgricultureAnalyst,Agriculture analyst,,dgm_agr_mentioner_entities,6a4de7014d68761bdff92627c4f58a97,dgm_agr_mentioner_entities__6a4de7014d68761bdff92627c4f58a97
thomsonrios,Agriculture analyst,"brasilia, brazil",commodity match;ag commodity;company;country;stateprovince;imports;exports;drought;severe weather;soil;biofuel;pest;region;frost;agricultureminister;agricultureministry,agriculture analyst,"Brasilia, Brazil",-15.7975174,-47.8918881,,"-15.7975174, -47.8918881",AgricultureAnalyst,Agriculture analyst,,dgm_agr_mentioner_entities,6a4de7014d68761bdff92627c4f58a97,dgm_agr_mentioner_entities__6a4de7014d68761bdff92627c4f58a97
1tvnewsaf,Afghan news outlet 1TV,afghanistan,agriculture minister;agriculture ministry,hnmn,Afghanistan,33.93911,67.709953,,,Hnmn,Afghan news outlet 1TV,,dgm_agr_mentioner_entities,5cd9d1dd9873f43d6a9737a29b581570,dgm_agr_mentioner_entities__5cd9d1dd9873f43d6a9737a29b581570
ariananews_,Afghan news outlet Ariana News,afghanistan,agriculture minister;agriculture ministry,hnmn,Afghanistan,33.93911,67.709953,,,Hnmn,Afghan news outlet Ariana News,,dgm_agr_mentioner_entities,a3f4dcce9cd57c452d1fedc4b41eac26,dgm_agr_mentioner_entities__a3f4dcce9cd57c452d1fedc4b41eac26
pajhwok,Afghan news outlet Pajhwok Afghan News,afghanistan,agriculture minister;agriculture ministry,hnmn,Afghanistan,33.93911,67.709953,,,Hnmn,Afghan news outlet Pajhwok Afghan News,,dgm_agr_mentioner_entities,2f7725581a6210badd1e4ddade147dd4,dgm_agr_mentioner_entities__2f7725581a6210badd1e4ddade147dd4
shamshadnetwork,Afghan news outlet Shamshad Radio & Television Network,afghanistan,agriculture minister;agriculture ministry,hnmn,Afghanistan,33.93911,67.709953,,,Hnmn,Afghan news outlet Shamshad Radio & Television Network,,dgm_agr_mentioner_entities,852f6497fbe4d313d99c43c73f1a8ccf,dgm_agr_mentioner_entities__852f6497fbe4d313d99c43c73f1a8ccf
tolonews,Afghan news outlet TOLOnews,afghanistan,agriculture minister;agriculture ministry,hnmn,Afghanistan,33.93911,67.709953,,,Hnmn,Afghan news outlet TOLOnews,,dgm_agr_mentioner_entities,592978ef3a3e0f2d6d5ad41ec52a11cc,dgm_agr_mentioner_entities__592978ef3a3e0f2d6d5ad41ec52a11cc
balkanwebcom,Albanian news outlet BalkanWeb,albania,agriculture minister;agriculture ministry,hnmn,Albania,41.153332,20.168331,,,Hnmn,Albanian news outlet BalkanWeb,,dgm_agr_mentioner_entities,afb00bb0c807c88555ee490be640fa84,dgm_agr_mentioner_entities__afb00bb0c807c88555ee490be640fa84
gazetaexpress,Albanian news outlet Gazeta Express,albania,agriculture minister;agriculture ministry,hnmn,Albania,41.153332,20.168331,,,Hnmn,Albanian news outlet Gazeta Express,,dgm_agr_mentioner_entities,b059be5386c4652a1d872e2861dc51f6,dgm_agr_mentioner_entities__b059be5386c4652a1d872e2861dc51f6
gazeta_panorama,Albanian news outlet Gazeta Panorama,albania,agriculture minister;agriculture ministry,hnmn,Albania,41.153332,20.168331,,,Hnmn,Albanian news outlet Gazeta Panorama,,dgm_agr_mentioner_entities,476051b57319e128edd15b41ce13e290,dgm_agr_mentioner_entities__476051b57319e128edd15b41ce13e290
shqiptaregazeta,Albanian news outlet Gazeta Shqiptare,albania,agriculture minister;agriculture ministry,hnmn,Albania,41.153332,20.168331,,,Hnmn,Albanian news outlet Gazeta Shqiptare,,dgm_agr_mentioner_entities,4a2839788bcf029c1f5e60dfe3990b71,dgm_agr_mentioner_entities__4a2839788bcf029c1f5e60dfe3990b71
oranewsrtv,Albanian news outlet Ora News,albania,agriculture minister;agriculture ministry,hnmn,Albania,41.153332,20.168331,,,Hnmn,Albanian news outlet Ora News,,dgm_agr_mentioner_entities,3b4820b43b225fb65f7c21ae21c79912,dgm_agr_mentioner_entities__3b4820b43b225fb65f7c21ae21c79912
elkhabarlive,Algerian news outlet El Khabar,algeria,agriculture minister;agriculture ministry,hnmn,Algeria,28.033886,1.659626,,,Hnmn,Algerian news outlet El Khabar,,dgm_agr_mentioner_entities,e79eb6c8da40dfed4e374423a594744d,dgm_agr_mentioner_entities__e79eb6c8da40dfed4e374423a594744d
ennaharonline,Algerian news outlet Ennahar TV,algeria,agriculture minister;agriculture ministry,hnmn,Algeria,28.033886,1.659626,,,Hnmn,Algerian news outlet Ennahar TV,,dgm_agr_mentioner_entities,a2fde55b6d6042912bbf9ebc93ba66cb,dgm_agr_mentioner_entities__a2fde55b6d6042912bbf9ebc93ba66cb
radioalgerie_ar,Algerian news outlet Radio Algeria,algeria,agriculture minister;agriculture ministry,hnmn,Algeria,28.033886,1.659626,,,Hnmn,Algerian news outlet Radio Algeria,,dgm_agr_mentioner_entities,38566b5fc4bfcd54c5ad09ba61bf3877,dgm_agr_mentioner_entities__38566b5fc4bfcd54c5ad09ba61bf3877
sabqpressalg,Algerian news outlet Sabq News,algeria,agriculture minister;agriculture ministry,hnmn,Algeria,28.033886,1.659626,,,Hnmn,Algerian news outlet Sabq News,,dgm_agr_mentioner_entities,6d6e4dd8aaa14dcad1c4de40d155db15,dgm_agr_mentioner_entities__6d6e4dd8aaa14dcad1c4de40d155db15
altaveuandorra,Andorran news outlet Altaveu,andorra,agriculture minister;agriculture ministry,hnmn,Andorra,42.506285,1.521801,,,Hnmn,Andorran news outlet Altaveu,,dgm_agr_mentioner_entities,532c5e45bd6db2c44787356f882eec07,dgm_agr_mentioner_entities__532c5e45bd6db2c44787356f882eec07
bondia,Andorran news outlet BonDia,andorra,agriculture minister;agriculture ministry,hnmn,Andorra,42.506285,1.521801,,,Hnmn,Andorran news outlet BonDia,,dgm_agr_mentioner_entities,0366a82c695f5f247f87a1266af94c2c,dgm_agr_mentioner_entities__0366a82c695f5f247f87a1266af94c2c
diariandorra,Andorran news outlet Diari d'Andorra,andorra,agriculture minister;agriculture ministry,hnmn,Andorra,42.506285,1.521801,,,Hnmn,Andorran news outlet Diari d'Andorra,,dgm_agr_mentioner_entities,a30af44e2e02cc84825ea3423a903427,dgm_agr_mentioner_entities__a30af44e2e02cc84825ea3423a903427
periodicand,Andorran news outlet Periodic d'Andorra,andorra,agriculture minister;agriculture ministry,hnmn,Andorra,42.506285,1.521801,,,Hnmn,Andorran news outlet Periodic d'Andorra,,dgm_agr_mentioner_entities,4503500f8f31ba50c80db6a3e88695b7,dgm_agr_mentioner_entities__4503500f8f31ba50c80db6a3e88695b7
portalangop,Angolan news outlet Agencia Angola Press,angola,agriculture minister;agriculture ministry,hnmn,Angola,-11.202692,17.873887,,,Hnmn,Angolan news outlet Agencia Angola Press,,dgm_agr_mentioner_entities,a0f15241f242215843c835af964cb5dc,dgm_agr_mentioner_entities__a0f15241f242215843c835af964cb5dc
jornaldeangola,Angolan news outlet Jornal de Angola,angola,agriculture minister;agriculture ministry,hnmn,Angola,-11.202692,17.873887,,,Hnmn,Angolan news outlet Jornal de Angola,,dgm_agr_mentioner_entities,16c7a20654df2eddb6ce6d2372f73317,dgm_agr_mentioner_entities__16c7a20654df2eddb6ce6d2372f73317
tpangola,Angolan news outlet Televisao Popular de Angola,angola,agriculture minister;agriculture ministry,hnmn,Angola,-11.202692,17.873887,,,Hnmn,Angolan news outlet Televisao Popular de Angola,,dgm_agr_mentioner_entities,35df6445eb72e944a3cf163ada845443,dgm_agr_mentioner_entities__35df6445eb72e944a3cf163ada845443
abstvradio,Antiguan news outlet ABS Television and Radio,antigua and barbuda,agriculture minister;agriculture ministry,hnmn,Antigua and Barbuda,17.060816,-61.796428,,,Hnmn,Antiguan news outlet ABS Television and Radio,,dgm_agr_mentioner_entities,1964201fdeedd41dfa644f1540ca22f4,dgm_agr_mentioner_entities__1964201fdeedd41dfa644f1540ca22f4
antiguaomg,Antiguan news outlet The Daily Observer,antigua and barbuda,agriculture minister;agriculture ministry,hnmn,Antigua and Barbuda,17.060816,-61.796428,,,Hnmn,Antiguan news outlet The Daily Observer,,dgm_agr_mentioner_entities,bb27156056289eca4a84b423f039d6f0,dgm_agr_mentioner_entities__bb27156056289eca4a84b423f039d6f0
c5n,Argentinian news outlet Canal 5 Noticias,argentina,agriculture minister;agriculture ministry,hnmn,Argentina,-38.416097,-63.616672,,,Hnmn,Argentinian news outlet Canal 5 Noticias,,dgm_agr_mentioner_entities,c281ef91cb73c3568489f8fee2337caf,dgm_agr_mentioner_entities__c281ef91cb73c3568489f8fee2337caf
clarincom,Argentinian news outlet Clarin,argentina,agriculture minister;agriculture ministry,hnmn,Argentina,-38.416097,-63.616672,,,Hnmn,Argentinian news outlet Clarin,,dgm_agr_mentioner_entities,6f56d9e72824f589fbeb096e42c3ea3c,dgm_agr_mentioner_entities__6f56d9e72824f589fbeb096e42c3ea3c
infobae,Argentinian news outlet Infobae,argentina,agriculture minister;agriculture ministry,hnmn,Argentina,-38.416097,-63.616672,,,Hnmn,Argentinian news outlet Infobae,,dgm_agr_mentioner_entities,5d6f5212ed09e6ebd7986bcfa84e4f69,dgm_agr_mentioner_entities__5d6f5212ed09e6ebd7986bcfa84e4f69
lanacion,Argentinian news outlet La Nacion,argentina,agriculture minister;agriculture ministry,hnmn,Argentina,-38.416097,-63.616672,,,Hnmn,Argentinian news outlet La Nacion,,dgm_agr_mentioner_entities,efd9cee86c4df9a2c6ce44814e87652f,dgm_agr_mentioner_entities__efd9cee86c4df9a2c6ce44814e87652f
pagina12,Argentinian news outlet Pagina 12,argentina,agriculture minister;agriculture ministry,hnmn,Argentina,-38.416097,-63.616672,,,Hnmn,Argentinian news outlet Pagina 12,,dgm_agr_mentioner_entities,73f0b5de8431a572d3cdf09938a8954e,dgm_agr_mentioner_entities__73f0b5de8431a572d3cdf09938a8954e
a1plusnews,Armenian news outlet A1plus,armenia,agriculture minister;agriculture ministry,hnmn,Armenia,40.069099,45.038189,,,Hnmn,Armenian news outlet A1plus,,dgm_agr_mentioner_entities,449f6516a7ddab9e6333b69a2b56226a,dgm_agr_mentioner_entities__449f6516a7ddab9e6333b69a2b56226a
aravotdaily,Armenian news outlet Aravot Daily,armenia,agriculture minister;agriculture ministry,hnmn,Armenia,40.069099,45.038189,,,Hnmn,Armenian news outlet Aravot Daily,,dgm_agr_mentioner_entities,ffd81ccd2bca184eddd32c195df81555,dgm_agr_mentioner_entities__ffd81ccd2bca184eddd32c195df81555
armnews,Armenian news outlet Novosti-Armenia,armenia,agriculture minister;agriculture ministry,hnmn,Armenia,40.069099,45.038189,,,Hnmn,Armenian news outlet Novosti-Armenia,,dgm_agr_mentioner_entities,569e319bc43c0d427c2b3184fc1d2fc6,dgm_agr_mentioner_entities__569e319bc43c0d427c2b3184fc1d2fc6
tertam_arm,Armenian news outlet Tert.am,armenia,agriculture minister;agriculture ministry,hnmn,Armenia,40.069099,45.038189,,,Hnmn,Armenian news outlet Tert.am,,dgm_agr_mentioner_entities,8c1237ee4eee7860dc5674ebd5db4ead,dgm_agr_mentioner_entities__8c1237ee4eee7860dc5674ebd5db4ead
awemainta,Aruban news outlet AWEMainta,aruba,agriculture minister;agriculture ministry,hnmn,Aruba,12.52111,-69.968338,,,Hnmn,Aruban news outlet AWEMainta,,dgm_agr_mentioner_entities,62a46fb8cfbbc5272ff0f5965bdad1c7,dgm_agr_mentioner_entities__62a46fb8cfbbc5272ff0f5965bdad1c7
bondiaaruba,Aruban news outlet Bon Dia Aruba,aruba,agriculture minister;agriculture ministry,hnmn,Aruba,12.52111,-69.968338,,,Hnmn,Aruban news outlet Bon Dia Aruba,,dgm_agr_mentioner_entities,4a09d42397ea7f13d68cd1593e6f4eb1,dgm_agr_mentioner_entities__4a09d42397ea7f13d68cd1593e6f4eb1
diarioaruba,Aruban news outlet Diario Aruba,aruba,agriculture minister;agriculture ministry,hnmn,Aruba,12.52111,-69.968338,,,Hnmn,Aruban news outlet Diario Aruba,,dgm_agr_mentioner_entities,9ff2b8d93ae2452021daa09d27a9d7bd,dgm_agr_mentioner_entities__9ff2b8d93ae2452021daa09d27a9d7bd
masnoticia,Aruban news outlet MasNoticia,aruba,agriculture minister;agriculture ministry,hnmn,Aruba,12.52111,-69.968338,,,Hnmn,Aruban news outlet MasNoticia,,dgm_agr_mentioner_entities,e18800a4545c5c0905a7844bd1dada00,dgm_agr_mentioner_entities__e18800a4545c5c0905a7844bd1dada00
noticiacla,Aruban news outlet Noticia Cla,aruba,agriculture minister;agriculture ministry,hnmn,Aruba,12.52111,-69.968338,,,Hnmn,Aruban news outlet Noticia Cla,,dgm_agr_mentioner_entities,dd2a49108100a013158adee2d66cb5a4,dgm_agr_mentioner_entities__dd2a49108100a013158adee2d66cb5a4
9newsaus,Australian news outlet 9News Australia,australia,agriculture minister;agriculture ministry,hnmn,Australia,-25.274398,133.775136,,,Hnmn,Australian news outlet 9News Australia,,dgm_agr_mentioner_entities,7c1f70c3c5e26956d253ffac2713e6d3,dgm_agr_mentioner_entities__7c1f70c3c5e26956d253ffac2713e6d3
abcaustralia,Australian news outlet ABC News Australia,australia,agriculture minister;agriculture ministry,hnmn,Australia,-25.274398,133.775136,,,Hnmn,Australian news outlet ABC News Australia,,dgm_agr_mentioner_entities,eca57993e630c03dfa6ffa41a0c3e5b9,dgm_agr_mentioner_entities__eca57993e630c03dfa6ffa41a0c3e5b9
australian,Australian news outlet The Australian,australia,agriculture minister;agriculture ministry,hnmn,Australia,-25.274398,133.775136,,,Hnmn,Australian news outlet The Australian,,dgm_agr_mentioner_entities,4dd8f8e9ca687ecca9c8f23d23ccfedf,dgm_agr_mentioner_entities__4dd8f8e9ca687ecca9c8f23d23ccfedf
dailytelegraph,Australian news outlet The Daily Telegraph,australia,agriculture minister;agriculture ministry,hnmn,Australia,-25.274398,133.775136,,,Hnmn,Australian news outlet The Daily Telegraph,,dgm_agr_mentioner_entities,396d4f4928f1a6a4f3933c5896ee1669,dgm_agr_mentioner_entities__396d4f4928f1a6a4f3933c5896ee1669
smh,Australian news outlet The Sydney Morning Herald,australia,agriculture minister;agriculture ministry,hnmn,Australia,-25.274398,133.775136,,,Hnmn,Australian news outlet The Sydney Morning Herald,,dgm_agr_mentioner_entities,e3f2877326841587ec13df6c42398a38,dgm_agr_mentioner_entities__e3f2877326841587ec13df6c42398a38
derstandardat,Austrian news outlet Der Standard,austria,agriculture minister;agriculture ministry,hnmn,Austria,47.516231,14.550072,,,Hnmn,Austrian news outlet Der Standard,,dgm_agr_mentioner_entities,71f7e9cb0e94e0ee609b4a31b1398086,dgm_agr_mentioner_entities__71f7e9cb0e94e0ee609b4a31b1398086
diepressecom,Austrian news outlet Die Presse,austria,agriculture minister;agriculture ministry,hnmn,Austria,47.516231,14.550072,,,Hnmn,Austrian news outlet Die Presse,,dgm_agr_mentioner_entities,a8064d947c423d3b164a8b029416b066,dgm_agr_mentioner_entities__a8064d947c423d3b164a8b029416b066
krone_at,Austrian news outlet Kronen Zeitung,austria,agriculture minister;agriculture ministry,hnmn,Austria,47.516231,14.550072,,,Hnmn,Austrian news outlet Kronen Zeitung,,dgm_agr_mentioner_entities,9bb37144dc86e0ee2da3d4bc5d33c736,dgm_agr_mentioner_entities__9bb37144dc86e0ee2da3d4bc5d33c736
kurierat,Austrian news outlet Kurier,austria,agriculture minister;agriculture ministry,hnmn,Austria,47.516231,14.550072,,,Hnmn,Austrian news outlet Kurier,,dgm_agr_mentioner_entities,da12280b64c58797900658b9b06bd834,dgm_agr_mentioner_entities__da12280b64c58797900658b9b06bd834
oe24at,Austrian news outlet Osterreich,austria,agriculture minister;agriculture ministry,hnmn,Austria,47.516231,14.550072,,,Hnmn,Austrian news outlet Osterreich,,dgm_agr_mentioner_entities,56a99c6e2878d40aac5cd69d898fed42,dgm_agr_mentioner_entities__56a99c6e2878d40aac5cd69d898fed42
oxuaz,Azeri news outlet Azerbaijan News,azerbaijan,agriculture minister;agriculture ministry,hnmn,Azerbaijan,40.143105,47.576927,,,Hnmn,Azeri news outlet Azerbaijan News,,dgm_agr_mentioner_entities,8b74299c6cf499e96b2989aa867c3d9e,dgm_agr_mentioner_entities__8b74299c6cf499e96b2989aa867c3d9e
azertac,Azeri news outlet AZERTAC News Agency,azerbaijan,agriculture minister;agriculture ministry,hnmn,Azerbaijan,40.143105,47.576927,,,Hnmn,Azeri news outlet AZERTAC News Agency,,dgm_agr_mentioner_entities,ba4dfadb792018ec1f3bb36923bb380f,dgm_agr_mentioner_entities__ba4dfadb792018ec1f3bb36923bb380f
bptaze,Azeri news outlet BPT Azerbaijan,azerbaijan,agriculture minister;agriculture ministry,hnmn,Azerbaijan,40.143105,47.576927,,,Hnmn,Azeri news outlet BPT Azerbaijan,,dgm_agr_mentioner_entities,723bc462d9a4e2d83b01d7506f7a3002,dgm_agr_mentioner_entities__723bc462d9a4e2d83b01d7506f7a3002
mikroskopmedia,Azeri news outlet Mikroskop Media,azerbaijan,agriculture minister;agriculture ministry,hnmn,Azerbaijan,40.143105,47.576927,,,Hnmn,Azeri news outlet Mikroskop Media,,dgm_agr_mentioner_entities,e873834482195b3e067c7d446b3cf68d,dgm_agr_mentioner_entities__e873834482195b3e067c7d446b3cf68d
bahamaspress,Bahamian news outlet Bahamas Press,bahamas,agriculture minister;agriculture ministry,hnmn,Bahamas,25.03428,-77.39628,,,Hnmn,Bahamian news outlet Bahamas Press,,dgm_agr_mentioner_entities,7efbcc17458f219c82d15ceca6c169c6,dgm_agr_mentioner_entities__7efbcc17458f219c82d15ceca6c169c6
ewnewsbahamas,Bahamian news outlet Eyewitness News Bahamas,bahamas,agriculture minister;agriculture ministry,hnmn,Bahamas,25.03428,-77.39628,,,Hnmn,Bahamian news outlet Eyewitness News Bahamas,,dgm_agr_mentioner_entities,07108e011d6df5938b5c160a64eacb17,dgm_agr_mentioner_entities__07108e011d6df5938b5c160a64eacb17
ournewsrev,Bahamian news outlet OURnews Bahamas,bahamas,agriculture minister;agriculture ministry,hnmn,Bahamas,25.03428,-77.39628,,,Hnmn,Bahamian news outlet OURnews Bahamas,,dgm_agr_mentioner_entities,986511f7f4cc16f569c00e273516e736,dgm_agr_mentioner_entities__986511f7f4cc16f569c00e273516e736
tribune242,Bahamian news outlet The Tribune,bahamas,agriculture minister;agriculture ministry,hnmn,Bahamas,25.03428,-77.39628,,,Hnmn,Bahamian news outlet The Tribune,,dgm_agr_mentioner_entities,63b9770d10ce026663a332af8a5e29d9,dgm_agr_mentioner_entities__63b9770d10ce026663a332af8a5e29d9
aak_news,Bahraini news outlet Akhbar Al Khaleej,bahrain,agriculture minister;agriculture ministry,hnmn,Bahrain,26.0667,50.5577,,,Hnmn,Bahraini news outlet Akhbar Al Khaleej,,dgm_agr_mentioner_entities,d3f8e30257d6e0e4a33f573c2bc34dca,dgm_agr_mentioner_entities__d3f8e30257d6e0e4a33f573c2bc34dca
alainbrk,Bahraini news outlet Al-Ain,bahrain,agriculture minister;agriculture ministry,hnmn,Bahrain,26.0667,50.5577,,,Hnmn,Bahraini news outlet Al-Ain,,dgm_agr_mentioner_entities,de9bd7ee927387fdc018836c1b1c890b,dgm_agr_mentioner_entities__de9bd7ee927387fdc018836c1b1c890b
alayam,Bahraini news outlet Al-Ayam,bahrain,agriculture minister;agriculture ministry,hnmn,Bahrain,26.0667,50.5577,,,Hnmn,Bahraini news outlet Al-Ayam,,dgm_agr_mentioner_entities,6a33ec66ccc108531c015c4298fcea1c,dgm_agr_mentioner_entities__6a33ec66ccc108531c015c4298fcea1c
alwatan_live,Bahraini news outlet Al-Watan,bahrain,agriculture minister;agriculture ministry,hnmn,Bahrain,26.0667,50.5577,,,Hnmn,Bahraini news outlet Al-Watan,,dgm_agr_mentioner_entities,8aec8175fab4107ece186898c8f560d5,dgm_agr_mentioner_entities__8aec8175fab4107ece186898c8f560d5
bah_news,Bahraini news outlet Bahnews,bahrain,agriculture minister;agriculture ministry,hnmn,Bahrain,26.0667,50.5577,,,Hnmn,Bahraini news outlet Bahnews,,dgm_agr_mentioner_entities,33e3c32badf56c69b1240a96981db2f1,dgm_agr_mentioner_entities__33e3c32badf56c69b1240a96981db2f1
bdnews24com,Bangladeshi news outlet bdnews24,bangladesh,agriculture minister;agriculture ministry,hnmn,Bangladesh,23.684994,90.356331,,,Hnmn,Bangladeshi news outlet bdnews24,,dgm_agr_mentioner_entities,86a28fa194614555cb74a1d847afae60,dgm_agr_mentioner_entities__86a28fa194614555cb74a1d847afae60
dhakatribune,Bangladeshi news outlet Dhaka Tribune,bangladesh,agriculture minister;agriculture ministry,hnmn,Bangladesh,23.684994,90.356331,,,Hnmn,Bangladeshi news outlet Dhaka Tribune,,dgm_agr_mentioner_entities,1db041f59edaf83b49a7ed0332e72076,dgm_agr_mentioner_entities__1db041f59edaf83b49a7ed0332e72076
independent24tv,Bangladeshi news outlet Independent Television,bangladesh,agriculture minister;agriculture ministry,hnmn,Bangladesh,23.684994,90.356331,,,Hnmn,Bangladeshi news outlet Independent Television,,dgm_agr_mentioner_entities,aaabda728ed4d7269899f0d577495cb6,dgm_agr_mentioner_entities__aaabda728ed4d7269899f0d577495cb6
newagebdcom,Bangladeshi news outlet New Age,bangladesh,agriculture minister;agriculture ministry,hnmn,Bangladesh,23.684994,90.356331,,,Hnmn,Bangladeshi news outlet New Age,,dgm_agr_mentioner_entities,9e87ba8fe723c10e147b063a988043a9,dgm_agr_mentioner_entities__9e87ba8fe723c10e147b063a988043a9
dailystarnews,Bangladeshi news outlet The Daily Star,bangladesh,agriculture minister;agriculture ministry,hnmn,Bangladesh,23.684994,90.356331,,,Hnmn,Bangladeshi news outlet The Daily Star,,dgm_agr_mentioner_entities,fda199e95f090c3a189628cc49eb3f96,dgm_agr_mentioner_entities__fda199e95f090c3a189628cc49eb3f96
barbadostoday,Barbadian news outlet Barbados Today,barbados,agriculture minister;agriculture ministry,hnmn,Barbados,13.193887,-59.543198,,,Hnmn,Barbadian news outlet Barbados Today,,dgm_agr_mentioner_entities,3afc4e89c88de32e169c94e61f82a1d4,dgm_agr_mentioner_entities__3afc4e89c88de32e169c94e61f82a1d4
cbcbarbados,Barbadian news outlet Caribbean Broadcasting Corporation Barbados,barbados,agriculture minister;agriculture ministry,hnmn,Barbados,13.193887,-59.543198,,,Hnmn,Barbadian news outlet Caribbean Broadcasting Corporation Barbados,,dgm_agr_mentioner_entities,419b41fe7fedfbde0ce66d8504545cc8,dgm_agr_mentioner_entities__419b41fe7fedfbde0ce66d8504545cc8
kevzpolitics,Barbadian news outlet Kevz Politics,barbados,agriculture minister;agriculture ministry,hnmn,Barbados,13.193887,-59.543198,,,Hnmn,Barbadian news outlet Kevz Politics,,dgm_agr_mentioner_entities,768425be09bfb00f88793d9d763fab62,dgm_agr_mentioner_entities__768425be09bfb00f88793d9d763fab62
nationbarbados,Barbadian news outlet The Nation Barbados,barbados,agriculture minister;agriculture ministry,hnmn,Barbados,13.193887,-59.543198,,,Hnmn,Barbadian news outlet The Nation Barbados,,dgm_agr_mentioner_entities,6bcff4e80fa3a2739379024b7bebd52f,dgm_agr_mentioner_entities__6bcff4e80fa3a2739379024b7bebd52f
belsat_tv,Belarusian news outlet Belsat TV,belarus,agriculture minister;agriculture ministry,hnmn,Belarus,53.709807,27.953389,,,Hnmn,Belarusian news outlet Belsat TV,,dgm_agr_mentioner_entities,ce07a1e4f3bcd3b11c0a1202b87711e5,dgm_agr_mentioner_entities__ce07a1e4f3bcd3b11c0a1202b87711e5
belteanews,Belarusian news outlet Beltea News,belarus,agriculture minister;agriculture ministry,hnmn,Belarus,53.709807,27.953389,,,Hnmn,Belarusian news outlet Beltea News,,dgm_agr_mentioner_entities,b387700ca1731b70261af9cf4fb57a96,dgm_agr_mentioner_entities__b387700ca1731b70261af9cf4fb57a96
by_interfax,Belarusian news outlet Interfax West,belarus,agriculture minister;agriculture ministry,hnmn,Belarus,53.709807,27.953389,,,Hnmn,Belarusian news outlet Interfax West,,dgm_agr_mentioner_entities,693a28d0ce5a72b6be046ef4202c2217,dgm_agr_mentioner_entities__693a28d0ce5a72b6be046ef4202c2217
tutby,Belarusian news outlet TUT.BY news,belarus,agriculture minister;agriculture ministry,hnmn,Belarus,53.709807,27.953389,,,Hnmn,Belarusian news outlet TUT.BY news,,dgm_agr_mentioner_entities,a8553f2a317c0ec31865407914d67d30,dgm_agr_mentioner_entities__a8553f2a317c0ec31865407914d67d30
destandaard,Belgian news outlet De Standaard,belgium,agriculture minister;agriculture ministry,hnmn,Belgium,50.503887,4.469936,,,Hnmn,Belgian news outlet De Standaard,,dgm_agr_mentioner_entities,94f96f587042557d0fafb454df79e0c1,dgm_agr_mentioner_entities__94f96f587042557d0fafb454df79e0c1
nieuwsblad_be,Belgian news outlet Het Nieuwsblad,belgium,agriculture minister;agriculture ministry,hnmn,Belgium,50.503887,4.469936,,,Hnmn,Belgian news outlet Het Nieuwsblad,,dgm_agr_mentioner_entities,7f5733009297578dd1b11ce2fef721ce,dgm_agr_mentioner_entities__7f5733009297578dd1b11ce2fef721ce
hln_be,Belgian news outlet HLN,belgium,agriculture minister;agriculture ministry,hnmn,Belgium,50.503887,4.469936,,,Hnmn,Belgian news outlet HLN,,dgm_agr_mentioner_entities,dcfae9d2d40deb4865da762acef4df03,dgm_agr_mentioner_entities__dcfae9d2d40deb4865da762acef4df03
lesoir,Belgian news outlet Le Soir,belgium,agriculture minister;agriculture ministry,hnmn,Belgium,50.503887,4.469936,,,Hnmn,Belgian news outlet Le Soir,,dgm_agr_mentioner_entities,93793d02560a51961c250721e2c1fc13,dgm_agr_mentioner_entities__93793d02560a51961c250721e2c1fc13
vrtnws,Belgian news outlet VRT NWS,belgium,agriculture minister;agriculture ministry,hnmn,Belgium,50.503887,4.469936,,,Hnmn,Belgian news outlet VRT NWS,,dgm_agr_mentioner_entities,f8f9126ae645a1b41227a21765cc8c8a,dgm_agr_mentioner_entities__f8f9126ae645a1b41227a21765cc8c8a
belizemedia,Belizean news outlet Breaking Belize News,belize,agriculture minister;agriculture ministry,hnmn,Belize,17.189877,-88.49765,,,Hnmn,Belizean news outlet Breaking Belize News,,dgm_agr_mentioner_entities,e07ce9c7947f7eac827c1da9b9d30b71,dgm_agr_mentioner_entities__e07ce9c7947f7eac827c1da9b9d30b71
lovefmbz,Belizean news outlet Love FM Belize,belize,agriculture minister;agriculture ministry,hnmn,Belize,17.189877,-88.49765,,,Hnmn,Belizean news outlet Love FM Belize,,dgm_agr_mentioner_entities,7b7cbf0fd39772320d8656761f270a68,dgm_agr_mentioner_entities__7b7cbf0fd39772320d8656761f270a68
24haubenin,Beninois news outlet 24 Heures au Benin,benin,agriculture minister;agriculture ministry,hnmn,Benin,9.30769,2.315834,,,Hnmn,Beninois news outlet 24 Heures au Benin,,dgm_agr_mentioner_entities,a134f4ab11736a0d7797390bdd2e4789,dgm_agr_mentioner_entities__a134f4ab11736a0d7797390bdd2e4789
abpbj,Beninois news outlet Agence B챕nin-Presse,benin,agriculture minister;agriculture ministry,hnmn,Benin,9.30769,2.315834,,,Hnmn,Beninois news outlet Agence B챕nin-Presse,,dgm_agr_mentioner_entities,bc041f7b9bcfb0d15438a210e902d089,dgm_agr_mentioner_entities__bc041f7b9bcfb0d15438a210e902d089
beninwebtv,Beninois news outlet Benin Web Tv,benin,agriculture minister;agriculture ministry,hnmn,Benin,9.30769,2.315834,,,Hnmn,Beninois news outlet Benin Web Tv,,dgm_agr_mentioner_entities,095d60298228ff067831b3318bca65d8,dgm_agr_mentioner_entities__095d60298228ff067831b3318bca65d8
lntribune,Beninois news outlet La Nouvelle Tribune,benin,agriculture minister;agriculture ministry,hnmn,Benin,9.30769,2.315834,,,Hnmn,Beninois news outlet La Nouvelle Tribune,,dgm_agr_mentioner_entities,4a8201fb0a12e05ff509b2c445526889,dgm_agr_mentioner_entities__4a8201fb0a12e05ff509b2c445526889
ortb_info,Beninois news outlet Office de Radiodiffusion et T챕l챕vision du B챕nin,benin,agriculture minister;agriculture ministry,hnmn,Benin,9.30769,2.315834,,,Hnmn,Beninois news outlet Office de Radiodiffusion et T챕l챕vision du B챕nin,,dgm_agr_mentioner_entities,df69cbb1cd568c37cd83af48c49c8675,dgm_agr_mentioner_entities__df69cbb1cd568c37cd83af48c49c8675
bernewsdotcom,Bermudan news outlet Bernews,bermuda,agriculture minister;agriculture ministry,hnmn,Bermuda,32.3078,-64.7505,,,Hnmn,Bermudan news outlet Bernews,,dgm_agr_mentioner_entities,f3498b32612c56c86e8761e993a187d7,dgm_agr_mentioner_entities__f3498b32612c56c86e8761e993a187d7
zbmnews9,Bermudan news outlet The Bermuda Broadcasting Company,bermuda,agriculture minister;agriculture ministry,hnmn,Bermuda,32.3078,-64.7505,,,Hnmn,Bermudan news outlet The Bermuda Broadcasting Company,,dgm_agr_mentioner_entities,12f23b4b539b0cf7bf005573b67f1521,dgm_agr_mentioner_entities__12f23b4b539b0cf7bf005573b67f1521
