german_text,caption_text,lat,lon,ranking,default location,default_lat,default_lon,ENTITY_LABEL,name,description,source,source_identifier,global_identifier
windberg,"Windberg in Monchengladbach, Germany",51.2104644,6.4201162,2,"Monchengladbach, Germany",51.17935007,6.441964147,IndustryTerm,"Windberg in Monchengladbach, Germany",,german_fires_monchengladbach_locations,cade3a54ca63e3efd5f322af8f583e41,german_fires_monchengladbach_locations__cade3a54ca63e3efd5f322af8f583e41
eicken,"Eicken in Monchengladbach, Germany",51.2090336,6.4461041,2,,,,FTO,"Eicken in Monchengladbach, Germany",,german_fires_monchengladbach_locations,1933eb7f63a36654b5419a9474f4fd44,german_fires_monchengladbach_locations__1933eb7f63a36654b5419a9474f4fd44
am wasserturm,"Am Wasserturm in Monchengladbach, Germany",51.2009403,6.4261424,2,,,,LegislativeCommittee,"Am Wasserturm in Monchengladbach, Germany",,german_fires_monchengladbach_locations,13f9bf06b678daa09f552d682922251e,german_fires_monchengladbach_locations__13f9bf06b678daa09f552d682922251e
gladbach,"Gladbach in Monchengladbach, Germany",51.1938316,6.4360109,2,,,,Organization,"Gladbach in Monchengladbach, Germany",,german_fires_monchengladbach_locations,61fee23a5d7f4a57e7591cb9a00c99e1,german_fires_monchengladbach_locations__61fee23a5d7f4a57e7591cb9a00c99e1
waldhausen,"Waldhausen in Monchengladbach, Germany",51.1938738,6.411364,2,,,,CompanyKeyword,"Waldhausen in Monchengladbach, Germany",,german_fires_monchengladbach_locations,62b34a553f6fdab37ebc93a513e8d432,german_fires_monchengladbach_locations__62b34a553f6fdab37ebc93a513e8d432
westend,"Westend in Monchengladbach, Germany",51.1877959,6.4263986,2,,,,Refinery,"Westend in Monchengladbach, Germany",,german_fires_monchengladbach_locations,178e10074a0dac669756fa8ec683e0c9,german_fires_monchengladbach_locations__178e10074a0dac669756fa8ec683e0c9
dahl,"Dahl in Monchengladbach, Germany",51.1818956,6.4381851,2,,,,Legislator,"Dahl in Monchengladbach, Germany",,german_fires_monchengladbach_locations,7f5ac95bc61c701c0221932c1e26d286,german_fires_monchengladbach_locations__7f5ac95bc61c701c0221932c1e26d286
ohler,"Ohler in Monchengladbach, Germany",51.1776035,6.4207627,2,,,,AAEntity,"Ohler in Monchengladbach, Germany",,german_fires_monchengladbach_locations,e9347645f8791a1ce80e5fbe5b596ed1,german_fires_monchengladbach_locations__e9347645f8791a1ce80e5fbe5b596ed1
hardt-mitte,"Hardt-Mitte in Monchengladbach, Germany",51.2112429,6.3578374,2,,,,ForeignMinistry,"Hardt-Mitte in Monchengladbach, Germany",,german_fires_monchengladbach_locations,05c852280e2d7e96bf150d4a76b95d69,german_fires_monchengladbach_locations__05c852280e2d7e96bf150d4a76b95d69
venn,"Venn in Monchengladbach, Germany",51.1987421,6.3944067,2,,,,LegislativeCommittee,"Venn in Monchengladbach, Germany",,german_fires_monchengladbach_locations,59629bfd171210c881a3e5017072f0ed,german_fires_monchengladbach_locations__59629bfd171210c881a3e5017072f0ed
hardter wald,"Hardter Wald in Monchengladbach, Germany",51.1918991,6.3271669,2,,,,DiplomaticFacilities,"Hardter Wald in Monchengladbach, Germany",,german_fires_monchengladbach_locations,b795c19a7b1a16bd280858de357a9c5b,german_fires_monchengladbach_locations__b795c19a7b1a16bd280858de357a9c5b
bettrath-hoven,"Bettrath-Hoven in Monchengladbach, Germany",51.222215,6.4512125,2,,,,Organization,"Bettrath-Hoven in Monchengladbach, Germany",,german_fires_monchengladbach_locations,2703d3a7cb71f9dcf3ceed136e605821,german_fires_monchengladbach_locations__2703d3a7cb71f9dcf3ceed136e605821
flughafen,"Flughafen in Monchengladbach, Germany",51.2310314,6.5009299,2,,,,Exec,"Flughafen in Monchengladbach, Germany",,german_fires_monchengladbach_locations,411001d9c11db3bf78b92576f07a42bf,german_fires_monchengladbach_locations__411001d9c11db3bf78b92576f07a42bf
neuwerk-mitte,"Neuwerk-Mitte in Monchengladbach, Germany",51.2231585,6.4757172,2,,,,Wells,"Neuwerk-Mitte in Monchengladbach, Germany",,german_fires_monchengladbach_locations,daf0aa130f26800ee17e6c9adc1b723b,german_fires_monchengladbach_locations__daf0aa130f26800ee17e6c9adc1b723b
uedding,"Uedding in Monchengladbach, Germany",51.212423,6.4798075,2,,,,Media,"Uedding in Monchengladbach, Germany",,german_fires_monchengladbach_locations,e8e03fa11b2f9e31604e016eda07d0c5,german_fires_monchengladbach_locations__e8e03fa11b2f9e31604e016eda07d0c5
lurrip,"Lurrip in Monchengladbach, Germany",51.2010233,6.4722194,2,,,,Legislator,"Lurrip in Monchengladbach, Germany",,german_fires_monchengladbach_locations,84bc005de1c0874c6b4071f442e732a3,german_fires_monchengladbach_locations__84bc005de1c0874c6b4071f442e732a3
hardterbroich-pesch,"Hardterbroich-Pesch in Monchengladbach, Germany",51.1927566,6.4554951,2,,,,Wells,"Hardterbroich-Pesch in Monchengladbach, Germany",,german_fires_monchengladbach_locations,d4c7b2a638b06d79f4dd08ba5ddaeb29,german_fires_monchengladbach_locations__d4c7b2a638b06d79f4dd08ba5ddaeb29
bungt,"Bungt in Monchengladbach, Germany",51.192038,6.4684874,2,,,,Exec,"Bungt in Monchengladbach, Germany",,german_fires_monchengladbach_locations,9ee76570c866ce0fd3ff0a9abf1d0bab,german_fires_monchengladbach_locations__9ee76570c866ce0fd3ff0a9abf1d0bab
giesenkirchen-nord,"Giesenkirchen-Nord in Monchengladbach, Germany",51.1691364,6.5026358,2,,,,Legislator,"Giesenkirchen-Nord in Monchengladbach, Germany",,german_fires_monchengladbach_locations,06ec793edf27d8637a5f8e8b61dad534,german_fires_monchengladbach_locations__06ec793edf27d8637a5f8e8b61dad534
schelsen,"Schelsen in Monchengladbach, Germany",51.1525029,6.5184859,2,,,,DiplomaticFacilities,"Schelsen in Monchengladbach, Germany",,german_fires_monchengladbach_locations,34f7725186f0bdeaa7892b11ff7c2639,german_fires_monchengladbach_locations__34f7725186f0bdeaa7892b11ff7c2639
giesenkirchen-mitte,"Giesenkirchen-Mitte in Monchengladbach, Germany",51.1543102,6.4860269,2,,,,Organization,"Giesenkirchen-Mitte in Monchengladbach, Germany",,german_fires_monchengladbach_locations,addb45d585f755031f045d17545c1857,german_fires_monchengladbach_locations__addb45d585f755031f045d17545c1857
schloss rheydt,"Schloss Rheydt in Monchengladbach, Germany",51.1821665,6.4814659,2,,,,FTO,"Schloss Rheydt in Monchengladbach, Germany",,german_fires_monchengladbach_locations,68c9cb0094fda165cdc3e401c4f9aed3,german_fires_monchengladbach_locations__68c9cb0094fda165cdc3e401c4f9aed3
bonnenbroich-geneicken,"Bonnenbroich-Geneicken in Monchengladbach, Germany",51.1764831,6.4648774,2,,,,IndustryTerm,"Bonnenbroich-Geneicken in Monchengladbach, Germany",,german_fires_monchengladbach_locations,8934c4b400c8b8bcf8cf37ff537be947,german_fires_monchengladbach_locations__8934c4b400c8b8bcf8cf37ff537be947
rheydt,"Rheydt in Monchengladbach, Germany",51.1686686,6.4469619,2,,,,ForeignMinistry,"Rheydt in Monchengladbach, Germany",,german_fires_monchengladbach_locations,13558be78cf930d4e46c4acba7851606,german_fires_monchengladbach_locations__13558be78cf930d4e46c4acba7851606
mulfort,"Mulfort in Monchengladbach, Germany",51.1553898,6.4665579,2,,,,Organization,"Mulfort in Monchengladbach, Germany",,german_fires_monchengladbach_locations,ca403f76d6a635b4bc5ecad1b876fd8c,german_fires_monchengladbach_locations__ca403f76d6a635b4bc5ecad1b876fd8c
heyden,"Heyden in Monchengladbach, Germany",51.1576721,6.4490153,2,,,,Pipeline,"Heyden in Monchengladbach, Germany",,german_fires_monchengladbach_locations,08e59701c9d870f50b623e5bf73b1ef3,german_fires_monchengladbach_locations__08e59701c9d870f50b623e5bf73b1ef3
geistenbeck,"Geistenbeck in Monchengladbach, Germany",51.1516408,6.4394091,2,,,,Shipping,"Geistenbeck in Monchengladbach, Germany",,german_fires_monchengladbach_locations,97097f2f90e076e5ce2b703420712151,german_fires_monchengladbach_locations__97097f2f90e076e5ce2b703420712151
pongs,"Pongs in Monchengladbach, Germany",51.1637913,6.4093718,2,,,,Keyphrase,"Pongs in Monchengladbach, Germany",,german_fires_monchengladbach_locations,467a7f595a30fa5a7d29568015985b0f,german_fires_monchengladbach_locations__467a7f595a30fa5a7d29568015985b0f
schrievers,"Schrievers in Monchengladbach, Germany",51.1692912,6.4287027,2,,,,ForeignMinister,"Schrievers in Monchengladbach, Germany",,german_fires_monchengladbach_locations,b4575a6f7770298c55d0863ab4e07710,german_fires_monchengladbach_locations__b4575a6f7770298c55d0863ab4e07710
grenzlandstadion,"Grenzlandstadion in Monchengladbach, Germany",51.1761737,6.4467236,2,,,,Person,"Grenzlandstadion in Monchengladbach, Germany",,german_fires_monchengladbach_locations,a4f5d6b5019e5ebf47aaf851cc3814d8,german_fires_monchengladbach_locations__a4f5d6b5019e5ebf47aaf851cc3814d8
schmolderpark,"Schmolderpark in Monchengladbach, Germany",51.1627219,6.4288299,2,,,,Exec,"Schmolderpark in Monchengladbach, Germany",,german_fires_monchengladbach_locations,f97a1f2b1aa9939b74416f9d42b0684c,german_fires_monchengladbach_locations__f97a1f2b1aa9939b74416f9d42b0684c
hockstein,"Hockstein in Monchengladbach, Germany",51.1527118,6.419955,2,,,,Diplomat,"Hockstein in Monchengladbach, Germany",,german_fires_monchengladbach_locations,a1055cdea7e498585557a02e75ffcd98,german_fires_monchengladbach_locations__a1055cdea7e498585557a02e75ffcd98
odenkirchen-west,"Odenkirchen-West in Monchengladbach, Germany",51.1360945,6.4358186,2,,,,CompanyKeyword,"Odenkirchen-West in Monchengladbach, Germany",,german_fires_monchengladbach_locations,5abee7861ae52cef65ee286d0b5ed83b,german_fires_monchengladbach_locations__5abee7861ae52cef65ee286d0b5ed83b
odenkirchen-mitte,"Odenkirchen-Mitte in Monchengladbach, Germany",51.1322513,6.4579086,2,,,,Legislator,"Odenkirchen-Mitte in Monchengladbach, Germany",,german_fires_monchengladbach_locations,3c79a17fcdde380dc40c3c29de953711,german_fires_monchengladbach_locations__3c79a17fcdde380dc40c3c29de953711
sasserath,"Sasserath in Monchengladbach, Germany",51.1216219,6.4619544,2,,,,Shipping,"Sasserath in Monchengladbach, Germany",,german_fires_monchengladbach_locations,c9350cd45cbb2fd95c0f3ee6f359af23,german_fires_monchengladbach_locations__c9350cd45cbb2fd95c0f3ee6f359af23
wickrath-mitte,"Wickrath-Mitte in Monchengladbach, Germany",51.1351071,6.4060597,2,,,,Consulates,"Wickrath-Mitte in Monchengladbach, Germany",,german_fires_monchengladbach_locations,662b2bfddcfbf54a12bc3efc15b0153c,german_fires_monchengladbach_locations__662b2bfddcfbf54a12bc3efc15b0153c
wickrath-west,"Wickrath-West in Monchengladbach, Germany",51.1157995,6.3754068,2,,,,Person,"Wickrath-West in Monchengladbach, Germany",,german_fires_monchengladbach_locations,9c7eff39c970352a7c2e361012d13737,german_fires_monchengladbach_locations__9c7eff39c970352a7c2e361012d13737
wickrathberg,"Wickrathberg in Monchengladbach, Germany",51.1109044,6.4168906,2,,,,Wells,"Wickrathberg in Monchengladbach, Germany",,german_fires_monchengladbach_locations,1096a2e27ae4241e1444303186eee30e,german_fires_monchengladbach_locations__1096a2e27ae4241e1444303186eee30e
wanlo,"Wanlo in Monchengladbach, Germany",51.0936652,6.396545,2,,,,News,"Wanlo in Monchengladbach, Germany",,german_fires_monchengladbach_locations,5474be1517de1c987ee93999c4c3fbdf,german_fires_monchengladbach_locations__5474be1517de1c987ee93999c4c3fbdf
hehn,"Hehn in Monchengladbach, Germany",51.1814755,6.374027,2,,,,Exec,"Hehn in Monchengladbach, Germany",,german_fires_monchengladbach_locations,c59019e5c5b11f0ca1c29daa667b75f5,german_fires_monchengladbach_locations__c59019e5c5b11f0ca1c29daa667b75f5
holt,"Holt in Monchengladbach, Germany",51.1852427,6.4011646,2,,,,Diplomat,"Holt in Monchengladbach, Germany",,german_fires_monchengladbach_locations,80b40b1400d220d968b537f749457106,german_fires_monchengladbach_locations__80b40b1400d220d968b537f749457106
hauptquartier,"Hauptquartier in Monchengladbach, Germany",51.1746208,6.3068506,2,,,,CompanyKeyword,"Hauptquartier in Monchengladbach, Germany",,german_fires_monchengladbach_locations,f52fbc45499b3d2991faffc6d2f3958b,german_fires_monchengladbach_locations__f52fbc45499b3d2991faffc6d2f3958b
rheindahlen-land,"Rheindahlen-Land in Monchengladbach, Germany",51.1690417,6.3613395,2,,,,space,"Rheindahlen-Land in Monchengladbach, Germany",,german_fires_monchengladbach_locations,cb2c2709dba69c0377dce95a8f42d732,german_fires_monchengladbach_locations__cb2c2709dba69c0377dce95a8f42d732
rheindahlen-mitte,"Rheindahlen-Mitte in Monchengladbach, Germany",51.1507196,6.3604385,2,,,,IndustryTerm,"Rheindahlen-Mitte in Monchengladbach, Germany",,german_fires_monchengladbach_locations,6a7173d21c8303e92897930151944f8b,german_fires_monchengladbach_locations__6a7173d21c8303e92897930151944f8b
monchengladbach-windberg,"Windberg in Monchengladbach, Germany",51.2104644,6.4201162,2,,,,Refinery,"Windberg in Monchengladbach, Germany",,german_fires_monchengladbach_locations,2d4c256b47429ae5ce3928fa5176cb32,german_fires_monchengladbach_locations__2d4c256b47429ae5ce3928fa5176cb32
monchengladbach-eicken,"Eicken in Monchengladbach, Germany",51.2090336,6.4461041,2,,,,ForeignMinistry,"Eicken in Monchengladbach, Germany",,german_fires_monchengladbach_locations,a29ee9dfa0a89fcf6c43d382483346f9,german_fires_monchengladbach_locations__a29ee9dfa0a89fcf6c43d382483346f9
monchengladbach-am wasserturm,"Am Wasserturm in Monchengladbach, Germany",51.2009403,6.4261424,2,,,,AAEntity,"Am Wasserturm in Monchengladbach, Germany",,german_fires_monchengladbach_locations,b855ce99fe33f77c503f5cdff3a409f3,german_fires_monchengladbach_locations__b855ce99fe33f77c503f5cdff3a409f3
monchengladbach-gladbach,"Gladbach in Monchengladbach, Germany",51.1938316,6.4360109,2,,,,Pipeline,"Gladbach in Monchengladbach, Germany",,german_fires_monchengladbach_locations,5b2f1272e59d11b4c8a3b1304179d520,german_fires_monchengladbach_locations__5b2f1272e59d11b4c8a3b1304179d520
monchengladbach-waldhausen,"Waldhausen in Monchengladbach, Germany",51.1938738,6.411364,2,,,,Consulates,"Waldhausen in Monchengladbach, Germany",,german_fires_monchengladbach_locations,2184cd55ba7be1135bf6eed9c72c24fd,german_fires_monchengladbach_locations__2184cd55ba7be1135bf6eed9c72c24fd
monchengladbach-westend,"Westend in Monchengladbach, Germany",51.1877959,6.4263986,2,,,,Wells,"Westend in Monchengladbach, Germany",,german_fires_monchengladbach_locations,db557753cc5e8f1e1fcf7f47dc83a08e,german_fires_monchengladbach_locations__db557753cc5e8f1e1fcf7f47dc83a08e
monchengladbach-dahl,"Dahl in Monchengladbach, Germany",51.1818956,6.4381851,2,,,,Organization,"Dahl in Monchengladbach, Germany",,german_fires_monchengladbach_locations,6fa44f71f1c9855deb6f44e64e90ccdf,german_fires_monchengladbach_locations__6fa44f71f1c9855deb6f44e64e90ccdf
monchengladbach-ohler,"Ohler in Monchengladbach, Germany",51.1776035,6.4207627,2,,,,space,"Ohler in Monchengladbach, Germany",,german_fires_monchengladbach_locations,9427943a0004867896a0b48acabaebdc,german_fires_monchengladbach_locations__9427943a0004867896a0b48acabaebdc
monchengladbach-hardt-mitte,"Hardt-Mitte in Monchengladbach, Germany",51.2112429,6.3578374,2,,,,Refinery,"Hardt-Mitte in Monchengladbach, Germany",,german_fires_monchengladbach_locations,93f2749df289780c2c6f9982be729921,german_fires_monchengladbach_locations__93f2749df289780c2c6f9982be729921
monchengladbach-venn,"Venn in Monchengladbach, Germany",51.1987421,6.3944067,2,,,,ForeignMinistry,"Venn in Monchengladbach, Germany",,german_fires_monchengladbach_locations,f29088b690b29f4c2d79cfa1a46d4ed3,german_fires_monchengladbach_locations__f29088b690b29f4c2d79cfa1a46d4ed3
monchengladbach-hardter wald,"Hardter Wald in Monchengladbach, Germany",51.1918991,6.3271669,2,,,,Legislator,"Hardter Wald in Monchengladbach, Germany",,german_fires_monchengladbach_locations,b4579876efcc8882328f99b773e75dff,german_fires_monchengladbach_locations__b4579876efcc8882328f99b773e75dff
monchengladbach-bettrath-hoven,"Bettrath-Hoven in Monchengladbach, Germany",51.222215,6.4512125,2,,,,DiplomaticFacilities,"Bettrath-Hoven in Monchengladbach, Germany",,german_fires_monchengladbach_locations,5dc1d768714092a3663fbe96a239bce5,german_fires_monchengladbach_locations__5dc1d768714092a3663fbe96a239bce5
monchengladbach-flughafen,"Flughafen in Monchengladbach, Germany",51.2310314,6.5009299,2,,,,CompanyKeyword,"Flughafen in Monchengladbach, Germany",,german_fires_monchengladbach_locations,72e8c336b4d54dbd3e840f79ee4270e9,german_fires_monchengladbach_locations__72e8c336b4d54dbd3e840f79ee4270e9
monchengladbach-neuwerk-mitte,"Neuwerk-Mitte in Monchengladbach, Germany",51.2231585,6.4757172,2,,,,ForeignMinistry,"Neuwerk-Mitte in Monchengladbach, Germany",,german_fires_monchengladbach_locations,a637508001a19819300f0f8e67b5d8eb,german_fires_monchengladbach_locations__a637508001a19819300f0f8e67b5d8eb
monchengladbach-uedding,"Uedding in Monchengladbach, Germany",51.212423,6.4798075,2,,,,Exec,"Uedding in Monchengladbach, Germany",,german_fires_monchengladbach_locations,8d77814ddc726917df749f0d447b0da5,german_fires_monchengladbach_locations__8d77814ddc726917df749f0d447b0da5
monchengladbach-lurrip,"Lurrip in Monchengladbach, Germany",51.2010233,6.4722194,2,,,,Wells,"Lurrip in Monchengladbach, Germany",,german_fires_monchengladbach_locations,20b38b11563a31a3ad88b02fd3ca5aee,german_fires_monchengladbach_locations__20b38b11563a31a3ad88b02fd3ca5aee
monchengladbach-hardterbroich-pesch,"Hardterbroich-Pesch in Monchengladbach, Germany",51.1927566,6.4554951,2,,,,Consulates,"Hardterbroich-Pesch in Monchengladbach, Germany",,german_fires_monchengladbach_locations,f87c4c8389df9564b7c1080a82b0a03f,german_fires_monchengladbach_locations__f87c4c8389df9564b7c1080a82b0a03f
monchengladbach-bungt,"Bungt in Monchengladbach, Germany",51.192038,6.4684874,2,,,,Exec,"Bungt in Monchengladbach, Germany",,german_fires_monchengladbach_locations,b95ab7d844ec5869632041347a867a97,german_fires_monchengladbach_locations__b95ab7d844ec5869632041347a867a97
monchengladbach-giesenkirchen-nord,"Giesenkirchen-Nord in Monchengladbach, Germany",51.1691364,6.5026358,2,,,,Consulates,"Giesenkirchen-Nord in Monchengladbach, Germany",,german_fires_monchengladbach_locations,3510e296656a545398062317c7a07dc5,german_fires_monchengladbach_locations__3510e296656a545398062317c7a07dc5
monchengladbach-schelsen,"Schelsen in Monchengladbach, Germany",51.1525029,6.5184859,2,,,,Diplomat,"Schelsen in Monchengladbach, Germany",,german_fires_monchengladbach_locations,5932f9c7e03c8eed46bce3e39b2fa609,german_fires_monchengladbach_locations__5932f9c7e03c8eed46bce3e39b2fa609
monchengladbach-giesenkirchen-mitte,"Giesenkirchen-Mitte in Monchengladbach, Germany",51.1543102,6.4860269,2,,,,News,"Giesenkirchen-Mitte in Monchengladbach, Germany",,german_fires_monchengladbach_locations,b81d8c771c29acba4e55beefaf971dce,german_fires_monchengladbach_locations__b81d8c771c29acba4e55beefaf971dce
monchengladbach-schloss rheydt,"Schloss Rheydt in Monchengladbach, Germany",51.1821665,6.4814659,2,,,,Wells,"Schloss Rheydt in Monchengladbach, Germany",,german_fires_monchengladbach_locations,2b3ffa9027298bdc3451a4fd2921f02e,german_fires_monchengladbach_locations__2b3ffa9027298bdc3451a4fd2921f02e
monchengladbach-bonnenbroich-geneicken,"Bonnenbroich-Geneicken in Monchengladbach, Germany",51.1764831,6.4648774,2,,,,Diplomat,"Bonnenbroich-Geneicken in Monchengladbach, Germany",,german_fires_monchengladbach_locations,ea664c842b1cb4dc02f0a4e16930b476,german_fires_monchengladbach_locations__ea664c842b1cb4dc02f0a4e16930b476
monchengladbach-rheydt,"Rheydt in Monchengladbach, Germany",51.1686686,6.4469619,2,,,,Media,"Rheydt in Monchengladbach, Germany",,german_fires_monchengladbach_locations,a947e57447aff36f20c83aa085caa315,german_fires_monchengladbach_locations__a947e57447aff36f20c83aa085caa315
monchengladbach-mulfort,"Mulfort in Monchengladbach, Germany",51.1553898,6.4665579,2,,,,Diplomat,"Mulfort in Monchengladbach, Germany",,german_fires_monchengladbach_locations,c7f5cc46d7f435a886e23dfc9df9bffb,german_fires_monchengladbach_locations__c7f5cc46d7f435a886e23dfc9df9bffb
monchengladbach-heyden,"Heyden in Monchengladbach, Germany",51.1576721,6.4490153,2,,,,Diplomat,"Heyden in Monchengladbach, Germany",,german_fires_monchengladbach_locations,3ce2512343711d706394b1da5fd5ef06,german_fires_monchengladbach_locations__3ce2512343711d706394b1da5fd5ef06
monchengladbach-geistenbeck,"Geistenbeck in Monchengladbach, Germany",51.1516408,6.4394091,2,,,,ForeignMinistry,"Geistenbeck in Monchengladbach, Germany",,german_fires_monchengladbach_locations,571dde753edf220bfabf2f74ca0c35d7,german_fires_monchengladbach_locations__571dde753edf220bfabf2f74ca0c35d7
monchengladbach-pongs,"Pongs in Monchengladbach, Germany",51.1637913,6.4093718,2,,,,Wells,"Pongs in Monchengladbach, Germany",,german_fires_monchengladbach_locations,6c4974097f127c48455e0b30ef8f6e35,german_fires_monchengladbach_locations__6c4974097f127c48455e0b30ef8f6e35
monchengladbach-schrievers,"Schrievers in Monchengladbach, Germany",51.1692912,6.4287027,2,,,,AAEntity,"Schrievers in Monchengladbach, Germany",,german_fires_monchengladbach_locations,da4f08891dd67ae879bf02d490726efb,german_fires_monchengladbach_locations__da4f08891dd67ae879bf02d490726efb
monchengladbach-grenzlandstadion,"Grenzlandstadion in Monchengladbach, Germany",51.1761737,6.4467236,2,,,,Refinery,"Grenzlandstadion in Monchengladbach, Germany",,german_fires_monchengladbach_locations,cd92652682140deef5baa0d1739e192d,german_fires_monchengladbach_locations__cd92652682140deef5baa0d1739e192d
monchengladbach-schmolderpark,"Schmolderpark in Monchengladbach, Germany",51.1627219,6.4288299,2,,,,Pipeline,"Schmolderpark in Monchengladbach, Germany",,german_fires_monchengladbach_locations,b02265945013229375101d3bffc51a05,german_fires_monchengladbach_locations__b02265945013229375101d3bffc51a05
monchengladbach-hockstein,"Hockstein in Monchengladbach, Germany",51.1527118,6.419955,2,,,,ForeignMinister,"Hockstein in Monchengladbach, Germany",,german_fires_monchengladbach_locations,36c8debe9e73986fe2906b12cc1d7078,german_fires_monchengladbach_locations__36c8debe9e73986fe2906b12cc1d7078
monchengladbach-odenkirchen-west,"Odenkirchen-West in Monchengladbach, Germany",51.1360945,6.4358186,2,,,,Organization,"Odenkirchen-West in Monchengladbach, Germany",,german_fires_monchengladbach_locations,5258ee42b75a068310db9239a3d4545e,german_fires_monchengladbach_locations__5258ee42b75a068310db9239a3d4545e
monchengladbach-odenkirchen-mitte,"Odenkirchen-Mitte in Monchengladbach, Germany",51.1322513,6.4579086,2,,,,Shipping,"Odenkirchen-Mitte in Monchengladbach, Germany",,german_fires_monchengladbach_locations,f7e2274aeff4bdaadc0274706ad32019,german_fires_monchengladbach_locations__f7e2274aeff4bdaadc0274706ad32019
monchengladbach-sasserath,"Sasserath in Monchengladbach, Germany",51.1216219,6.4619544,2,,,,FTO,"Sasserath in Monchengladbach, Germany",,german_fires_monchengladbach_locations,f6dc4efc0bac236dec5947ff0082e15f,german_fires_monchengladbach_locations__f6dc4efc0bac236dec5947ff0082e15f
monchengladbach-wickrath-mitte,"Wickrath-Mitte in Monchengladbach, Germany",51.1351071,6.4060597,2,,,,AAEntity,"Wickrath-Mitte in Monchengladbach, Germany",,german_fires_monchengladbach_locations,601cee06f2a3d3fc0b5caeb1ec4acb24,german_fires_monchengladbach_locations__601cee06f2a3d3fc0b5caeb1ec4acb24
monchengladbach-wickrath-west,"Wickrath-West in Monchengladbach, Germany",51.1157995,6.3754068,2,,,,Diplomat,"Wickrath-West in Monchengladbach, Germany",,german_fires_monchengladbach_locations,5af501cb3ed0475f8e06dabc337523a5,german_fires_monchengladbach_locations__5af501cb3ed0475f8e06dabc337523a5
monchengladbach-wickrathberg,"Wickrathberg in Monchengladbach, Germany",51.1109044,6.4168906,2,,,,Wells,"Wickrathberg in Monchengladbach, Germany",,german_fires_monchengladbach_locations,ae0c42c81a637205adc5dc1ae4493ef6,german_fires_monchengladbach_locations__ae0c42c81a637205adc5dc1ae4493ef6
monchengladbach-wanlo,"Wanlo in Monchengladbach, Germany",51.0936652,6.396545,2,,,,Legislator,"Wanlo in Monchengladbach, Germany",,german_fires_monchengladbach_locations,07159b416f3d02e658f1396bc5bc28a6,german_fires_monchengladbach_locations__07159b416f3d02e658f1396bc5bc28a6
monchengladbach-hehn,"Hehn in Monchengladbach, Germany",51.1814755,6.374027,2,,,,Keyphrase,"Hehn in Monchengladbach, Germany",,german_fires_monchengladbach_locations,3c4596f7ffbadde2786e05f37ac284ec,german_fires_monchengladbach_locations__3c4596f7ffbadde2786e05f37ac284ec
monchengladbach-holt,"Holt in Monchengladbach, Germany",51.1852427,6.4011646,2,,,,Refinery,"Holt in Monchengladbach, Germany",,german_fires_monchengladbach_locations,e8df15a2d3a8fd43373fdd6e5bfadce8,german_fires_monchengladbach_locations__e8df15a2d3a8fd43373fdd6e5bfadce8
monchengladbach-hauptquartier,"Hauptquartier in Monchengladbach, Germany",51.1746208,6.3068506,2,,,,Media,"Hauptquartier in Monchengladbach, Germany",,german_fires_monchengladbach_locations,1be53ab4b66f693377607d8ab5ba7de4,german_fires_monchengladbach_locations__1be53ab4b66f693377607d8ab5ba7de4
monchengladbach-rheindahlen-land,"Rheindahlen-Land in Monchengladbach, Germany",51.1690417,6.3613395,2,,,,News,"Rheindahlen-Land in Monchengladbach, Germany",,german_fires_monchengladbach_locations,8ca0b877a1dde55b0241c3c18fd97c25,german_fires_monchengladbach_locations__8ca0b877a1dde55b0241c3c18fd97c25
monchengladbach-rheindahlen-mitte,"Rheindahlen-Mitte in Monchengladbach, Germany",51.1507196,6.3604385,2,,,,Legislator,"Rheindahlen-Mitte in Monchengladbach, Germany",,german_fires_monchengladbach_locations,73d5a135a06b9c606d901a5341475455,german_fires_monchengladbach_locations__73d5a135a06b9c606d901a5341475455
am schlagbaum,"Am Schlagbaum in Monchengladbach, Germany",51.12944,6.3212991,1,,,,Legislator,"Am Schlagbaum in Monchengladbach, Germany",,german_fires_monchengladbach_locations,f5c8e93a7a6a66988fa0b4813574da01,german_fires_monchengladbach_locations__f5c8e93a7a6a66988fa0b4813574da01
anna-schiller-stiege,"Anna-Schiller-Stiege in Monchengladbach, Germany",51.193603,6.4291968,1,,,,Organization,"Anna-Schiller-Stiege in Monchengladbach, Germany",,german_fires_monchengladbach_locations,b8870c9c3fbf8793e99d924fd9ca9db8,german_fires_monchengladbach_locations__b8870c9c3fbf8793e99d924fd9ca9db8
aretzplatzke,"Aretzplatzke in Monchengladbach, Germany",51.1745698,6.3855055,1,,,,Media,"Aretzplatzke in Monchengladbach, Germany",,german_fires_monchengladbach_locations,de03f8975aa58a750e34c89985d7ca06,german_fires_monchengladbach_locations__de03f8975aa58a750e34c89985d7ca06
belgrader strasse,"Belgrader Strasse in Monchengladbach, Germany",51.1793753,6.3940947,1,,,,News,"Belgrader Strasse in Monchengladbach, Germany",,german_fires_monchengladbach_locations,4e78aa334a75cb7b71d128dff4dce41c,german_fires_monchengladbach_locations__4e78aa334a75cb7b71d128dff4dce41c
beller busch,"Beller Busch in Monchengladbach, Germany",51.145265,6.4521804,1,,,,Consulates,"Beller Busch in Monchengladbach, Germany",,german_fires_monchengladbach_locations,0d4f1057758d5e2db0862aa0826b247f,german_fires_monchengladbach_locations__0d4f1057758d5e2db0862aa0826b247f
beller feld,"Beller Feld in Monchengladbach, Germany",51.1456545,6.458218,1,,,,ForeignMinister,"Beller Feld in Monchengladbach, Germany",,german_fires_monchengladbach_locations,c9ef414d0c990443716ce564dbe0255d,german_fires_monchengladbach_locations__c9ef414d0c990443716ce564dbe0255d
brentanostrasse,"Brentanostrasse in Monchengladbach, Germany",51.1551904,6.3604976,1,,,,Shipping,"Brentanostrasse in Monchengladbach, Germany",,german_fires_monchengladbach_locations,74ee33de1f5b01f639baf6394a0a833a,german_fires_monchengladbach_locations__74ee33de1f5b01f639baf6394a0a833a
denbigh lane,"Denbigh Lane in Monchengladbach, Germany",51.1696303,6.3107421,1,,,,Legislator,"Denbigh Lane in Monchengladbach, Germany",,german_fires_monchengladbach_locations,e230ba993d105e8b72182e241fe55978,german_fires_monchengladbach_locations__e230ba993d105e8b72182e241fe55978
dr.-adalbert-jordan-strasse,"Dr.-Adalbert-Jordan-Strasse in Monchengladbach, Germany",51.17421,6.388409,1,,,,FTO,"Dr.-Adalbert-Jordan-Strasse in Monchengladbach, Germany",,german_fires_monchengladbach_locations,9239bfdac151f2a962099a2c4fa5592e,german_fires_monchengladbach_locations__9239bfdac151f2a962099a2c4fa5592e
dr.-alfred-gerhards-strasse,"Dr.-Alfred-Gerhards-Strasse in Monchengladbach, Germany",51.176159,6.3894584,1,,,,FTO,"Dr.-Alfred-Gerhards-Strasse in Monchengladbach, Germany",,german_fires_monchengladbach_locations,8024c797701da3272dc829e21e57c813,german_fires_monchengladbach_locations__8024c797701da3272dc829e21e57c813
dr.-helmut-beyer-weg,"Dr.-Helmut-Beyer-Weg in Monchengladbach, Germany",51.213381,6.4754276,1,,,,IndustryTerm,"Dr.-Helmut-Beyer-Weg in Monchengladbach, Germany",,german_fires_monchengladbach_locations,898e32ff01343ff0772e24fe3c20eca1,german_fires_monchengladbach_locations__898e32ff01343ff0772e24fe3c20eca1
edmund-erlemann-platz,"Edmund-Erlemann-Platz in Monchengladbach, Germany",51.1938708,6.4317758,1,,,,ForeignMinister,"Edmund-Erlemann-Platz in Monchengladbach, Germany",,german_fires_monchengladbach_locations,1fa0b723ead0523b73c7ab97e73bdc34,german_fires_monchengladbach_locations__1fa0b723ead0523b73c7ab97e73bdc34
fife drive,"Fife Drive in Monchengladbach, Germany",51.1700517,6.2977867,1,,,,ForeignMinister,"Fife Drive in Monchengladbach, Germany",,german_fires_monchengladbach_locations,5559376d118e8cb4344d7985176046f9,german_fires_monchengladbach_locations__5559376d118e8cb4344d7985176046f9
fohlenallee,"Fohlenallee in Monchengladbach, Germany",51.1745698,6.3855055,1,,,,News,"Fohlenallee in Monchengladbach, Germany",,german_fires_monchengladbach_locations,e6c41dc4ecb1cbc79ed74bc74099c7d5,german_fires_monchengladbach_locations__e6c41dc4ecb1cbc79ed74bc74099c7d5
fretwell road,"Fretwell Road in Monchengladbach, Germany",51.1591938,6.3042407,1,,,,Diplomat,"Fretwell Road in Monchengladbach, Germany",,german_fires_monchengladbach_locations,27218c0f38d6d845ae546511fc9ec536,german_fires_monchengladbach_locations__27218c0f38d6d845ae546511fc9ec536
geistenbecker ring,"Geistenbecker Ring in Monchengladbach, Germany",51.1473416,6.4395255,1,,,,Keyphrase,"Geistenbecker Ring in Monchengladbach, Germany",,german_fires_monchengladbach_locations,bc5e1af89c461e01509431a8735717a3,german_fires_monchengladbach_locations__bc5e1af89c461e01509431a8735717a3
george-c.-marshall-platz,"George-C.-Marshall-Platz in Monchengladbach, Germany",39.1127549,-77.558673,1,,,,ForeignMinistry,"George-C.-Marshall-Platz in Monchengladbach, Germany",,german_fires_monchengladbach_locations,2fba03012ee6f9a4d2f2302ebadf0650,german_fires_monchengladbach_locations__2fba03012ee6f9a4d2f2302ebadf0650
gerkerather hofe,"Gerkerather Hofe in Monchengladbach, Germany",51.1745698,6.3855055,1,,,,Person,"Gerkerather Hofe in Monchengladbach, Germany",,german_fires_monchengladbach_locations,414c4d8bdc3d8a4bacc1e8fbe155c762,german_fires_monchengladbach_locations__414c4d8bdc3d8a4bacc1e8fbe155c762
geroplatz,"Geroplatz in Monchengladbach, Germany",51.1912134,6.4313991,1,,,,ForeignMinister,"Geroplatz in Monchengladbach, Germany",,german_fires_monchengladbach_locations,57685cd23345fcc6d7bb134f4823fa45,german_fires_monchengladbach_locations__57685cd23345fcc6d7bb134f4823fa45
gloucester drive,"Gloucester Drive in Monchengladbach, Germany",51.1723328,6.3264415,1,,,,DiplomaticFacilities,"Gloucester Drive in Monchengladbach, Germany",,german_fires_monchengladbach_locations,616b8d29c1a45a0435abece3515f52ba,german_fires_monchengladbach_locations__616b8d29c1a45a0435abece3515f52ba
grachtstrasse,"Grachtstrasse in Monchengladbach, Germany",51.1668669,6.4479887,1,,,,ForeignMinistry,"Grachtstrasse in Monchengladbach, Germany",,german_fires_monchengladbach_locations,2c8c49694abe3dc0a19044cc0a09c395,german_fires_monchengladbach_locations__2c8c49694abe3dc0a19044cc0a09c395
hermann-piecq-anlage,"Hermann-Piecq-Anlage in Monchengladbach, Germany",51.1985953,6.4281767,1,,,,IndustryTerm,"Hermann-Piecq-Anlage in Monchengladbach, Germany",,german_fires_monchengladbach_locations,ed504261c45688a12ce2ee6b3542527f,german_fires_monchengladbach_locations__ed504261c45688a12ce2ee6b3542527f
johannes-cladders-platz,"Johannes-Cladders-Platz in Monchengladbach, Germany",51.1933106,6.432975,1,,,,FTO,"Johannes-Cladders-Platz in Monchengladbach, Germany",,german_fires_monchengladbach_locations,cbbcc49e81d82215c9ae9136e615acb9,german_fires_monchengladbach_locations__cbbcc49e81d82215c9ae9136e615acb9
kaulenpesch,"Kaulenpesch in Monchengladbach, Germany",51.1947235,6.3856637,1,,,,Organization,"Kaulenpesch in Monchengladbach, Germany",,german_fires_monchengladbach_locations,390026453aaca6ba70f272337d414ebc,german_fires_monchengladbach_locations__390026453aaca6ba70f272337d414ebc
kent ride,"Kent Ride in Monchengladbach, Germany",51.1703657,6.3099366,1,,,,space,"Kent Ride in Monchengladbach, Germany",,german_fires_monchengladbach_locations,27a38b6305d4a7fe5de90d74f6f10d93,german_fires_monchengladbach_locations__27a38b6305d4a7fe5de90d74f6f10d93
kinross drive,"Kinross Drive in Monchengladbach, Germany",51.173482,6.3275649,1,,,,Legislator,"Kinross Drive in Monchengladbach, Germany",,german_fires_monchengladbach_locations,0c4c31e0816e14c6dfa2ef42e3805574,german_fires_monchengladbach_locations__0c4c31e0816e14c6dfa2ef42e3805574
lee potter drive,"Lee Potter Drive in Monchengladbach, Germany",51.1540815,6.3043928,1,,,,Consulates,"Lee Potter Drive in Monchengladbach, Germany",,german_fires_monchengladbach_locations,35c397b1787a44f4c46a8f254b410d4e,german_fires_monchengladbach_locations__35c397b1787a44f4c46a8f254b410d4e
maarplatz,"Maarplatz in Monchengladbach, Germany",51.1731002,6.4652229,1,,,,Pipeline,"Maarplatz in Monchengladbach, Germany",,german_fires_monchengladbach_locations,0795ea3a88e6a84d94e3fb3c3b8749cf,german_fires_monchengladbach_locations__0795ea3a88e6a84d94e3fb3c3b8749cf
malta way,"Malta Way in Monchengladbach, Germany",51.1784886,6.3330103,1,,,,Person,"Malta Way in Monchengladbach, Germany",,german_fires_monchengladbach_locations,caabd7d08e561ab664fb13b365f59275,german_fires_monchengladbach_locations__caabd7d08e561ab664fb13b365f59275
marienplatz,"Marienplatz in Monchengladbach, Germany",51.165691,6.4419375,1,,,,LegislativeCommittee,"Marienplatz in Monchengladbach, Germany",,german_fires_monchengladbach_locations,1d14ca3b790434879d3aa1fda2b99cd9,german_fires_monchengladbach_locations__1d14ca3b790434879d3aa1fda2b99cd9
martin-luther-platz,"Martin-Luther-Platz in Monchengladbach, Germany",51.13374,6.4532261,1,,,,IndustryTerm,"Martin-Luther-Platz in Monchengladbach, Germany",,german_fires_monchengladbach_locations,4bdd8fd6e0432f71a0f441686e98203e,german_fires_monchengladbach_locations__4bdd8fd6e0432f71a0f441686e98203e
matthias-kronen-weg,"Matthias-Kronen-Weg in Monchengladbach, Germany",51.186042,6.4204655,1,,,,Media,"Matthias-Kronen-Weg in Monchengladbach, Germany",,german_fires_monchengladbach_locations,289a1695f1e47c574751b4a83816fc12,german_fires_monchengladbach_locations__289a1695f1e47c574751b4a83816fc12
norfolk lane,"Norfolk Lane in Monchengladbach, Germany",51.170215,6.3090804,1,,,,Refinery,"Norfolk Lane in Monchengladbach, Germany",,german_fires_monchengladbach_locations,72837c70d6f7812ac2de56f91088c101,german_fires_monchengladbach_locations__72837c70d6f7812ac2de56f91088c101
orschelsweg,"Orschelsweg in Monchengladbach, Germany",51.1880705,6.3261941,1,,,,Legislator,"Orschelsweg in Monchengladbach, Germany",,german_fires_monchengladbach_locations,3f8b4d36505359e3b5abcd872830b2e7,german_fires_monchengladbach_locations__3f8b4d36505359e3b5abcd872830b2e7
paulstrasse,"Paulstrasse in Monchengladbach, Germany",51.1679589,6.4412077,1,,,,Exec,"Paulstrasse in Monchengladbach, Germany",,german_fires_monchengladbach_locations,f8ff8f7af5f743a09b5d679cbaf8e148,german_fires_monchengladbach_locations__f8ff8f7af5f743a09b5d679cbaf8e148
peter-beier-platz,"Peter-Beier-Platz in Monchengladbach, Germany",50.8043097,6.4798065,1,,,,CompanyKeyword,"Peter-Beier-Platz in Monchengladbach, Germany",,german_fires_monchengladbach_locations,6072b70a11c5104e185ef678188424aa,german_fires_monchengladbach_locations__6072b70a11c5104e185ef678188424aa
peter-schumacher-platz,"Peter-Schumacher-Platz in Monchengladbach, Germany",51.2245264,6.4732561,1,,,,ForeignMinister,"Peter-Schumacher-Platz in Monchengladbach, Germany",,german_fires_monchengladbach_locations,afe3a7efe383837359610bb203cf3df0,german_fires_monchengladbach_locations__afe3a7efe383837359610bb203cf3df0
portalstieg,"Portalstieg in Monchengladbach, Germany",51.1925048,6.4304471,1,,,,Keyphrase,"Portalstieg in Monchengladbach, Germany",,german_fires_monchengladbach_locations,f109eaa7e608f9eca5fdebf82e9b034a,german_fires_monchengladbach_locations__f109eaa7e608f9eca5fdebf82e9b034a
propst-kauff-stiege,"Propst-Kauff-Stiege in Monchengladbach, Germany",51.1937494,6.4322733,1,,,,Media,"Propst-Kauff-Stiege in Monchengladbach, Germany",,german_fires_monchengladbach_locations,622acd9ce1e563a019b65ae88623ff9e,german_fires_monchengladbach_locations__622acd9ce1e563a019b65ae88623ff9e
remigiusstrasse,"Remigiusstrasse in Monchengladbach, Germany",51.1530081,6.4846214,1,,,,ForeignMinister,"Remigiusstrasse in Monchengladbach, Germany",,german_fires_monchengladbach_locations,81384567159084cb3df682901f975b19,german_fires_monchengladbach_locations__81384567159084cb3df682901f975b19
romanstrasse,"Romanstrasse in Monchengladbach, Germany",51.2095817,6.4836811,1,,,,Pipeline,"Romanstrasse in Monchengladbach, Germany",,german_fires_monchengladbach_locations,e50052c792851ac04a88c79c3c64a0fd,german_fires_monchengladbach_locations__e50052c792851ac04a88c79c3c64a0fd
rook road,"Rook Road in Monchengladbach, Germany",51.1594152,6.3085178,1,,,,ForeignMinistry,"Rook Road in Monchengladbach, Germany",,german_fires_monchengladbach_locations,9b9cd820480dc6b35d8f575ec31cb0b1,german_fires_monchengladbach_locations__9b9cd820480dc6b35d8f575ec31cb0b1
schillerplatz,"Schillerplatz in Monchengladbach, Germany",51.1992328,6.442846,1,,,,DiplomaticFacilities,"Schillerplatz in Monchengladbach, Germany",,german_fires_monchengladbach_locations,e932290fe9acaca449ecf61a1772b87a,german_fires_monchengladbach_locations__e932290fe9acaca449ecf61a1772b87a
schrodter feld,"Schrodter Feld in Monchengladbach, Germany",51.1664455,6.477862,1,,,,Diplomat,"Schrodter Feld in Monchengladbach, Germany",,german_fires_monchengladbach_locations,a5978a39c1209e2dee027ce8a437fcdf,german_fires_monchengladbach_locations__a5978a39c1209e2dee027ce8a437fcdf
schwester-gisela-weg,"Schwester-Gisela-Weg in Monchengladbach, Germany",51.2189102,6.464364,1,,,,IndustryTerm,"Schwester-Gisela-Weg in Monchengladbach, Germany",,german_fires_monchengladbach_locations,e5b65cb70e7a305045fa41db181a0e55,german_fires_monchengladbach_locations__e5b65cb70e7a305045fa41db181a0e55
st.-apollinaris-platz,"St.-Apollinaris-Platz in Monchengladbach, Germany",51.1874195,6.4660457,1,,,,Wells,"St.-Apollinaris-Platz in Monchengladbach, Germany",,german_fires_monchengladbach_locations,b158da9244bb3a2dc6eb798b911b1e45,german_fires_monchengladbach_locations__b158da9244bb3a2dc6eb798b911b1e45
steegesweg,"Steegesweg in Monchengladbach, Germany",51.1572985,6.4369331,1,,,,Refinery,"Steegesweg in Monchengladbach, Germany",,german_fires_monchengladbach_locations,433936dd923a2f93fcdaeb1a6bbc2aa4,german_fires_monchengladbach_locations__433936dd923a2f93fcdaeb1a6bbc2aa4
suffolk lane,"Suffolk Lane in Monchengladbach, Germany",51.1693188,6.3102818,1,,,,space,"Suffolk Lane in Monchengladbach, Germany",,german_fires_monchengladbach_locations,bc9a6cd71f557ddcdc28703ddf4ce7d6,german_fires_monchengladbach_locations__bc9a6cd71f557ddcdc28703ddf4ce7d6
surrey ride,"Surrey Ride in Monchengladbach, Germany",51.1708663,6.3088956,1,,,,Consulates,"Surrey Ride in Monchengladbach, Germany",,german_fires_monchengladbach_locations,e4d1998faf936261baad336f0897dd7f,german_fires_monchengladbach_locations__e4d1998faf936261baad336f0897dd7f
sutherland lane,"Sutherland Lane in Monchengladbach, Germany",51.1690692,6.3102868,1,,,,CompanyKeyword,"Sutherland Lane in Monchengladbach, Germany",,german_fires_monchengladbach_locations,82e197f4e742aef12c30f1b3e008cd5c,german_fires_monchengladbach_locations__82e197f4e742aef12c30f1b3e008cd5c
tilsiter strasse,"Tilsiter Strasse in Monchengladbach, Germany",51.2035138,6.4172827,1,,,,space,"Tilsiter Strasse in Monchengladbach, Germany",,german_fires_monchengladbach_locations,aa3a5bbc9eb52067c56c80dc93532f1c,german_fires_monchengladbach_locations__aa3a5bbc9eb52067c56c80dc93532f1c
uferweg,"Uferweg in Monchengladbach, Germany",51.1369316,6.4510345,1,,,,Shipping,"Uferweg in Monchengladbach, Germany",,german_fires_monchengladbach_locations,989e2bca60c1665327b4e07c062b9d5e,german_fires_monchengladbach_locations__989e2bca60c1665327b4e07c062b9d5e
wallsendpromenade,"Wallsendpromenade in Monchengladbach, Germany",51.1591684,6.4258877,1,,,,News,"Wallsendpromenade in Monchengladbach, Germany",,german_fires_monchengladbach_locations,0c326375fbc33e9ca0e014c14f5483eb,german_fires_monchengladbach_locations__0c326375fbc33e9ca0e014c14f5483eb
wattstrasse,"Wattstrasse in Monchengladbach, Germany",51.2055025,6.4516549,1,,,,Pipeline,"Wattstrasse in Monchengladbach, Germany",,german_fires_monchengladbach_locations,0180176f496806caed6d686b33e0a851,german_fires_monchengladbach_locations__0180176f496806caed6d686b33e0a851
westmoreland lane,"Westmoreland Lane in Monchengladbach, Germany",51.1693428,6.3098736,1,,,,Media,"Westmoreland Lane in Monchengladbach, Germany",,german_fires_monchengladbach_locations,021f73229b0f017588bfedf17f027666,german_fires_monchengladbach_locations__021f73229b0f017588bfedf17f027666
am beller wehr,"Am Beller Wehr in Monchengladbach, Germany",51.1498417,6.4539327,1,,,,Organization,"Am Beller Wehr in Monchengladbach, Germany",,german_fires_monchengladbach_locations,15155ac80c6ce251d4c0993f48034433,german_fires_monchengladbach_locations__15155ac80c6ce251d4c0993f48034433
hindenburgstrasse,"Hindenburgstrasse in Monchengladbach, Germany",51.1978271,6.4445238,1,,,,Consulates,"Hindenburgstrasse in Monchengladbach, Germany",,german_fires_monchengladbach_locations,e45ef5636025aebe9df3ff72befb3ebc,german_fires_monchengladbach_locations__e45ef5636025aebe9df3ff72befb3ebc
theodor-heuss-strasse,"Theodor-Heuss-Strasse in Monchengladbach, Germany",51.1852131,6.4439881,1,,,,Media,"Theodor-Heuss-Strasse in Monchengladbach, Germany",,german_fires_monchengladbach_locations,0f697cdbf35d6a7968241b26e2c1354f,german_fires_monchengladbach_locations__0f697cdbf35d6a7968241b26e2c1354f
krefelder strasse,"Krefelder Strasse in Monchengladbach, Germany",51.2177556,6.4763374,1,,,,Wells,"Krefelder Strasse in Monchengladbach, Germany",,german_fires_monchengladbach_locations,44d958bf0d6311029efa6ebaba34244a,german_fires_monchengladbach_locations__44d958bf0d6311029efa6ebaba34244a
carl-diem-strasse,"Carl-Diem-Strasse in Monchengladbach, Germany",51.1945205,6.4625297,1,,,,Pipeline,"Carl-Diem-Strasse in Monchengladbach, Germany",,german_fires_monchengladbach_locations,f7a9766c5467dcd16e67899089e360f2,german_fires_monchengladbach_locations__f7a9766c5467dcd16e67899089e360f2
an der rheydter hohe,"An der Rheydter Hohe in Monchengladbach, Germany",51.1591131,6.4112935,1,,,,CompanyKeyword,"An der Rheydter Hohe in Monchengladbach, Germany",,german_fires_monchengladbach_locations,030d90f5db11d13192de985da9c4e698,german_fires_monchengladbach_locations__030d90f5db11d13192de985da9c4e698
wilhelm-krumme-strasse,"Wilhelm-Krumme-Strasse in Monchengladbach, Germany",51.1266477,6.4574898,1,,,,News,"Wilhelm-Krumme-Strasse in Monchengladbach, Germany",,german_fires_monchengladbach_locations,ca47fd1eac84b5aa4d3662ea8784ba5d,german_fires_monchengladbach_locations__ca47fd1eac84b5aa4d3662ea8784ba5d
woof,"Woof in Monchengladbach, Germany",51.1520496,6.3238618,1,,,,LegislativeCommittee,"Woof in Monchengladbach, Germany",,german_fires_monchengladbach_locations,72a6fe56ddfa0df570b547560e1e695f,german_fires_monchengladbach_locations__72a6fe56ddfa0df570b547560e1e695f
leppershutte,"Leppershutte in Monchengladbach, Germany",51.1716105,6.5185977,1,,,,Refinery,"Leppershutte in Monchengladbach, Germany",,german_fires_monchengladbach_locations,2e3717f1d445aa5da6e0b5c9f32bc771,german_fires_monchengladbach_locations__2e3717f1d445aa5da6e0b5c9f32bc771
taubenhutte,"Taubenhutte in Monchengladbach, Germany",51.1700269,6.5121006,1,,,,Wells,"Taubenhutte in Monchengladbach, Germany",,german_fires_monchengladbach_locations,13064298d5f3d6ea77502cc87a378031,german_fires_monchengladbach_locations__13064298d5f3d6ea77502cc87a378031
jahnstrasse,"Jahnstrasse in Monchengladbach, Germany",51.1371815,6.4181135,1,,,,Person,"Jahnstrasse in Monchengladbach, Germany",,german_fires_monchengladbach_locations,aaa2b69d1db9679dff82435255da1560,german_fires_monchengladbach_locations__aaa2b69d1db9679dff82435255da1560
bruckenstrasse,"Bruckenstrasse in Monchengladbach, Germany",51.1550512,6.4602143,1,,,,ForeignMinister,"Bruckenstrasse in Monchengladbach, Germany",,german_fires_monchengladbach_locations,2b171601e343db845513e4eccd36d764,german_fires_monchengladbach_locations__2b171601e343db845513e4eccd36d764
konnental,"Konnental in Monchengladbach, Germany",51.1227564,6.4399562,1,,,,AAEntity,"Konnental in Monchengladbach, Germany",,german_fires_monchengladbach_locations,ff5fff43c50b8c20da6d796ceef391e9,german_fires_monchengladbach_locations__ff5fff43c50b8c20da6d796ceef391e9
heiligenpesch,"Heiligenpesch in Monchengladbach, Germany",51.1809383,6.3712792,1,,,,Legislator,"Heiligenpesch in Monchengladbach, Germany",,german_fires_monchengladbach_locations,f8673f26a1bad77c425a2370e9b8f944,german_fires_monchengladbach_locations__f8673f26a1bad77c425a2370e9b8f944
hermann-ehlers-strasse,"Hermann-Ehlers-Strasse in Monchengladbach, Germany",51.1521128,6.3663232,1,,,,AAEntity,"Hermann-Ehlers-Strasse in Monchengladbach, Germany",,german_fires_monchengladbach_locations,3f814efa352f71f91c4e46cf74000af6,german_fires_monchengladbach_locations__3f814efa352f71f91c4e46cf74000af6
an den huren,"An den Huren in Monchengladbach, Germany",51.2116454,6.4795108,1,,,,CompanyKeyword,"An den Huren in Monchengladbach, Germany",,german_fires_monchengladbach_locations,906a2b0d3aa770a69aac193aba6b1617,german_fires_monchengladbach_locations__906a2b0d3aa770a69aac193aba6b1617
webershutte,"Webershutte in Monchengladbach, Germany",51.207086,6.4825421,1,,,,IndustryTerm,"Webershutte in Monchengladbach, Germany",,german_fires_monchengladbach_locations,900dcb5faaf55749b5f968678e5e8180,german_fires_monchengladbach_locations__900dcb5faaf55749b5f968678e5e8180
neersbroicher strasse,"Neersbroicher Strasse in Monchengladbach, Germany",51.2281408,6.4801084,1,,,,Diplomat,"Neersbroicher Strasse in Monchengladbach, Germany",,german_fires_monchengladbach_locations,c2c0e031d1a0c728671fc194cc4b1779,german_fires_monchengladbach_locations__c2c0e031d1a0c728671fc194cc4b1779
vorster strasse,"Vorster Strasse in Monchengladbach, Germany",51.1989597,6.3581523,1,,,,Shipping,"Vorster Strasse in Monchengladbach, Germany",,german_fires_monchengladbach_locations,6dd34b6a1065fd63103944e2e0fe3daf,german_fires_monchengladbach_locations__6dd34b6a1065fd63103944e2e0fe3daf
landgrafenstrasse,"Landgrafenstrasse in Monchengladbach, Germany",51.1841734,6.4240142,1,,,,IndustryTerm,"Landgrafenstrasse in Monchengladbach, Germany",,german_fires_monchengladbach_locations,b0e0e5879763d46c32437ed98a16feb3,german_fires_monchengladbach_locations__b0e0e5879763d46c32437ed98a16feb3
graf-haeseler-strasse,"Graf-Haeseler-Strasse in Monchengladbach, Germany",51.2200717,6.4419873,1,,,,Legislator,"Graf-Haeseler-Strasse in Monchengladbach, Germany",,german_fires_monchengladbach_locations,722884045f97fd39c767533ecbd89dc6,german_fires_monchengladbach_locations__722884045f97fd39c767533ecbd89dc6
hovener strasse,"Hovener Strasse in Monchengladbach, Germany",51.2230157,6.4552943,1,,,,News,"Hovener Strasse in Monchengladbach, Germany",,german_fires_monchengladbach_locations,7b313a0f6b15599d605538885a78f33e,german_fires_monchengladbach_locations__7b313a0f6b15599d605538885a78f33e
heinrich-pesch-strasse,"Heinrich-Pesch-Strasse in Monchengladbach, Germany",51.1712698,6.4366472,1,,,,Shipping,"Heinrich-Pesch-Strasse in Monchengladbach, Germany",,german_fires_monchengladbach_locations,9e7773a5ba07fea42c66645f51c3781d,german_fires_monchengladbach_locations__9e7773a5ba07fea42c66645f51c3781d
bertolt-brecht-platz,"Bertolt-Brecht-Platz in Monchengladbach, Germany",51.200332,6.3850714,1,,,,AAEntity,"Bertolt-Brecht-Platz in Monchengladbach, Germany",,german_fires_monchengladbach_locations,28ab256f6c5c36d390b8fc0fcd16e897,german_fires_monchengladbach_locations__28ab256f6c5c36d390b8fc0fcd16e897
brucknerallee,"Brucknerallee in Monchengladbach, Germany",51.1730149,6.443718,1,,,,AAEntity,"Brucknerallee in Monchengladbach, Germany",,german_fires_monchengladbach_locations,04e72c167ee58d2dcc4d5c3a872e9fcb,german_fires_monchengladbach_locations__04e72c167ee58d2dcc4d5c3a872e9fcb
am romerlager,"Am Romerlager in Monchengladbach, Germany",51.148638,6.4579537,1,,,,CompanyKeyword,"Am Romerlager in Monchengladbach, Germany",,german_fires_monchengladbach_locations,74190090edf335fd3d6d6a6fc7919dde,german_fires_monchengladbach_locations__74190090edf335fd3d6d6a6fc7919dde
gerkerathwinkel,"Gerkerathwinkel in Monchengladbach, Germany",51.1685323,6.3526111,1,,,,Keyphrase,"Gerkerathwinkel in Monchengladbach, Germany",,german_fires_monchengladbach_locations,e95c36f46a93fe825b924efa4d6a76e6,german_fires_monchengladbach_locations__e95c36f46a93fe825b924efa4d6a76e6
schloss-dyck-strasse,"Schloss-Dyck-Strasse in Monchengladbach, Germany",51.1499156,6.5170964,1,,,,Media,"Schloss-Dyck-Strasse in Monchengladbach, Germany",,german_fires_monchengladbach_locations,5fb5b957c0fc4b7da653ce8c79859b27,german_fires_monchengladbach_locations__5fb5b957c0fc4b7da653ce8c79859b27
mossenweg,"Mossenweg in Monchengladbach, Germany",51.2083617,6.386403,1,,,,ForeignMinister,"Mossenweg in Monchengladbach, Germany",,german_fires_monchengladbach_locations,7a4da0ff7aa8ac1c47a59ac6c00d32e3,german_fires_monchengladbach_locations__7a4da0ff7aa8ac1c47a59ac6c00d32e3
marie-juchacz-strasse,"Marie-Juchacz-Strasse in Monchengladbach, Germany",51.1230784,6.4329268,1,,,,Wells,"Marie-Juchacz-Strasse in Monchengladbach, Germany",,german_fires_monchengladbach_locations,ca66dd6156e562861f7fc321bf620908,german_fires_monchengladbach_locations__ca66dd6156e562861f7fc321bf620908
mennrathschmidt,"Mennrathschmidt in Monchengladbach, Germany",51.1404938,6.3855365,1,,,,AAEntity,"Mennrathschmidt in Monchengladbach, Germany",,german_fires_monchengladbach_locations,46161a4fd58fc5b0808886a831c42e65,german_fires_monchengladbach_locations__46161a4fd58fc5b0808886a831c42e65
donker strasse,"Donker Strasse in Monchengladbach, Germany",51.2385699,6.4634764,1,,,,Shipping,"Donker Strasse in Monchengladbach, Germany",,german_fires_monchengladbach_locations,1f60731ab0a568e7f2352c2525d6e6c3,german_fires_monchengladbach_locations__1f60731ab0a568e7f2352c2525d6e6c3
preyerstrasse,"Preyerstrasse in Monchengladbach, Germany",51.1684403,6.418407,1,,,,space,"Preyerstrasse in Monchengladbach, Germany",,german_fires_monchengladbach_locations,2531a222c79b5d7185dc774ea42c6887,german_fires_monchengladbach_locations__2531a222c79b5d7185dc774ea42c6887
rommelsmaar,"Rommelsmaar in Monchengladbach, Germany",51.1575071,6.5231284,1,,,,Diplomat,"Rommelsmaar in Monchengladbach, Germany",,german_fires_monchengladbach_locations,995524f12db657fc8a9055d5c8f08224,german_fires_monchengladbach_locations__995524f12db657fc8a9055d5c8f08224
eichenstrasse,"Eichenstrasse in Monchengladbach, Germany",51.182643,6.4658261,1,,,,DiplomaticFacilities,"Eichenstrasse in Monchengladbach, Germany",,german_fires_monchengladbach_locations,71813ff803760adade6238367e6fea1c,german_fires_monchengladbach_locations__71813ff803760adade6238367e6fea1c
dohrer strasse,"Dohrer Strasse in Monchengladbach, Germany",51.1581702,6.467246,1,,,,Diplomat,"Dohrer Strasse in Monchengladbach, Germany",,german_fires_monchengladbach_locations,ebfd368af6cc34b8e98e508427b527e9,german_fires_monchengladbach_locations__ebfd368af6cc34b8e98e508427b527e9
hehn,"Hehn in Monchengladbach, Germany",51.1814755,6.374027,1,,,,LegislativeCommittee,"Hehn in Monchengladbach, Germany",,german_fires_monchengladbach_locations,a1d7345f581a9791ffe017278c59ab92,german_fires_monchengladbach_locations__a1d7345f581a9791ffe017278c59ab92
ruckes,"Ruckes in Monchengladbach, Germany",51.1659244,6.4916602,1,,,,Legislator,"Ruckes in Monchengladbach, Germany",,german_fires_monchengladbach_locations,4ddfdd7c2387a55f151d5be833bdf96c,german_fires_monchengladbach_locations__4ddfdd7c2387a55f151d5be833bdf96c
aachener strasse,"Aachener Strasse in Monchengladbach, Germany",51.1847171,6.4134782,1,,,,Keyphrase,"Aachener Strasse in Monchengladbach, Germany",,german_fires_monchengladbach_locations,5d5e47f6c2cd935ad052a0346a229d10,german_fires_monchengladbach_locations__5d5e47f6c2cd935ad052a0346a229d10
tomper weg,"Tomper Weg in Monchengladbach, Germany",51.2085597,6.3350453,1,,,,Keyphrase,"Tomper Weg in Monchengladbach, Germany",,german_fires_monchengladbach_locations,ca0c0cee46ac8821e1d9e5498ffe1ffc,german_fires_monchengladbach_locations__ca0c0cee46ac8821e1d9e5498ffe1ffc
maarstrasse,"Maarstrasse in Monchengladbach, Germany",51.1729925,6.4634394,1,,,,Consulates,"Maarstrasse in Monchengladbach, Germany",,german_fires_monchengladbach_locations,6076b0a51c6e55ecc234dc6c9e206fe6,german_fires_monchengladbach_locations__6076b0a51c6e55ecc234dc6c9e206fe6
blaffert,"Blaffert in Monchengladbach, Germany",51.1620025,6.4779784,1,,,,Exec,"Blaffert in Monchengladbach, Germany",,german_fires_monchengladbach_locations,f1d0544b3731497d41e79b7bf84a7d76,german_fires_monchengladbach_locations__f1d0544b3731497d41e79b7bf84a7d76
engelsmuhlenweg,"Engelsmuhlenweg in Monchengladbach, Germany",51.217372,6.4837454,1,,,,Organization,"Engelsmuhlenweg in Monchengladbach, Germany",,german_fires_monchengladbach_locations,db17b07300e88fb199d3b61e1a53e460,german_fires_monchengladbach_locations__db17b07300e88fb199d3b61e1a53e460
wilhelmstrasse,"Wilhelmstrasse in Monchengladbach, Germany",51.1932273,6.4398651,1,,,,IndustryTerm,"Wilhelmstrasse in Monchengladbach, Germany",,german_fires_monchengladbach_locations,30345e8be671de0281889e12e5f4a3a1,german_fires_monchengladbach_locations__30345e8be671de0281889e12e5f4a3a1
lambertsstrasse,"Lambertsstrasse in Monchengladbach, Germany",51.1935746,6.4391285,1,,,,DiplomaticFacilities,"Lambertsstrasse in Monchengladbach, Germany",,german_fires_monchengladbach_locations,8a10ab9a5c8c27eac0d9feb5784a390b,german_fires_monchengladbach_locations__8a10ab9a5c8c27eac0d9feb5784a390b
burggrafenstrasse,"Burggrafenstrasse in Monchengladbach, Germany",51.1916908,6.4197036,1,,,,Wells,"Burggrafenstrasse in Monchengladbach, Germany",,german_fires_monchengladbach_locations,770377bd267e6da76faeb7225eb25cae,german_fires_monchengladbach_locations__770377bd267e6da76faeb7225eb25cae
herrather linde,"Herrather Linde in Monchengladbach, Germany",51.1003668,6.3642545,1,,,,LegislativeCommittee,"Herrather Linde in Monchengladbach, Germany",,german_fires_monchengladbach_locations,d0d8468a62b46b96d96c9eb8d0a88c98,german_fires_monchengladbach_locations__d0d8468a62b46b96d96c9eb8d0a88c98
reyerstrasse,"Reyerstrasse in Monchengladbach, Germany",51.195904,6.4634595,1,,,,Exec,"Reyerstrasse in Monchengladbach, Germany",,german_fires_monchengladbach_locations,4767740817530ab3a1c0a75dfde83256,german_fires_monchengladbach_locations__4767740817530ab3a1c0a75dfde83256
dohler strasse,"Dohler Strasse in Monchengladbach, Germany",51.178792,6.4627162,1,,,,Diplomat,"Dohler Strasse in Monchengladbach, Germany",,german_fires_monchengladbach_locations,f4da356ddf59d3214968bc038e94c581,german_fires_monchengladbach_locations__f4da356ddf59d3214968bc038e94c581
mongshof,"Mongshof in Monchengladbach, Germany",51.1169416,6.4481136,1,,,,ForeignMinister,"Mongshof in Monchengladbach, Germany",,german_fires_monchengladbach_locations,defa88cd29ec7202936ace1ef7f2845a,german_fires_monchengladbach_locations__defa88cd29ec7202936ace1ef7f2845a
urftstrasse,"Urftstrasse in Monchengladbach, Germany",51.1609432,6.4290374,1,,,,Legislator,"Urftstrasse in Monchengladbach, Germany",,german_fires_monchengladbach_locations,c71f5696bf299b059fd8a464282d4b02,german_fires_monchengladbach_locations__c71f5696bf299b059fd8a464282d4b02
marie-bernays-ring,"Marie-Bernays-Ring in Monchengladbach, Germany",51.1201011,6.4335864,1,,,,ForeignMinister,"Marie-Bernays-Ring in Monchengladbach, Germany",,german_fires_monchengladbach_locations,96abf1ab7433d6110341d2cc9930242b,german_fires_monchengladbach_locations__96abf1ab7433d6110341d2cc9930242b
hompeschstrasse,"Hompeschstrasse in Monchengladbach, Germany",51.1342171,6.4019254,1,,,,News,"Hompeschstrasse in Monchengladbach, Germany",,german_fires_monchengladbach_locations,83eeb58b289195b78ae43573a29ac010,german_fires_monchengladbach_locations__83eeb58b289195b78ae43573a29ac010
pongser strasse,"Pongser Strasse in Monchengladbach, Germany",51.1664995,6.415308,1,,,,Wells,"Pongser Strasse in Monchengladbach, Germany",,german_fires_monchengladbach_locations,fe7a057ea4a78d8471136fa79ec0bc12,german_fires_monchengladbach_locations__fe7a057ea4a78d8471136fa79ec0bc12
ohlerhof,"Ohlerhof in Monchengladbach, Germany",51.175371,6.4265849,1,,,,Exec,"Ohlerhof in Monchengladbach, Germany",,german_fires_monchengladbach_locations,41e8f0b72e57da5cc6620fa2bcc6ea22,german_fires_monchengladbach_locations__41e8f0b72e57da5cc6620fa2bcc6ea22
engelblecker strasse,"Engelblecker Strasse in Monchengladbach, Germany",51.2173354,6.4692269,1,,,,Organization,"Engelblecker Strasse in Monchengladbach, Germany",,german_fires_monchengladbach_locations,4cd6f6b61429cb489a5dae7489209ee1,german_fires_monchengladbach_locations__4cd6f6b61429cb489a5dae7489209ee1
genholland,"Genholland in Monchengladbach, Germany",51.1277621,6.3568226,1,,,,ForeignMinister,"Genholland in Monchengladbach, Germany",,german_fires_monchengladbach_locations,66a885355214b7d73d173a95a676fd5b,german_fires_monchengladbach_locations__66a885355214b7d73d173a95a676fd5b
meerkamp,"Meerkamp in Monchengladbach, Germany",51.1661605,6.483426,1,,,,News,"Meerkamp in Monchengladbach, Germany",,german_fires_monchengladbach_locations,896159f3c65be463c576b2ee8316df2c,german_fires_monchengladbach_locations__896159f3c65be463c576b2ee8316df2c
plattenstrasse,"Plattenstrasse in Monchengladbach, Germany",51.0985681,6.413823,1,,,,LegislativeCommittee,"Plattenstrasse in Monchengladbach, Germany",,german_fires_monchengladbach_locations,067cc082e0cec7d3e395f16673f2a13a,german_fires_monchengladbach_locations__067cc082e0cec7d3e395f16673f2a13a
korschenbroicher strasse,"Korschenbroicher Strasse in Monchengladbach, Germany",51.1983597,6.4671701,1,,,,Wells,"Korschenbroicher Strasse in Monchengladbach, Germany",,german_fires_monchengladbach_locations,8c0b4fc448d531f17a8db0b2156a8d67,german_fires_monchengladbach_locations__8c0b4fc448d531f17a8db0b2156a8d67
selma-horn-weg,"Selma-Horn-Weg in Monchengladbach, Germany",51.1257616,6.457433,1,,,,FTO,"Selma-Horn-Weg in Monchengladbach, Germany",,german_fires_monchengladbach_locations,968d285ed63de918e45d7c7b9af38ef1,german_fires_monchengladbach_locations__968d285ed63de918e45d7c7b9af38ef1
fuchskuhlenweg,"Fuchskuhlenweg in Monchengladbach, Germany",51.142418,6.4369411,1,,,,Shipping,"Fuchskuhlenweg in Monchengladbach, Germany",,german_fires_monchengladbach_locations,dccda61e735ea7dc081e97932238c99f,german_fires_monchengladbach_locations__dccda61e735ea7dc081e97932238c99f
flachsbleiche,"Flachsbleiche in Monchengladbach, Germany",51.1680353,6.3816484,1,,,,LegislativeCommittee,"Flachsbleiche in Monchengladbach, Germany",,german_fires_monchengladbach_locations,b290276404eba0ae6c21619c4abe6cb9,german_fires_monchengladbach_locations__b290276404eba0ae6c21619c4abe6cb9
klusenstrasse,"Klusenstrasse in Monchengladbach, Germany",51.1524794,6.4147689,1,,,,Exec,"Klusenstrasse in Monchengladbach, Germany",,german_fires_monchengladbach_locations,75ad8a20be7b0a769f7251b06c637461,german_fires_monchengladbach_locations__75ad8a20be7b0a769f7251b06c637461
jakobshohe,"Jakobshohe in Monchengladbach, Germany",51.2147885,6.4780166,1,,,,CompanyKeyword,"Jakobshohe in Monchengladbach, Germany",,german_fires_monchengladbach_locations,d3fe1141ddb86a10c9f6f89109126b1c,german_fires_monchengladbach_locations__d3fe1141ddb86a10c9f6f89109126b1c
kabelstrasse,"Kabelstrasse in Monchengladbach, Germany",51.1831311,6.4204037,1,,,,Shipping,"Kabelstrasse in Monchengladbach, Germany",,german_fires_monchengladbach_locations,5af449927864428e55633f806baadd97,german_fires_monchengladbach_locations__5af449927864428e55633f806baadd97
heinz-nixdorf-strasse,"Heinz-Nixdorf-Strasse in Monchengladbach, Germany",51.1725807,6.3906398,1,,,,FTO,"Heinz-Nixdorf-Strasse in Monchengladbach, Germany",,german_fires_monchengladbach_locations,406428660c73de2c1f945f5a0959f36d,german_fires_monchengladbach_locations__406428660c73de2c1f945f5a0959f36d
hehner strasse,"Hehner Strasse in Monchengladbach, Germany",51.1887932,6.4098852,1,,,,space,"Hehner Strasse in Monchengladbach, Germany",,german_fires_monchengladbach_locations,034a36a08080133867e23dff3d3f15c8,german_fires_monchengladbach_locations__034a36a08080133867e23dff3d3f15c8
voosen,"Voosen in Monchengladbach, Germany",51.1513016,6.3798403,1,,,,Organization,"Voosen in Monchengladbach, Germany",,german_fires_monchengladbach_locations,0f79e28b7278ed4e7bb999241cd2c317,german_fires_monchengladbach_locations__0f79e28b7278ed4e7bb999241cd2c317
windmuhlenweg,"Windmuhlenweg in Monchengladbach, Germany",51.2015838,6.4025159,1,,,,CompanyKeyword,"Windmuhlenweg in Monchengladbach, Germany",,german_fires_monchengladbach_locations,f4bef73358b016a422908ff452b446b2,german_fires_monchengladbach_locations__f4bef73358b016a422908ff452b446b2
kirchhofstrasse,"Kirchhofstrasse in Monchengladbach, Germany",51.134139,6.4570547,1,,,,Diplomat,"Kirchhofstrasse in Monchengladbach, Germany",,german_fires_monchengladbach_locations,a453a167d7a30c9599fae44b0649f984,german_fires_monchengladbach_locations__a453a167d7a30c9599fae44b0649f984
im grund,"Im Grund in Monchengladbach, Germany",51.1507619,6.4160839,1,,,,IndustryTerm,"Im Grund in Monchengladbach, Germany",,german_fires_monchengladbach_locations,67bd3a338bb00c2b09d2a769c34612ae,german_fires_monchengladbach_locations__67bd3a338bb00c2b09d2a769c34612ae
jorespfad,"Jorespfad in Monchengladbach, Germany",51.2057658,6.4672966,1,,,,space,"Jorespfad in Monchengladbach, Germany",,german_fires_monchengladbach_locations,4df943d6a0ad9f607e21497769be2a1d,german_fires_monchengladbach_locations__4df943d6a0ad9f607e21497769be2a1d
grunstrasse,"Grunstrasse in Monchengladbach, Germany",51.1283191,6.4553164,1,,,,Keyphrase,"Grunstrasse in Monchengladbach, Germany",,german_fires_monchengladbach_locations,660c4640664da2e8d2ca59525ade4c3c,german_fires_monchengladbach_locations__660c4640664da2e8d2ca59525ade4c3c
giesenkirchener strasse,"Giesenkirchener Strasse in Monchengladbach, Germany",51.150362,6.4641035,1,,,,IndustryTerm,"Giesenkirchener Strasse in Monchengladbach, Germany",,german_fires_monchengladbach_locations,bf56ac9779da68be622d607e40abb87a,german_fires_monchengladbach_locations__bf56ac9779da68be622d607e40abb87a
am flughafen,"Am Flughafen in Monchengladbach, Germany",51.2314873,6.493787,1,,,,Keyphrase,"Am Flughafen in Monchengladbach, Germany",,german_fires_monchengladbach_locations,fe9396c38c91f4f3cc816157c1aab9fe,german_fires_monchengladbach_locations__fe9396c38c91f4f3cc816157c1aab9fe
wehnerstrasse,"Wehnerstrasse in Monchengladbach, Germany",51.1959993,6.4195443,1,,,,Pipeline,"Wehnerstrasse in Monchengladbach, Germany",,german_fires_monchengladbach_locations,84f92bbb42fd10e3d9427406519c8a7e,german_fires_monchengladbach_locations__84f92bbb42fd10e3d9427406519c8a7e
bockerkamp,"Bockerkamp in Monchengladbach, Germany",51.2255032,6.4552087,1,,,,News,"Bockerkamp in Monchengladbach, Germany",,german_fires_monchengladbach_locations,d41568e039be89b545d2722bb77e5262,german_fires_monchengladbach_locations__d41568e039be89b545d2722bb77e5262
friesenstrasse,"Friesenstrasse in Monchengladbach, Germany",51.1562312,6.4810931,1,,,,Wells,"Friesenstrasse in Monchengladbach, Germany",,german_fires_monchengladbach_locations,9939f3607eeeba4b770712e0fda92ff3,german_fires_monchengladbach_locations__9939f3607eeeba4b770712e0fda92ff3
muhlenstrasse,"Muhlenstrasse in Monchengladbach, Germany",51.1694284,6.4480212,1,,,,Consulates,"Muhlenstrasse in Monchengladbach, Germany",,german_fires_monchengladbach_locations,57801199b6542518a575488c576555de,german_fires_monchengladbach_locations__57801199b6542518a575488c576555de
steinsstrasse,"Steinsstrasse in Monchengladbach, Germany",51.1492057,6.4468901,1,,,,space,"Steinsstrasse in Monchengladbach, Germany",,german_fires_monchengladbach_locations,d1ceca37586f0dcd05196b83e0af1bf9,german_fires_monchengladbach_locations__d1ceca37586f0dcd05196b83e0af1bf9
burgfreiheit,"Burgfreiheit in Monchengladbach, Germany",51.1342913,6.4526518,1,,,,CompanyKeyword,"Burgfreiheit in Monchengladbach, Germany",,german_fires_monchengladbach_locations,9ead83bb639ca27559b59c1fdf35f064,german_fires_monchengladbach_locations__9ead83bb639ca27559b59c1fdf35f064
hackesstrasse,"Hackesstrasse in Monchengladbach, Germany",51.2255063,6.4438697,1,,,,space,"Hackesstrasse in Monchengladbach, Germany",,german_fires_monchengladbach_locations,881391b2b4f7a102aea663361b20eb05,german_fires_monchengladbach_locations__881391b2b4f7a102aea663361b20eb05
friedrich-ebert-strasse,"Friedrich-Ebert-Strasse in Monchengladbach, Germany",51.1698161,6.4398924,1,,,,Wells,"Friedrich-Ebert-Strasse in Monchengladbach, Germany",,german_fires_monchengladbach_locations,22da9dc32f6084526fa8b6e881ad5731,german_fires_monchengladbach_locations__22da9dc32f6084526fa8b6e881ad5731
broicher strasse,"Broicher Strasse in Monchengladbach, Germany",51.1557493,6.3454418,1,,,,Consulates,"Broicher Strasse in Monchengladbach, Germany",,german_fires_monchengladbach_locations,70979874b93a74dca5af498cc3d9cb7e,german_fires_monchengladbach_locations__70979874b93a74dca5af498cc3d9cb7e
bellstieg,"Bellstieg in Monchengladbach, Germany",51.2004869,6.4474475,1,,,,space,"Bellstieg in Monchengladbach, Germany",,german_fires_monchengladbach_locations,a266a76e757ea0337534e53623098098,german_fires_monchengladbach_locations__a266a76e757ea0337534e53623098098
tackhutte,"Tackhutte in Monchengladbach, Germany",51.1715268,6.480636,1,,,,Refinery,"Tackhutte in Monchengladbach, Germany",,german_fires_monchengladbach_locations,85b090912f40f22729ba02861882a8f0,german_fires_monchengladbach_locations__85b090912f40f22729ba02861882a8f0
bendhutter strasse,"Bendhutter Strasse in Monchengladbach, Germany",51.2207598,6.4728807,1,,,,FTO,"Bendhutter Strasse in Monchengladbach, Germany",,german_fires_monchengladbach_locations,5de34b4d1c01e9491f918946f8da3afd,german_fires_monchengladbach_locations__5de34b4d1c01e9491f918946f8da3afd
pfarrer-orth-weg,"Pfarrer-Orth-Weg in Monchengladbach, Germany",51.1978289,6.3575211,1,,,,Keyphrase,"Pfarrer-Orth-Weg in Monchengladbach, Germany",,german_fires_monchengladbach_locations,23bef367e19f8f47a26e0b04e91bc1b8,german_fires_monchengladbach_locations__23bef367e19f8f47a26e0b04e91bc1b8
hardenbergstrasse,"Hardenbergstrasse in Monchengladbach, Germany",51.1591376,6.4527416,1,,,,Exec,"Hardenbergstrasse in Monchengladbach, Germany",,german_fires_monchengladbach_locations,d10fa8ff06c13288b30f8489533e0277,german_fires_monchengladbach_locations__d10fa8ff06c13288b30f8489533e0277
steinmetzstrasse,"Steinmetzstrasse in Monchengladbach, Germany",51.1974561,6.4424233,1,,,,DiplomaticFacilities,"Steinmetzstrasse in Monchengladbach, Germany",,german_fires_monchengladbach_locations,167ffa82ba7283242d83209b971fe312,german_fires_monchengladbach_locations__167ffa82ba7283242d83209b971fe312
sittardstrasse,"Sittardstrasse in Monchengladbach, Germany",51.1983103,6.4415879,1,,,,Consulates,"Sittardstrasse in Monchengladbach, Germany",,german_fires_monchengladbach_locations,bf77cb14c6d2109c1fcf57c97f9bb1a1,german_fires_monchengladbach_locations__bf77cb14c6d2109c1fcf57c97f9bb1a1
ringesfeldchen,"Ringesfeldchen in Monchengladbach, Germany",51.1666652,6.5266519,1,,,,Media,"Ringesfeldchen in Monchengladbach, Germany",,german_fires_monchengladbach_locations,9f87a32bbe4214510288ae2d63919164,german_fires_monchengladbach_locations__9f87a32bbe4214510288ae2d63919164
schonskanterweg,"Schonskanterweg in Monchengladbach, Germany",51.2156754,6.4820044,1,,,,Diplomat,"Schonskanterweg in Monchengladbach, Germany",,german_fires_monchengladbach_locations,b19a07e296362c8af0cceafc9441f0f2,german_fires_monchengladbach_locations__b19a07e296362c8af0cceafc9441f0f2
im flachsfeld,"Im Flachsfeld in Monchengladbach, Germany",51.1438844,6.4429831,1,,,,ForeignMinister,"Im Flachsfeld in Monchengladbach, Germany",,german_fires_monchengladbach_locations,5ff0ed1f9667141eb13999ff6f703e1c,german_fires_monchengladbach_locations__5ff0ed1f9667141eb13999ff6f703e1c
gelderner strasse,"Gelderner Strasse in Monchengladbach, Germany",51.1371158,6.4196391,1,,,,ForeignMinister,"Gelderner Strasse in Monchengladbach, Germany",,german_fires_monchengladbach_locations,ffc6e0dc5a057a67903f0b3b0afbb674,german_fires_monchengladbach_locations__ffc6e0dc5a057a67903f0b3b0afbb674
schelsenweg,"Schelsenweg in Monchengladbach, Germany",51.1518484,6.4930274,1,,,,AAEntity,"Schelsenweg in Monchengladbach, Germany",,german_fires_monchengladbach_locations,9888ba8b1f5dbe5cf4d8fe718776559a,german_fires_monchengladbach_locations__9888ba8b1f5dbe5cf4d8fe718776559a
annakirchstrasse,"Annakirchstrasse in Monchengladbach, Germany",51.2056329,6.4168626,1,,,,Person,"Annakirchstrasse in Monchengladbach, Germany",,german_fires_monchengladbach_locations,4195d4bbdd00b16fefac395707d24a09,german_fires_monchengladbach_locations__4195d4bbdd00b16fefac395707d24a09
venner strasse,"Venner Strasse in Monchengladbach, Germany",51.2071513,6.3968495,1,,,,ForeignMinister,"Venner Strasse in Monchengladbach, Germany",,german_fires_monchengladbach_locations,b49f9bf52b344156bb3340a87bca24e3,german_fires_monchengladbach_locations__b49f9bf52b344156bb3340a87bca24e3
geistenbecker feld,"Geistenbecker Feld in Monchengladbach, Germany",51.1502198,6.4361989,1,,,,News,"Geistenbecker Feld in Monchengladbach, Germany",,german_fires_monchengladbach_locations,31be0334ab7e4d50acb57ae9c0d41c70,german_fires_monchengladbach_locations__31be0334ab7e4d50acb57ae9c0d41c70
sophienstrasse,"Sophienstrasse in Monchengladbach, Germany",51.1935462,6.4479123,1,,,,Media,"Sophienstrasse in Monchengladbach, Germany",,german_fires_monchengladbach_locations,2dfea7d4fcf303ffe35f9fdd037c2678,german_fires_monchengladbach_locations__2dfea7d4fcf303ffe35f9fdd037c2678
stapper weg,"Stapper Weg in Monchengladbach, Germany",51.1474139,6.440002,1,,,,Diplomat,"Stapper Weg in Monchengladbach, Germany",,german_fires_monchengladbach_locations,2b09894669d044943dcbe4b8014e0339,german_fires_monchengladbach_locations__2b09894669d044943dcbe4b8014e0339
neusser strasse,"Neusser Strasse in Monchengladbach, Germany",51.2040783,6.4744641,1,,,,space,"Neusser Strasse in Monchengladbach, Germany",,german_fires_monchengladbach_locations,e85266a1ea530e2231a2cf4465809a1b,german_fires_monchengladbach_locations__e85266a1ea530e2231a2cf4465809a1b
broseweg,"Broseweg in Monchengladbach, Germany",51.2072153,6.4454609,1,,,,Exec,"Broseweg in Monchengladbach, Germany",,german_fires_monchengladbach_locations,fc4da6d26c4bfdb5d0d466c17725e0f4,german_fires_monchengladbach_locations__fc4da6d26c4bfdb5d0d466c17725e0f4
saarlandallee,"Saarlandallee in Monchengladbach, Germany",51.2038323,6.4320601,1,,,,FTO,"Saarlandallee in Monchengladbach, Germany",,german_fires_monchengladbach_locations,bcdc17ee423d4137e0626d31d1017389,german_fires_monchengladbach_locations__bcdc17ee423d4137e0626d31d1017389
alsstrasse,"Alsstrasse in Monchengladbach, Germany",51.2067686,6.4555302,1,,,,Pipeline,"Alsstrasse in Monchengladbach, Germany",,german_fires_monchengladbach_locations,155541083e0ae24a73cf9bfd7a60582b,german_fires_monchengladbach_locations__155541083e0ae24a73cf9bfd7a60582b
huttendyk,"Huttendyk in Monchengladbach, Germany",51.2275204,6.444986,1,,,,Consulates,"Huttendyk in Monchengladbach, Germany",,german_fires_monchengladbach_locations,85ac8ad85d9efcdc6b2c1899ea9f674e,german_fires_monchengladbach_locations__85ac8ad85d9efcdc6b2c1899ea9f674e
labbstrasse,"Labbstrasse in Monchengladbach, Germany",51.2039295,6.3340371,1,,,,Wells,"Labbstrasse in Monchengladbach, Germany",,german_fires_monchengladbach_locations,134058bf8a1e6f6a3d2de6cb90ad2da0,german_fires_monchengladbach_locations__134058bf8a1e6f6a3d2de6cb90ad2da0
dahlener strasse,"Dahlener Strasse in Monchengladbach, Germany",51.1621588,6.4206026,1,,,,LegislativeCommittee,"Dahlener Strasse in Monchengladbach, Germany",,german_fires_monchengladbach_locations,479b5d8d24b967c34b8a62f8bd1ce010,german_fires_monchengladbach_locations__479b5d8d24b967c34b8a62f8bd1ce010
odenkirchener strasse,"Odenkirchener Strasse in Monchengladbach, Germany",51.1583502,6.4470005,1,,,,Refinery,"Odenkirchener Strasse in Monchengladbach, Germany",,german_fires_monchengladbach_locations,16b44e1eafcfa397558fa500c49adfd5,german_fires_monchengladbach_locations__16b44e1eafcfa397558fa500c49adfd5
broichhausenstrasse,"Broichhausenstrasse in Monchengladbach, Germany",51.1317704,6.4154025,1,,,,Organization,"Broichhausenstrasse in Monchengladbach, Germany",,german_fires_monchengladbach_locations,4290613664790e43d7f4fbe965481282,german_fires_monchengladbach_locations__4290613664790e43d7f4fbe965481282
hochstadenstrasse,"Hochstadenstrasse in Monchengladbach, Germany",51.1314884,6.4188234,1,,,,Keyphrase,"Hochstadenstrasse in Monchengladbach, Germany",,german_fires_monchengladbach_locations,c2858f95190e38638bee9a5cd4f39259,german_fires_monchengladbach_locations__c2858f95190e38638bee9a5cd4f39259
bahnstrasse,"Bahnstrasse in Monchengladbach, Germany",51.1832605,6.4143528,1,,,,IndustryTerm,"Bahnstrasse in Monchengladbach, Germany",,german_fires_monchengladbach_locations,fef00b648e68189721da8a0351b8ce37,german_fires_monchengladbach_locations__fef00b648e68189721da8a0351b8ce37
corresburger weg,"Corresburger Weg in Monchengladbach, Germany",51.1544204,6.5152366,1,,,,DiplomaticFacilities,"Corresburger Weg in Monchengladbach, Germany",,german_fires_monchengladbach_locations,a503cc30d97191eaf09910e7f3660ebc,german_fires_monchengladbach_locations__a503cc30d97191eaf09910e7f3660ebc
theodor-storm-strasse,"Theodor-Storm-Strasse in Monchengladbach, Germany",51.1543088,6.4835452,1,,,,Exec,"Theodor-Storm-Strasse in Monchengladbach, Germany",,german_fires_monchengladbach_locations,4eaf6a5cb43b8be3e97361a773e38cb8,german_fires_monchengladbach_locations__4eaf6a5cb43b8be3e97361a773e38cb8
kamphausener hohe,"Kamphausener Hohe in Monchengladbach, Germany",51.1360157,6.4593858,1,,,,Shipping,"Kamphausener Hohe in Monchengladbach, Germany",,german_fires_monchengladbach_locations,f40b0e4da175aadca0e3bb4da6ba7b7d,german_fires_monchengladbach_locations__f40b0e4da175aadca0e3bb4da6ba7b7d
dammer strasse,"Dammer Strasse in Monchengladbach, Germany",51.2227719,6.4759467,1,,,,Exec,"Dammer Strasse in Monchengladbach, Germany",,german_fires_monchengladbach_locations,a458f7ebd0bcd78409fb11966ce7cc94,german_fires_monchengladbach_locations__a458f7ebd0bcd78409fb11966ce7cc94
pescher strasse,"Pescher Strasse in Monchengladbach, Germany",51.1939161,6.453138,1,,,,space,"Pescher Strasse in Monchengladbach, Germany",,german_fires_monchengladbach_locations,c7114954a9ffa3e90100cc9407199f97,german_fires_monchengladbach_locations__c7114954a9ffa3e90100cc9407199f97
ritterstrasse,"Ritterstrasse in Monchengladbach, Germany",51.1806102,6.4724004,1,,,,ForeignMinistry,"Ritterstrasse in Monchengladbach, Germany",,german_fires_monchengladbach_locations,7567df5ad189ad1268c225907079b5b9,german_fires_monchengladbach_locations__7567df5ad189ad1268c225907079b5b9
baueshutte,"Baueshutte in Monchengladbach, Germany",51.1632703,6.4955557,1,,,,ForeignMinistry,"Baueshutte in Monchengladbach, Germany",,german_fires_monchengladbach_locations,5641205d653601f7daedaf6b82814d61,german_fires_monchengladbach_locations__5641205d653601f7daedaf6b82814d61
in der bungt,"In der Bungt in Monchengladbach, Germany",51.19221,6.4716952,1,,,,Refinery,"In der Bungt in Monchengladbach, Germany",,german_fires_monchengladbach_locations,b6ed62312b6fcf7a45483603bc7d3332,german_fires_monchengladbach_locations__b6ed62312b6fcf7a45483603bc7d3332
theodor-trippel-strasse,"Theodor-Trippel-Strasse in Monchengladbach, Germany",51.123706,6.3949201,1,,,,Refinery,"Theodor-Trippel-Strasse in Monchengladbach, Germany",,german_fires_monchengladbach_locations,fa1957a0c7cab2782972af4b17264b94,german_fires_monchengladbach_locations__fa1957a0c7cab2782972af4b17264b94
geistenbecker strasse,"Geistenbecker Strasse in Monchengladbach, Germany",51.1483195,6.4436341,1,,,,Diplomat,"Geistenbecker Strasse in Monchengladbach, Germany",,german_fires_monchengladbach_locations,4b131a5ce88aa51528b5d9ccacbb9319,german_fires_monchengladbach_locations__4b131a5ce88aa51528b5d9ccacbb9319
ronneterheide,"Ronneterheide in Monchengladbach, Germany",51.1928691,6.3993646,1,,,,Diplomat,"Ronneterheide in Monchengladbach, Germany",,german_fires_monchengladbach_locations,a777440ef9770957d3a7c21ce0bbf20c,german_fires_monchengladbach_locations__a777440ef9770957d3a7c21ce0bbf20c
luisental,"Luisental in Monchengladbach, Germany",51.1461157,6.4462102,1,,,,IndustryTerm,"Luisental in Monchengladbach, Germany",,german_fires_monchengladbach_locations,d6addda7f73b1dee8ec4097c11307e41,german_fires_monchengladbach_locations__d6addda7f73b1dee8ec4097c11307e41
gotzweg,"Gotzweg in Monchengladbach, Germany",51.1517758,6.4427638,1,,,,Wells,"Gotzweg in Monchengladbach, Germany",,german_fires_monchengladbach_locations,fe68bd3278466ee64b1be8f96402fe92,german_fires_monchengladbach_locations__fe68bd3278466ee64b1be8f96402fe92
tomper feld,"Tomper Feld in Monchengladbach, Germany",51.2086335,6.3367998,1,,,,News,"Tomper Feld in Monchengladbach, Germany",,german_fires_monchengladbach_locations,90ade2f188a3e08112ffe5d5ca508eb7,german_fires_monchengladbach_locations__90ade2f188a3e08112ffe5d5ca508eb7
an den fichten,"An den Fichten in Monchengladbach, Germany",51.1383245,6.4429289,1,,,,Exec,"An den Fichten in Monchengladbach, Germany",,german_fires_monchengladbach_locations,22236b7869cdfa2622f6a7f52c8ef85e,german_fires_monchengladbach_locations__22236b7869cdfa2622f6a7f52c8ef85e
johannes-brockers-strasse,"Johannes-Brockers-Strasse in Monchengladbach, Germany",51.2224796,6.4454771,1,,,,space,"Johannes-Brockers-Strasse in Monchengladbach, Germany",,german_fires_monchengladbach_locations,f67231bc88b05e005ab2e80ee21f3b70,german_fires_monchengladbach_locations__f67231bc88b05e005ab2e80ee21f3b70
viersener strasse,"Viersener Strasse in Monchengladbach, Germany",51.2069401,6.4242906,1,,,,CompanyKeyword,"Viersener Strasse in Monchengladbach, Germany",,german_fires_monchengladbach_locations,468e34d05517646df7e3c4158de6bb6a,german_fires_monchengladbach_locations__468e34d05517646df7e3c4158de6bb6a
wanloer strasse,"Wanloer Strasse in Monchengladbach, Germany",51.1080278,6.3842146,1,,,,Consulates,"Wanloer Strasse in Monchengladbach, Germany",,german_fires_monchengladbach_locations,0e320f79489a7d6432dfe70ad035de40,german_fires_monchengladbach_locations__0e320f79489a7d6432dfe70ad035de40
mittelstrasse,"Mittelstrasse in Monchengladbach, Germany",51.1626237,6.4385617,1,,,,Diplomat,"Mittelstrasse in Monchengladbach, Germany",,german_fires_monchengladbach_locations,7d5bf6a986d419369bc988ecadb8235f,german_fires_monchengladbach_locations__7d5bf6a986d419369bc988ecadb8235f
hehnerholt,"Hehnerholt in Monchengladbach, Germany",51.1848033,6.4006233,1,,,,space,"Hehnerholt in Monchengladbach, Germany",,german_fires_monchengladbach_locations,bfdc02d39250db252bf50534310d743b,german_fires_monchengladbach_locations__bfdc02d39250db252bf50534310d743b
dominikus-vraetz-strasse,"Dominikus-Vraetz-Strasse in Monchengladbach, Germany",51.1581479,6.4902518,1,,,,ForeignMinistry,"Dominikus-Vraetz-Strasse in Monchengladbach, Germany",,german_fires_monchengladbach_locations,fd439c618356c987401580ab300513c9,german_fires_monchengladbach_locations__fd439c618356c987401580ab300513c9
schurenweg,"Schurenweg in Monchengladbach, Germany",51.208906,6.4348713,1,,,,Refinery,"Schurenweg in Monchengladbach, Germany",,german_fires_monchengladbach_locations,8da81b0be7f7d0f92555a2f57a669f5c,german_fires_monchengladbach_locations__8da81b0be7f7d0f92555a2f57a669f5c
susanne-beckers-weg,"Susanne-Beckers-Weg in Monchengladbach, Germany",51.1677088,6.3874367,1,,,,Person,"Susanne-Beckers-Weg in Monchengladbach, Germany",,german_fires_monchengladbach_locations,6df1d4aa9c965401df91625f84bb89f0,german_fires_monchengladbach_locations__6df1d4aa9c965401df91625f84bb89f0
kleinenbroicher strasse,"Kleinenbroicher Strasse in Monchengladbach, Germany",51.1576926,6.4918811,1,,,,FTO,"Kleinenbroicher Strasse in Monchengladbach, Germany",,german_fires_monchengladbach_locations,308f336bff096254232ab875390e6472,german_fires_monchengladbach_locations__308f336bff096254232ab875390e6472
stakelberg,"Stakelberg in Monchengladbach, Germany",51.2095401,6.4268788,1,,,,Organization,"Stakelberg in Monchengladbach, Germany",,german_fires_monchengladbach_locations,3b8af720582a4c0d487cb61892fe8ae1,german_fires_monchengladbach_locations__3b8af720582a4c0d487cb61892fe8ae1
mutter-ey-strasse,"Mutter-Ey-Strasse in Monchengladbach, Germany",51.1328986,6.4021587,1,,,,News,"Mutter-Ey-Strasse in Monchengladbach, Germany",,german_fires_monchengladbach_locations,4b27c1d72cd889886a9e8406ea2382e1,german_fires_monchengladbach_locations__4b27c1d72cd889886a9e8406ea2382e1
sandkaule,"Sandkaule in Monchengladbach, Germany",51.2121579,6.4434983,1,,,,DiplomaticFacilities,"Sandkaule in Monchengladbach, Germany",,german_fires_monchengladbach_locations,da284beb40bfbf49d123d28a71056b14,german_fires_monchengladbach_locations__da284beb40bfbf49d123d28a71056b14
elisabeth-selbert-weg,"Elisabeth-Selbert-Weg in Monchengladbach, Germany",51.2050097,6.4588827,1,,,,Pipeline,"Elisabeth-Selbert-Weg in Monchengladbach, Germany",,german_fires_monchengladbach_locations,6e2396129f5a598142c9374435344061,german_fires_monchengladbach_locations__6e2396129f5a598142c9374435344061
oststrasse,"Oststrasse in Monchengladbach, Germany",51.1894834,6.4476381,1,,,,Wells,"Oststrasse in Monchengladbach, Germany",,german_fires_monchengladbach_locations,47e7766510c9fff6d2f22efbfaa3c490,german_fires_monchengladbach_locations__47e7766510c9fff6d2f22efbfaa3c490
lurriper strasse,"Lurriper Strasse in Monchengladbach, Germany",51.1995111,6.459018,1,,,,IndustryTerm,"Lurriper Strasse in Monchengladbach, Germany",,german_fires_monchengladbach_locations,6d13a306778c255ccfc69300b71ea3d6,german_fires_monchengladbach_locations__6d13a306778c255ccfc69300b71ea3d6
antonie-boetzelen-ring,"Antonie-Boetzelen-Ring in Monchengladbach, Germany",51.1662356,6.3885204,1,,,,AAEntity,"Antonie-Boetzelen-Ring in Monchengladbach, Germany",,german_fires_monchengladbach_locations,eacd6b3b66391cf57eac899b8b3cfd78,german_fires_monchengladbach_locations__eacd6b3b66391cf57eac899b8b3cfd78
leibnizstrasse,"Leibnizstrasse in Monchengladbach, Germany",51.1893259,6.4267243,1,,,,FTO,"Leibnizstrasse in Monchengladbach, Germany",,german_fires_monchengladbach_locations,7864c559727ba27d95ccf007413f5d91,german_fires_monchengladbach_locations__7864c559727ba27d95ccf007413f5d91
kaldenkirchener strasse,"Kaldenkirchener Strasse in Monchengladbach, Germany",51.2136889,6.4338582,1,,,,Organization,"Kaldenkirchener Strasse in Monchengladbach, Germany",,german_fires_monchengladbach_locations,046e138a14ea0b3b6e21952fb4366b8f,german_fires_monchengladbach_locations__046e138a14ea0b3b6e21952fb4366b8f
mulgaustrasse,"Mulgaustrasse in Monchengladbach, Germany",51.1446916,6.4564685,1,,,,Exec,"Mulgaustrasse in Monchengladbach, Germany",,german_fires_monchengladbach_locations,c34bc8e4ed8e5725267d69a03ba4a14a,german_fires_monchengladbach_locations__c34bc8e4ed8e5725267d69a03ba4a14a
rheydter strasse,"Rheydter Strasse in Monchengladbach, Germany",51.1820919,6.4402886,1,,,,Shipping,"Rheydter Strasse in Monchengladbach, Germany",,german_fires_monchengladbach_locations,e6addc85c766974b9fb2045b641a2d3f,german_fires_monchengladbach_locations__e6addc85c766974b9fb2045b641a2d3f
trompeterallee,"Trompeterallee in Monchengladbach, Germany",51.1392221,6.4101959,1,,,,Media,"Trompeterallee in Monchengladbach, Germany",,german_fires_monchengladbach_locations,bf4a759d45631238f5e24bd7e02d93e2,german_fires_monchengladbach_locations__bf4a759d45631238f5e24bd7e02d93e2
sasserather feld,"Sasserather Feld in Monchengladbach, Germany",51.1233201,6.4616425,1,,,,DiplomaticFacilities,"Sasserather Feld in Monchengladbach, Germany",,german_fires_monchengladbach_locations,ae2294467ae2766e17d66eba8ea41903,german_fires_monchengladbach_locations__ae2294467ae2766e17d66eba8ea41903
geneickener strasse,"Geneickener Strasse in Monchengladbach, Germany",51.1747647,6.4688918,1,,,,ForeignMinister,"Geneickener Strasse in Monchengladbach, Germany",,german_fires_monchengladbach_locations,0547b8d56c6a4cf89ee47e6ee4a94a4c,german_fires_monchengladbach_locations__0547b8d56c6a4cf89ee47e6ee4a94a4c
rasseln,"Rasseln in Monchengladbach, Germany",51.2191076,6.3641512,1,,,,Person,"Rasseln in Monchengladbach, Germany",,german_fires_monchengladbach_locations,64109ed47654d816ccc9d9fe8072d762,german_fires_monchengladbach_locations__64109ed47654d816ccc9d9fe8072d762
hermann-noell-strasse,"Hermann-Noell-Strasse in Monchengladbach, Germany",51.1241729,6.3887452,1,,,,Diplomat,"Hermann-Noell-Strasse in Monchengladbach, Germany",,german_fires_monchengladbach_locations,0e66b0098b8faabdd91c1177c70bb6f4,german_fires_monchengladbach_locations__0e66b0098b8faabdd91c1177c70bb6f4
stiegerfeldstrasse,"Stiegerfeldstrasse in Monchengladbach, Germany",51.1851718,6.4617774,1,,,,Media,"Stiegerfeldstrasse in Monchengladbach, Germany",,german_fires_monchengladbach_locations,9fcea8bd6a06df29b26e7fd7fde27d5a,german_fires_monchengladbach_locations__9fcea8bd6a06df29b26e7fd7fde27d5a
eichendorffweg,"Eichendorffweg in Monchengladbach, Germany",51.1391691,6.4038102,1,,,,Pipeline,"Eichendorffweg in Monchengladbach, Germany",,german_fires_monchengladbach_locations,82da39e2bf94ed7eec33f2b4e22020b1,german_fires_monchengladbach_locations__82da39e2bf94ed7eec33f2b4e22020b1
holter kreuz,"Holter Kreuz in Monchengladbach, Germany",51.1850785,6.3972211,1,,,,Wells,"Holter Kreuz in Monchengladbach, Germany",,german_fires_monchengladbach_locations,2cb097c7d5a3b79117831d823a340ef4,german_fires_monchengladbach_locations__2cb097c7d5a3b79117831d823a340ef4
charlottenstrasse,"Charlottenstrasse in Monchengladbach, Germany",51.1926826,6.4548725,1,,,,Wells,"Charlottenstrasse in Monchengladbach, Germany",,german_fires_monchengladbach_locations,fba245a442d2f6f86a81d76b1314e260,german_fires_monchengladbach_locations__fba245a442d2f6f86a81d76b1314e260
schroffstrasse,"Schroffstrasse in Monchengladbach, Germany",51.1465702,6.4356977,1,,,,Consulates,"Schroffstrasse in Monchengladbach, Germany",,german_fires_monchengladbach_locations,471f8d06751849b742a8330b683c243b,german_fires_monchengladbach_locations__471f8d06751849b742a8330b683c243b
am kirschbaum,"Am Kirschbaum in Monchengladbach, Germany",51.1961795,6.3436222,1,,,,Consulates,"Am Kirschbaum in Monchengladbach, Germany",,german_fires_monchengladbach_locations,0660ed069b48d72ef3595bb6c12234b0,german_fires_monchengladbach_locations__0660ed069b48d72ef3595bb6c12234b0
hardterbroicher strasse,"Hardterbroicher Strasse in Monchengladbach, Germany",51.1876546,6.4620013,1,,,,LegislativeCommittee,"Hardterbroicher Strasse in Monchengladbach, Germany",,german_fires_monchengladbach_locations,62575cceb0059a05c37e6c4060d4b92c,german_fires_monchengladbach_locations__62575cceb0059a05c37e6c4060d4b92c
gladbacher strasse,"Gladbacher Strasse in Monchengladbach, Germany",51.1627026,6.3755835,1,,,,Organization,"Gladbacher Strasse in Monchengladbach, Germany",,german_fires_monchengladbach_locations,ae98f392240036be07c45aa918a3c22e,german_fires_monchengladbach_locations__ae98f392240036be07c45aa918a3c22e
kloetersgasse,"Kloetersgasse in Monchengladbach, Germany",51.1676282,6.4396173,1,,,,Legislator,"Kloetersgasse in Monchengladbach, Germany",,german_fires_monchengladbach_locations,56fda81af8e7801265dba66892fe7046,german_fires_monchengladbach_locations__56fda81af8e7801265dba66892fe7046
kurt-jacobi-strasse,"Kurt-Jacobi-Strasse in Monchengladbach, Germany",51.1330044,6.4044595,1,,,,Consulates,"Kurt-Jacobi-Strasse in Monchengladbach, Germany",,german_fires_monchengladbach_locations,f3ff3ad3ed2f86c1b5d20a0ce1e615b5,german_fires_monchengladbach_locations__f3ff3ad3ed2f86c1b5d20a0ce1e615b5
nachtigallenweg,"Nachtigallenweg in Monchengladbach, Germany",51.1996561,6.4858397,1,,,,AAEntity,"Nachtigallenweg in Monchengladbach, Germany",,german_fires_monchengladbach_locations,cbf345ad9d6b60830cd8c860dac7f681,german_fires_monchengladbach_locations__cbf345ad9d6b60830cd8c860dac7f681
mowenweg,"Mowenweg in Monchengladbach, Germany",51.1546389,6.4138192,1,,,,Legislator,"Mowenweg in Monchengladbach, Germany",,german_fires_monchengladbach_locations,c1af243a73ab7c6b352b8f2ec3288f22,german_fires_monchengladbach_locations__c1af243a73ab7c6b352b8f2ec3288f22
helmut-freuen-ring,"Helmut-Freuen-Ring in Monchengladbach, Germany",51.1748624,6.4349691,1,,,,DiplomaticFacilities,"Helmut-Freuen-Ring in Monchengladbach, Germany",,german_fires_monchengladbach_locations,e28c2d69555bc840017bbd1c7d8e8e41,german_fires_monchengladbach_locations__e28c2d69555bc840017bbd1c7d8e8e41
iltisweg,"Iltisweg in Monchengladbach, Germany",51.1697302,6.4286037,1,,,,News,"Iltisweg in Monchengladbach, Germany",,german_fires_monchengladbach_locations,7fa2cc572479d64e54027fb959717137,german_fires_monchengladbach_locations__7fa2cc572479d64e54027fb959717137
braunsstrasse,"Braunsstrasse in Monchengladbach, Germany",51.2065999,6.4069576,1,,,,Media,"Braunsstrasse in Monchengladbach, Germany",,german_fires_monchengladbach_locations,d374500f0ed7425de014d366c130c496,german_fires_monchengladbach_locations__d374500f0ed7425de014d366c130c496
sasserath,"Sasserath in Monchengladbach, Germany",51.1216219,6.4619544,1,,,,Person,"Sasserath in Monchengladbach, Germany",,german_fires_monchengladbach_locations,e5d456458cb0f44ac9392ec8e042693c,german_fires_monchengladbach_locations__e5d456458cb0f44ac9392ec8e042693c
grossheide,"Grossheide in Monchengladbach, Germany",51.21294,6.417276,1,,,,Media,"Grossheide in Monchengladbach, Germany",,german_fires_monchengladbach_locations,7d179e046974c1cd331e13cba74045a5,german_fires_monchengladbach_locations__7d179e046974c1cd331e13cba74045a5
bleckhutter weg,"Bleckhutter Weg in Monchengladbach, Germany",51.2223868,6.4568226,1,,,,Wells,"Bleckhutter Weg in Monchengladbach, Germany",,german_fires_monchengladbach_locations,a7d4d6cafc15730576c43abdabe57af0,german_fires_monchengladbach_locations__a7d4d6cafc15730576c43abdabe57af0
konstantinstrasse,"Konstantinstrasse in Monchengladbach, Germany",51.1563669,6.4907686,1,,,,Refinery,"Konstantinstrasse in Monchengladbach, Germany",,german_fires_monchengladbach_locations,477060c8f0af18404a6844c678b59f69,german_fires_monchengladbach_locations__477060c8f0af18404a6844c678b59f69
ronneterkamp,"Ronneterkamp in Monchengladbach, Germany",51.1921473,6.3988728,1,,,,Diplomat,"Ronneterkamp in Monchengladbach, Germany",,german_fires_monchengladbach_locations,cd4a1ca38de039b7b027cbaf4899c7f5,german_fires_monchengladbach_locations__cd4a1ca38de039b7b027cbaf4899c7f5
mennrath,"Mennrath in Monchengladbach, Germany",51.1383362,6.3830219,1,,,,Wells,"Mennrath in Monchengladbach, Germany",,german_fires_monchengladbach_locations,8edbfc1394d302841c1f71bcb115bc14,german_fires_monchengladbach_locations__8edbfc1394d302841c1f71bcb115bc14
mulforter zeug,"Mulforter Zeug in Monchengladbach, Germany",51.1439991,6.449302,1,,,,IndustryTerm,"Mulforter Zeug in Monchengladbach, Germany",,german_fires_monchengladbach_locations,051b2542d10f1daf52028c4aabd699eb,german_fires_monchengladbach_locations__051b2542d10f1daf52028c4aabd699eb
gasthausstrasse,"Gasthausstrasse in Monchengladbach, Germany",51.1939302,6.4286897,1,,,,Diplomat,"Gasthausstrasse in Monchengladbach, Germany",,german_fires_monchengladbach_locations,9cd236f271d51c5627e9e624aa16a576,german_fires_monchengladbach_locations__9cd236f271d51c5627e9e624aa16a576
laurentiusplatz,"Laurentiusplatz in Monchengladbach, Germany",51.1325222,6.4506928,1,,,,Keyphrase,"Laurentiusplatz in Monchengladbach, Germany",,german_fires_monchengladbach_locations,80914a6845bd5874f818797aaf53ab99,german_fires_monchengladbach_locations__80914a6845bd5874f818797aaf53ab99
erzbergerstrasse,"Erzbergerstrasse in Monchengladbach, Germany",51.190697,6.4490068,1,,,,Consulates,"Erzbergerstrasse in Monchengladbach, Germany",,german_fires_monchengladbach_locations,d0b4258e496598cedb317bc713e18de2,german_fires_monchengladbach_locations__d0b4258e496598cedb317bc713e18de2
ginsterweg,"Ginsterweg in Monchengladbach, Germany",51.1943379,6.3483427,1,,,,CompanyKeyword,"Ginsterweg in Monchengladbach, Germany",,german_fires_monchengladbach_locations,da5272e780c40f905bcb1bc17f096c80,german_fires_monchengladbach_locations__da5272e780c40f905bcb1bc17f096c80
gerberstrasse,"Gerberstrasse in Monchengladbach, Germany",51.1458468,6.4433304,1,,,,Organization,"Gerberstrasse in Monchengladbach, Germany",,german_fires_monchengladbach_locations,64a10cc4b0fc4ece43d67f0544e83552,german_fires_monchengladbach_locations__64a10cc4b0fc4ece43d67f0544e83552
kohrstrasse,"Kohrstrasse in Monchengladbach, Germany",51.1446258,6.4443311,1,,,,Refinery,"Kohrstrasse in Monchengladbach, Germany",,german_fires_monchengladbach_locations,0c3296f418b671bddf031a1499d011e9,german_fires_monchengladbach_locations__0c3296f418b671bddf031a1499d011e9
sponnradsweg,"Sponnradsweg in Monchengladbach, Germany",51.2051165,6.3445718,1,,,,DiplomaticFacilities,"Sponnradsweg in Monchengladbach, Germany",,german_fires_monchengladbach_locations,a8983b21808deb2793301201cb0f11b3,german_fires_monchengladbach_locations__a8983b21808deb2793301201cb0f11b3
fockestrasse,"Fockestrasse in Monchengladbach, Germany",51.1833459,6.4032383,1,,,,Consulates,"Fockestrasse in Monchengladbach, Germany",,german_fires_monchengladbach_locations,e164c39e302590a7798d5e024c0e8869,german_fires_monchengladbach_locations__e164c39e302590a7798d5e024c0e8869
schrieversberg,"Schrieversberg in Monchengladbach, Germany",51.168103,6.4307103,1,,,,CompanyKeyword,"Schrieversberg in Monchengladbach, Germany",,german_fires_monchengladbach_locations,a9fdbe6c85a29e92c08bcbbaf1a3020b,german_fires_monchengladbach_locations__a9fdbe6c85a29e92c08bcbbaf1a3020b
oberlinstrasse,"Oberlinstrasse in Monchengladbach, Germany",51.1694049,6.4302023,1,,,,ForeignMinister,"Oberlinstrasse in Monchengladbach, Germany",,german_fires_monchengladbach_locations,132d282f007a74a85177bbe84c6f120f,german_fires_monchengladbach_locations__132d282f007a74a85177bbe84c6f120f
wilhelm-strater-strasse,"Wilhelm-Strater-Strasse in Monchengladbach, Germany",51.1699786,6.4418449,1,,,,space,"Wilhelm-Strater-Strasse in Monchengladbach, Germany",,german_fires_monchengladbach_locations,c3601619f765c8a58a7699e6ab6d0797,german_fires_monchengladbach_locations__c3601619f765c8a58a7699e6ab6d0797
ortshof,"Ortshof in Monchengladbach, Germany",51.2190651,6.4544445,1,,,,Media,"Ortshof in Monchengladbach, Germany",,german_fires_monchengladbach_locations,613b03b106ceed87a656cec081020971,german_fires_monchengladbach_locations__613b03b106ceed87a656cec081020971
ehlerstrasse,"Ehlerstrasse in Monchengladbach, Germany",51.2181827,6.4728509,1,,,,Legislator,"Ehlerstrasse in Monchengladbach, Germany",,german_fires_monchengladbach_locations,58b779434e4020e8b0668611773d0795,german_fires_monchengladbach_locations__58b779434e4020e8b0668611773d0795
merowingerstrasse,"Merowingerstrasse in Monchengladbach, Germany",51.1765754,6.469674,1,,,,Shipping,"Merowingerstrasse in Monchengladbach, Germany",,german_fires_monchengladbach_locations,e2a02464cfca6a3a7cef4ed87854f91d,german_fires_monchengladbach_locations__e2a02464cfca6a3a7cef4ed87854f91d
wolfsittard,"Wolfsittard in Monchengladbach, Germany",51.1747858,6.3725418,1,,,,Consulates,"Wolfsittard in Monchengladbach, Germany",,german_fires_monchengladbach_locations,67494385d44f6b7210deda84bc027be8,german_fires_monchengladbach_locations__67494385d44f6b7210deda84bc027be8
kuhlenweg,"Kuhlenweg in Monchengladbach, Germany",51.1546239,6.4393232,1,,,,AAEntity,"Kuhlenweg in Monchengladbach, Germany",,german_fires_monchengladbach_locations,3ad11a81dc71b5e606b808302476c9f7,german_fires_monchengladbach_locations__3ad11a81dc71b5e606b808302476c9f7
grevenbroicher strasse,"Grevenbroicher Strasse in Monchengladbach, Germany",51.1851192,6.4562058,1,,,,AAEntity,"Grevenbroicher Strasse in Monchengladbach, Germany",,german_fires_monchengladbach_locations,069ec92980e4c7ceab112c28c8a72f12,german_fires_monchengladbach_locations__069ec92980e4c7ceab112c28c8a72f12
metzenweg,"Metzenweg in Monchengladbach, Germany",51.2003502,6.4148344,1,,,,News,"Metzenweg in Monchengladbach, Germany",,german_fires_monchengladbach_locations,7f0e7b483c1e5c4a8f475ed17dc58959,german_fires_monchengladbach_locations__7f0e7b483c1e5c4a8f475ed17dc58959
herrather weg,"Herrather Weg in Monchengladbach, Germany",51.1047123,6.3727813,1,,,,Wells,"Herrather Weg in Monchengladbach, Germany",,german_fires_monchengladbach_locations,19c765777ca67a319224c44c634c2836,german_fires_monchengladbach_locations__19c765777ca67a319224c44c634c2836
ronneter,"Ronneter in Monchengladbach, Germany",51.1932696,6.3989004,1,,,,Organization,"Ronneter in Monchengladbach, Germany",,german_fires_monchengladbach_locations,3e6baebbf6857f16bdf47234469fefc9,german_fires_monchengladbach_locations__3e6baebbf6857f16bdf47234469fefc9
hardter strasse,"Hardter Strasse in Monchengladbach, Germany",51.1644666,6.3464862,1,,,,Consulates,"Hardter Strasse in Monchengladbach, Germany",,german_fires_monchengladbach_locations,400f1ca38d0de83038832b6e83357c88,german_fires_monchengladbach_locations__400f1ca38d0de83038832b6e83357c88
am wickrather tor,"Am Wickrather Tor in Monchengladbach, Germany",51.1470277,6.3648031,1,,,,Organization,"Am Wickrather Tor in Monchengladbach, Germany",,german_fires_monchengladbach_locations,9da922c7bfe18e4c39a71981e1e75f0c,german_fires_monchengladbach_locations__9da922c7bfe18e4c39a71981e1e75f0c
neuhofstrasse,"Neuhofstrasse in Monchengladbach, Germany",51.2035952,6.4432785,1,,,,Consulates,"Neuhofstrasse in Monchengladbach, Germany",,german_fires_monchengladbach_locations,327f78c374ad9bd20b176aa12fdabaae,german_fires_monchengladbach_locations__327f78c374ad9bd20b176aa12fdabaae
schwogenstrasse,"Schwogenstrasse in Monchengladbach, Germany",51.205701,6.4402933,1,,,,FTO,"Schwogenstrasse in Monchengladbach, Germany",,german_fires_monchengladbach_locations,5dfca33f74bca813f6a1e326da60da47,german_fires_monchengladbach_locations__5dfca33f74bca813f6a1e326da60da47
an der siep,"An der Siep in Monchengladbach, Germany",51.1632045,6.4830664,1,,,,ForeignMinistry,"An der Siep in Monchengladbach, Germany",,german_fires_monchengladbach_locations,e328a8eb3d21132a68b8c07ef505d610,german_fires_monchengladbach_locations__e328a8eb3d21132a68b8c07ef505d610
loosenweg,"Loosenweg in Monchengladbach, Germany",51.2200444,6.4657069,1,,,,Wells,"Loosenweg in Monchengladbach, Germany",,german_fires_monchengladbach_locations,889631612c9937c3f66d399bec749b35,german_fires_monchengladbach_locations__889631612c9937c3f66d399bec749b35
gingterkamp,"Gingterkamp in Monchengladbach, Germany",51.1719702,6.3993961,1,,,,DiplomaticFacilities,"Gingterkamp in Monchengladbach, Germany",,german_fires_monchengladbach_locations,5b90dffd3fd4db32a2665cfc38bc8cfe,german_fires_monchengladbach_locations__5b90dffd3fd4db32a2665cfc38bc8cfe
alfons-schulz-strasse,"Alfons-Schulz-Strasse in Monchengladbach, Germany",51.2220654,6.450267,1,,,,ForeignMinister,"Alfons-Schulz-Strasse in Monchengladbach, Germany",,german_fires_monchengladbach_locations,9c96982a004420008e13173303a59f45,german_fires_monchengladbach_locations__9c96982a004420008e13173303a59f45
schlossstrasse,"Schlossstrasse in Monchengladbach, Germany",51.1754111,6.469204,1,,,,Person,"Schlossstrasse in Monchengladbach, Germany",,german_fires_monchengladbach_locations,0f690ee1f378206290ccc486dbe1662a,german_fires_monchengladbach_locations__0f690ee1f378206290ccc486dbe1662a
