german_text,caption_text,lat,lon,ranking,default location,default_lat,default_lon,ENTITY_LABEL,name,description,source,source_identifier,global_identifier
abtnaundorf,"Abtnaundorf in Leipzig, Germany",51.3549122,12.4076323,2,"Leipzig, Germany",51.34255642,12.38332883,Legislator,"Abtnaundorf in Leipzig, Germany",,german_fires_lepzig_locations,72179d4d2f93e89b8be9d1f4d4893a3d,german_fires_lepzig_locations__72179d4d2f93e89b8be9d1f4d4893a3d
althen,"Althen in Leipzig, Germany",51.3369791,12.5245542,2,,,,AAEntity,"Althen in Leipzig, Germany",,german_fires_lepzig_locations,18df7913dcb0e5e50fca0b6cb0a97826,german_fires_lepzig_locations__18df7913dcb0e5e50fca0b6cb0a97826
anger,"Anger in Leipzig, Germany",51.3359628,12.4229653,2,,,,News,"Anger in Leipzig, Germany",,german_fires_lepzig_locations,2bb41b145cdaf1d56d25bc8c0931a44d,german_fires_lepzig_locations__2bb41b145cdaf1d56d25bc8c0931a44d
baalsdorf,"Baalsdorf in Leipzig, Germany",51.3247917,12.4895813,2,,,,Shipping,"Baalsdorf in Leipzig, Germany",,german_fires_lepzig_locations,2480cd1094e04c9895ad3fc4a44e8381,german_fires_lepzig_locations__2480cd1094e04c9895ad3fc4a44e8381
barneck,"Barneck in Leipzig, Germany",51.3385738,12.3784615,2,,,,space,"Barneck in Leipzig, Germany",,german_fires_lepzig_locations,62b1db0be1556c806d94b9386fd55242,german_fires_lepzig_locations__62b1db0be1556c806d94b9386fd55242
barneck,"Barneck in Leipzig, Germany",51.3385738,12.3784615,2,,,,Shipping,"Barneck in Leipzig, Germany",,german_fires_lepzig_locations,62b1db0be1556c806d94b9386fd55242,german_fires_lepzig_locations__62b1db0be1556c806d94b9386fd55242
bohlitz,"Bohlitz in Leipzig, Germany",51.3567237,12.2909554,2,,,,ForeignMinistry,"Bohlitz in Leipzig, Germany",,german_fires_lepzig_locations,68f2d5c6ad6262dde8e2c51df7cd6765,german_fires_lepzig_locations__68f2d5c6ad6262dde8e2c51df7cd6765
bosdorf,"Bosdorf in Leipzig, Germany",51.2517613,12.2990641,2,,,,LegislativeCommittee,"Bosdorf in Leipzig, Germany",,german_fires_lepzig_locations,5986732ea4df2027bac5cee9acc070b6,german_fires_lepzig_locations__5986732ea4df2027bac5cee9acc070b6
breitenfeld,"Breitenfeld in Leipzig, Germany",51.4041521,12.3413302,2,,,,Wells,"Breitenfeld in Leipzig, Germany",,german_fires_lepzig_locations,1f914ff34854c3465770d957e3527fec,german_fires_lepzig_locations__1f914ff34854c3465770d957e3527fec
burgaue,"Burgaue in Leipzig, Germany",51.3685521,12.2997466,2,,,,LegislativeCommittee,"Burgaue in Leipzig, Germany",,german_fires_lepzig_locations,bbe1b6bea6e6d3d66e4019d02f5f2e1f,german_fires_lepzig_locations__bbe1b6bea6e6d3d66e4019d02f5f2e1f
burghausen,"Burghausen in Leipzig, Germany",51.3546139,12.2606793,2,,,,Media,"Burghausen in Leipzig, Germany",,german_fires_lepzig_locations,66928005b377949d8836e5a0a6f9cb58,german_fires_lepzig_locations__66928005b377949d8836e5a0a6f9cb58
cleuden,"Cleuden in Leipzig, Germany",51.3396955,12.3730747,2,,,,DiplomaticFacilities,"Cleuden in Leipzig, Germany",,german_fires_lepzig_locations,3a3493539a2db4b1b1ee7ace32d247e0,german_fires_lepzig_locations__3a3493539a2db4b1b1ee7ace32d247e0
connewitz,"Connewitz in Leipzig, Germany",51.3078032,12.375401,2,,,,Wells,"Connewitz in Leipzig, Germany",,german_fires_lepzig_locations,e847f256c865b264db798d6bf06eb165,german_fires_lepzig_locations__e847f256c865b264db798d6bf06eb165
crottendorf,"Crottendorf in Leipzig, Germany",51.3359628,12.4229653,2,,,,ForeignMinister,"Crottendorf in Leipzig, Germany",,german_fires_lepzig_locations,26c22f8014e13d375d467bfbbd12debd,german_fires_lepzig_locations__26c22f8014e13d375d467bfbbd12debd
dobschutz,"Dobschutz in Leipzig, Germany",51.146401,13.272736,2,,,,Shipping,"Dobschutz in Leipzig, Germany",,german_fires_lepzig_locations,254a84535dc4bb66a76409bd22f999c9,german_fires_lepzig_locations__254a84535dc4bb66a76409bd22f999c9
dolitz,"Dolitz in Leipzig, Germany",51.2874168,12.3918998,2,,,,Refinery,"Dolitz in Leipzig, Germany",,german_fires_lepzig_locations,18e09c21c1597070ca617366dba3ebb5,german_fires_lepzig_locations__18e09c21c1597070ca617366dba3ebb5
dolitz,"Dolitz in Leipzig, Germany",51.2874168,12.3918998,2,,,,FTO,"Dolitz in Leipzig, Germany",,german_fires_lepzig_locations,18e09c21c1597070ca617366dba3ebb5,german_fires_lepzig_locations__18e09c21c1597070ca617366dba3ebb5
dosen,"Dosen in Leipzig, Germany",51.2891573,12.4128558,2,,,,Legislator,"Dosen in Leipzig, Germany",,german_fires_lepzig_locations,71e104460f72599668331c8cef985345,german_fires_lepzig_locations__71e104460f72599668331c8cef985345
ehrenberg,"Ehrenberg in Leipzig, Germany",51.3567237,12.2909554,2,,,,Exec,"Ehrenberg in Leipzig, Germany",,german_fires_lepzig_locations,e1e086e361541ec99b68d25bdb366960,german_fires_lepzig_locations__e1e086e361541ec99b68d25bdb366960
engelsdorf,"Engelsdorf in Leipzig, Germany",51.3382024,12.4799296,2,,,,ForeignMinister,"Engelsdorf in Leipzig, Germany",,german_fires_lepzig_locations,71a1b56fc4b12a7104a9c011b4529ec4,german_fires_lepzig_locations__71a1b56fc4b12a7104a9c011b4529ec4
eutritzsch,"Eutritzsch in Leipzig, Germany",51.3731585,12.3864518,2,,,,Consulates,"Eutritzsch in Leipzig, Germany",,german_fires_lepzig_locations,4dd23f34be3f77ff50a8c3a34754e7c8,german_fires_lepzig_locations__4dd23f34be3f77ff50a8c3a34754e7c8
eythra,"Eythra in Leipzig, Germany",51.30676,12.26991,2,,,,Organization,"Eythra in Leipzig, Germany",,german_fires_lepzig_locations,7c4ff911ca58d190c79b44212752432d,german_fires_lepzig_locations__7c4ff911ca58d190c79b44212752432d
flickert,"Flickert in Leipzig, Germany",51.2885404,12.2788018,2,,,,Shipping,"Flickert in Leipzig, Germany",,german_fires_lepzig_locations,15f13b5fa1780e6b64285b1d84955d2c,german_fires_lepzig_locations__15f13b5fa1780e6b64285b1d84955d2c
gobschelwitz,"Gobschelwitz in Leipzig, Germany",51.422475,12.4234179,2,,,,Diplomat,"Gobschelwitz in Leipzig, Germany",,german_fires_lepzig_locations,48a411fadb9738fe336b6d7c05f2b2b9,german_fires_lepzig_locations__48a411fadb9738fe336b6d7c05f2b2b9
gohlis,"Gohlis in Leipzig, Germany",51.364498,12.3678559,2,,,,Refinery,"Gohlis in Leipzig, Germany",,german_fires_lepzig_locations,17e6e4f23c4eea9dedbba6649b45badc,german_fires_lepzig_locations__17e6e4f23c4eea9dedbba6649b45badc
gohrenz,"Gohrenz in Leipzig, Germany",51.2894303,12.2545395,2,,,,ForeignMinistry,"Gohrenz in Leipzig, Germany",,german_fires_lepzig_locations,aae2b6366b16b579e6c45c033842dc38,german_fires_lepzig_locations__aae2b6366b16b579e6c45c033842dc38
gottscheina,"Gottscheina in Leipzig, Germany",51.4265874,12.4842527,2,,,,LegislativeCommittee,"Gottscheina in Leipzig, Germany",,german_fires_lepzig_locations,671548e1841ee05d480ab7d901681c64,german_fires_lepzig_locations__671548e1841ee05d480ab7d901681c64
grossmiltitz,"Grossmiltitz in Leipzig, Germany",51.3396955,12.3730747,2,,,,Pipeline,"Grossmiltitz in Leipzig, Germany",,german_fires_lepzig_locations,4d8e756bc4ad2e714cab2f0ef404eac4,german_fires_lepzig_locations__4d8e756bc4ad2e714cab2f0ef404eac4
grosswiederitzsch,"Grosswiederitzsch in Leipzig, Germany",51.3895728,12.3699438,2,,,,Diplomat,"Grosswiederitzsch in Leipzig, Germany",,german_fires_lepzig_locations,670df6a53702f9aac3dbb64d9cee2b42,german_fires_lepzig_locations__670df6a53702f9aac3dbb64d9cee2b42
grosszschocher,"Grosszschocher in Leipzig, Germany",51.3014611,12.3102421,2,,,,space,"Grosszschocher in Leipzig, Germany",,german_fires_lepzig_locations,76601a5fde5107507d26093f61981a1c,german_fires_lepzig_locations__76601a5fde5107507d26093f61981a1c
grosszschocher,"Grosszschocher in Leipzig, Germany",51.3014611,12.3102421,2,,,,Legislator,"Grosszschocher in Leipzig, Germany",,german_fires_lepzig_locations,76601a5fde5107507d26093f61981a1c,german_fires_lepzig_locations__76601a5fde5107507d26093f61981a1c
gundorf,"Gundorf in Leipzig, Germany",51.3647799,12.2652097,2,,,,Exec,"Gundorf in Leipzig, Germany",,german_fires_lepzig_locations,f8f28cf61bbd3c628a4b084a1de0ab9d,german_fires_lepzig_locations__f8f28cf61bbd3c628a4b084a1de0ab9d
hanichen,"Hanichen in Leipzig, Germany",51.385143,12.2657214,2,,,,Media,"Hanichen in Leipzig, Germany",,german_fires_lepzig_locations,913af060a23dbbca39a77ea5a9172210,german_fires_lepzig_locations__913af060a23dbbca39a77ea5a9172210
hartmannsdorf,"Hartmannsdorf in Leipzig, Germany",51.261618,12.3063565,2,,,,DiplomaticFacilities,"Hartmannsdorf in Leipzig, Germany",,german_fires_lepzig_locations,0e8577910d59cde22ba859f56101eb99,german_fires_lepzig_locations__0e8577910d59cde22ba859f56101eb99
heiterblick,"Heiterblick in Leipzig, Germany",51.3620034,12.4531227,2,,,,Consulates,"Heiterblick in Leipzig, Germany",,german_fires_lepzig_locations,1cf53901a88db30b916175ce5f34cc2f,german_fires_lepzig_locations__1cf53901a88db30b916175ce5f34cc2f
hirschfeld,"Hirschfeld in Leipzig, Germany",51.3244092,12.5273043,2,,,,Consulates,"Hirschfeld in Leipzig, Germany",,german_fires_lepzig_locations,a8fc0d084bfd1afd1abcae010e6b0095,german_fires_lepzig_locations__a8fc0d084bfd1afd1abcae010e6b0095
hohenheida,"Hohenheida in Leipzig, Germany",51.426699,12.4584937,2,,,,ForeignMinister,"Hohenheida in Leipzig, Germany",,german_fires_lepzig_locations,bfa86e772c73527a87017254ab079c5e,german_fires_lepzig_locations__bfa86e772c73527a87017254ab079c5e
holzhausen,"Holzhausen in Leipzig, Germany",51.3074121,12.4780189,2,,,,ForeignMinistry,"Holzhausen in Leipzig, Germany",,german_fires_lepzig_locations,214db149fee55c291e4e1b1ee4cceb5b,german_fires_lepzig_locations__214db149fee55c291e4e1b1ee4cceb5b
kaserne 106 mockern,"Kaserne 106 Mockern in Leipzig, Germany",51.3696188,12.338092,2,,,,Shipping,"Kaserne 106 Mockern in Leipzig, Germany",,german_fires_lepzig_locations,6080117a802396d8b36abbfe6d3b0d43,german_fires_lepzig_locations__6080117a802396d8b36abbfe6d3b0d43
kleinmiltitz,"Kleinmiltitz in Leipzig, Germany",51.3396955,12.3730747,2,,,,Shipping,"Kleinmiltitz in Leipzig, Germany",,german_fires_lepzig_locations,e9ec06cfbc838a400269ef583cab5860,german_fires_lepzig_locations__e9ec06cfbc838a400269ef583cab5860
kleinposna,"Kleinposna in Leipzig, Germany",51.3108525,12.5200181,2,,,,Pipeline,"Kleinposna in Leipzig, Germany",,german_fires_lepzig_locations,c3cb677b3326e4dff2528ac12723d7fe,german_fires_lepzig_locations__c3cb677b3326e4dff2528ac12723d7fe
kleinwiederitzsch,"Kleinwiederitzsch in Leipzig, Germany",51.396489,12.367539,2,,,,CompanyKeyword,"Kleinwiederitzsch in Leipzig, Germany",,german_fires_lepzig_locations,87dbbbedd1c66b36c2257472eca7c4cc,german_fires_lepzig_locations__87dbbbedd1c66b36c2257472eca7c4cc
kleinzschocher,"Kleinzschocher in Leipzig, Germany",51.3159485,12.3240541,2,,,,Diplomat,"Kleinzschocher in Leipzig, Germany",,german_fires_lepzig_locations,26e6a87c4838063747966b143ef38e27,german_fires_lepzig_locations__26e6a87c4838063747966b143ef38e27
kleinzschocher,"Kleinzschocher in Leipzig, Germany",51.3159485,12.3240541,2,,,,Keyphrase,"Kleinzschocher in Leipzig, Germany",,german_fires_lepzig_locations,26e6a87c4838063747966b143ef38e27,german_fires_lepzig_locations__26e6a87c4838063747966b143ef38e27
knauthain,"Knauthain in Leipzig, Germany",51.2717203,12.30709,2,,,,CompanyKeyword,"Knauthain in Leipzig, Germany",,german_fires_lepzig_locations,358de03aa7b9088b1ac2217f049d925b,german_fires_lepzig_locations__358de03aa7b9088b1ac2217f049d925b
knautkleeberg,"Knautkleeberg in Leipzig, Germany",51.2818452,12.310029,2,,,,ForeignMinister,"Knautkleeberg in Leipzig, Germany",,german_fires_lepzig_locations,03dce387c62ebe96409026c12b99a7f3,german_fires_lepzig_locations__03dce387c62ebe96409026c12b99a7f3
knautnaundorf,"Knautnaundorf in Leipzig, Germany",51.2538939,12.271484,2,,,,ForeignMinister,"Knautnaundorf in Leipzig, Germany",,german_fires_lepzig_locations,b5b4b1fdd3970be4a467e624f6a02f71,german_fires_lepzig_locations__b5b4b1fdd3970be4a467e624f6a02f71
kulkwitz,"Kulkwitz in Leipzig, Germany",51.2874716,12.2353804,2,,,,News,"Kulkwitz in Leipzig, Germany",,german_fires_lepzig_locations,00a413ef67e71538ea87ec031e52ce39,german_fires_lepzig_locations__00a413ef67e71538ea87ec031e52ce39
lauer,"Lauer in Leipzig, Germany",51.2716101,12.3408267,2,,,,Person,"Lauer in Leipzig, Germany",,german_fires_lepzig_locations,4b4a223d1cfe2485b9bdd51e043a027a,german_fires_lepzig_locations__4b4a223d1cfe2485b9bdd51e043a027a
lausen,"Lausen in Leipzig, Germany",51.3074032,12.2543062,2,,,,Wells,"Lausen in Leipzig, Germany",,german_fires_lepzig_locations,3e58e041a107120a07081a75966af333,german_fires_lepzig_locations__3e58e041a107120a07081a75966af333
leutzsch,"Leutzsch in Leipzig, Germany",51.353743,12.3189719,2,,,,Legislator,"Leutzsch in Leipzig, Germany",,german_fires_lepzig_locations,39fa4a915ebdf62c50cb0347a99b501e,german_fires_lepzig_locations__39fa4a915ebdf62c50cb0347a99b501e
leutzsch,"Leutzsch in Leipzig, Germany",51.353743,12.3189719,2,,,,Person,"Leutzsch in Leipzig, Germany",,german_fires_lepzig_locations,39fa4a915ebdf62c50cb0347a99b501e,german_fires_lepzig_locations__39fa4a915ebdf62c50cb0347a99b501e
liebertwolkwitz,"Liebertwolkwitz in Leipzig, Germany",51.2802496,12.4692059,2,,,,Legislator,"Liebertwolkwitz in Leipzig, Germany",,german_fires_lepzig_locations,32e36cecead4185044c084fe89759fdf,german_fires_lepzig_locations__32e36cecead4185044c084fe89759fdf
lindenau,"Lindenau in Leipzig, Germany",51.3326403,12.3296974,2,,,,ForeignMinistry,"Lindenau in Leipzig, Germany",,german_fires_lepzig_locations,f0a1de455a9e0ff2a172367b6f8bf23d,german_fires_lepzig_locations__f0a1de455a9e0ff2a172367b6f8bf23d
lindenthal,"Lindenthal in Leipzig, Germany",51.3927717,12.3286742,2,,,,space,"Lindenthal in Leipzig, Germany",,german_fires_lepzig_locations,11779640ea558527d64d632b37ae5d3a,german_fires_lepzig_locations__11779640ea558527d64d632b37ae5d3a
lossnig,"Lossnig in Leipzig, Germany",51.2975654,12.3964701,2,,,,CompanyKeyword,"Lossnig in Leipzig, Germany",,german_fires_lepzig_locations,589463435ca900de2c83d6a0e44d6c4f,german_fires_lepzig_locations__589463435ca900de2c83d6a0e44d6c4f
lossnig,"Lossnig in Leipzig, Germany",51.2975654,12.3964701,2,,,,DiplomaticFacilities,"Lossnig in Leipzig, Germany",,german_fires_lepzig_locations,589463435ca900de2c83d6a0e44d6c4f,german_fires_lepzig_locations__589463435ca900de2c83d6a0e44d6c4f
lusitz,"Lusitz in Leipzig, Germany",51.3385738,12.3784615,2,,,,FTO,"Lusitz in Leipzig, Germany",,german_fires_lepzig_locations,af1265a614e0a7fa6932672c20a19e94,german_fires_lepzig_locations__af1265a614e0a7fa6932672c20a19e94
lutzschena,"Lutzschena in Leipzig, Germany",51.3820013,12.2858938,2,,,,Legislator,"Lutzschena in Leipzig, Germany",,german_fires_lepzig_locations,aae1fd811b0722c47bba003ef2ab7629,german_fires_lepzig_locations__aae1fd811b0722c47bba003ef2ab7629
meusdorf,"Meusdorf in Leipzig, Germany",51.2894367,12.4349963,2,,,,Refinery,"Meusdorf in Leipzig, Germany",,german_fires_lepzig_locations,fbe218108fb4b653062153da3c7eca38,german_fires_lepzig_locations__fbe218108fb4b653062153da3c7eca38
meusdorf,"Meusdorf in Leipzig, Germany",51.2894367,12.4349963,2,,,,IndustryTerm,"Meusdorf in Leipzig, Germany",,german_fires_lepzig_locations,fbe218108fb4b653062153da3c7eca38,german_fires_lepzig_locations__fbe218108fb4b653062153da3c7eca38
mockau,"Mockau in Leipzig, Germany",51.3868977,12.4073537,2,,,,DiplomaticFacilities,"Mockau in Leipzig, Germany",,german_fires_lepzig_locations,502ed6d9b3991ea85d76426e0386d5e5,german_fires_lepzig_locations__502ed6d9b3991ea85d76426e0386d5e5
mockern,"Mockern in Leipzig, Germany",51.3696188,12.338092,2,,,,Pipeline,"Mockern in Leipzig, Germany",,german_fires_lepzig_locations,d13be6771918d7ca3a0d0034c55bc067,german_fires_lepzig_locations__d13be6771918d7ca3a0d0034c55bc067
mockern,"Mockern in Leipzig, Germany",51.3696188,12.338092,2,,,,Pipeline,"Mockern in Leipzig, Germany",,german_fires_lepzig_locations,d13be6771918d7ca3a0d0034c55bc067,german_fires_lepzig_locations__d13be6771918d7ca3a0d0034c55bc067
molkau,"Molkau in Leipzig, Germany",51.3300829,12.440517,2,,,,Pipeline,"Molkau in Leipzig, Germany",,german_fires_lepzig_locations,436aee78fa71829de0570032f9d0f954,german_fires_lepzig_locations__436aee78fa71829de0570032f9d0f954
neblitz,"Neblitz in Leipzig, Germany",51.4433278,12.4642484,2,,,,Diplomat,"Neblitz in Leipzig, Germany",,german_fires_lepzig_locations,b795b01db9887d5a9968cc09f35bbbc1,german_fires_lepzig_locations__b795b01db9887d5a9968cc09f35bbbc1
neureudnitz,"Neureudnitz in Leipzig, Germany",51.3385738,12.3784615,2,,,,Wells,"Neureudnitz in Leipzig, Germany",,german_fires_lepzig_locations,21e9e3d894583fd5e6741447e0355a84,german_fires_lepzig_locations__21e9e3d894583fd5e6741447e0355a84
neuscherbitz,"Neuscherbitz in Leipzig, Germany",51.3385738,12.3784615,2,,,,ForeignMinister,"Neuscherbitz in Leipzig, Germany",,german_fires_lepzig_locations,b0e3e0bfe040855a88ba1570870ed4a9,german_fires_lepzig_locations__b0e3e0bfe040855a88ba1570870ed4a9
neusellerhausen,"Neusellerhausen in Leipzig, Germany",51.3385738,12.3784615,2,,,,space,"Neusellerhausen in Leipzig, Germany",,german_fires_lepzig_locations,9a16a908701232e688b48e1846042a25,german_fires_lepzig_locations__9a16a908701232e688b48e1846042a25
neuschonefeld,"Neuschonefeld in Leipzig, Germany",51.3411346,12.3995831,2,,,,space,"Neuschonefeld in Leipzig, Germany",,german_fires_lepzig_locations,2a21b5774cae9f37a85e50e31788ad43,german_fires_lepzig_locations__2a21b5774cae9f37a85e50e31788ad43
neustadt,"Neustadt in Leipzig, Germany",51.3467535,12.4030344,2,,,,Consulates,"Neustadt in Leipzig, Germany",,german_fires_lepzig_locations,bbf2e8c1cbe319f75032dc5538afc7b5,german_fires_lepzig_locations__bbf2e8c1cbe319f75032dc5538afc7b5
neutzsch,"Neutzsch in Leipzig, Germany",51.3396955,12.3730747,2,,,,News,"Neutzsch in Leipzig, Germany",,german_fires_lepzig_locations,7c737d2c82712732d8c51d454d729add,german_fires_lepzig_locations__7c737d2c82712732d8c51d454d729add
paunsdorf,"Paunsdorf in Leipzig, Germany",51.3539553,12.4660314,2,,,,AAEntity,"Paunsdorf in Leipzig, Germany",,german_fires_lepzig_locations,4fd78390b32e47ba0dfa26a868453367,german_fires_lepzig_locations__4fd78390b32e47ba0dfa26a868453367
paunsdorf,"Paunsdorf in Leipzig, Germany",51.3539553,12.4660314,2,,,,Person,"Paunsdorf in Leipzig, Germany",,german_fires_lepzig_locations,4fd78390b32e47ba0dfa26a868453367,german_fires_lepzig_locations__4fd78390b32e47ba0dfa26a868453367
petzscher mark,"Petzscher Mark in Leipzig, Germany",51.3605799,12.3822408,2,,,,CompanyKeyword,"Petzscher Mark in Leipzig, Germany",,german_fires_lepzig_locations,6bf56c35445160e0256828d19a336b06,german_fires_lepzig_locations__6bf56c35445160e0256828d19a336b06
pfaffendorf,"Pfaffendorf in Leipzig, Germany",51.3385738,12.3784615,2,,,,Legislator,"Pfaffendorf in Leipzig, Germany",,german_fires_lepzig_locations,a5f80716ed125d48191a0e6887b67e13,german_fires_lepzig_locations__a5f80716ed125d48191a0e6887b67e13
plagwitz,"Plagwitz in Leipzig, Germany",51.3261051,12.3286031,2,,,,IndustryTerm,"Plagwitz in Leipzig, Germany",,german_fires_lepzig_locations,c0b7d9f4e6bcdc66b8e2cbcdcfb98bb4,german_fires_lepzig_locations__c0b7d9f4e6bcdc66b8e2cbcdcfb98bb4
plaussig,"Plaussig in Leipzig, Germany",51.3946945,12.4587283,2,,,,space,"Plaussig in Leipzig, Germany",,german_fires_lepzig_locations,6f81d9193ddccb911037a54e9dfcdbeb,german_fires_lepzig_locations__6f81d9193ddccb911037a54e9dfcdbeb
plosen,"Plosen in Leipzig, Germany",38.8867076,-77.0326074,2,,,,IndustryTerm,"Plosen in Leipzig, Germany",,german_fires_lepzig_locations,307ad0e3f5c5364f5a7e6fdb4c9af973,german_fires_lepzig_locations__307ad0e3f5c5364f5a7e6fdb4c9af973
portitz,"Portitz in Leipzig, Germany",51.3946945,12.4587283,2,,,,Organization,"Portitz in Leipzig, Germany",,german_fires_lepzig_locations,48768711e6e19c088f3e350eb858feac,german_fires_lepzig_locations__48768711e6e19c088f3e350eb858feac
probstheida,"Probstheida in Leipzig, Germany",51.3047071,12.4290486,2,,,,IndustryTerm,"Probstheida in Leipzig, Germany",,german_fires_lepzig_locations,8d27ab2cae82e2bedf53738b6d02a1c2,german_fires_lepzig_locations__8d27ab2cae82e2bedf53738b6d02a1c2
quasnitz,"Quasnitz in Leipzig, Germany",51.3844654,12.2758876,2,,,,FTO,"Quasnitz in Leipzig, Germany",,german_fires_lepzig_locations,3b6aa7e637930e746409e9f03a7d00a5,german_fires_lepzig_locations__3b6aa7e637930e746409e9f03a7d00a5
rehbach,"Rehbach in Leipzig, Germany",51.2688972,12.2664275,2,,,,LegislativeCommittee,"Rehbach in Leipzig, Germany",,german_fires_lepzig_locations,76dbde63176ba41e0afa0c31fd8956f5,german_fires_lepzig_locations__76dbde63176ba41e0afa0c31fd8956f5
reudnitz,"Reudnitz in Leipzig, Germany",51.3327667,12.4031568,2,,,,space,"Reudnitz in Leipzig, Germany",,german_fires_lepzig_locations,c25379876f5c46abc962f5ae3651657a,german_fires_lepzig_locations__c25379876f5c46abc962f5ae3651657a
rosental,"Rosental in Leipzig, Germany",51.3492999,12.3635452,2,,,,Exec,"Rosental in Leipzig, Germany",,german_fires_lepzig_locations,00cca4c46c180c8d52de83187af267dc,german_fires_lepzig_locations__00cca4c46c180c8d52de83187af267dc
ruckmarsdorf,"Ruckmarsdorf in Leipzig, Germany",51.3371414,12.274882,2,,,,FTO,"Ruckmarsdorf in Leipzig, Germany",,german_fires_lepzig_locations,0747abbd640c94773464ab595bbe8ae7,german_fires_lepzig_locations__0747abbd640c94773464ab595bbe8ae7
schleussig,"Schleussig in Leipzig, Germany",51.3187862,12.347325,2,,,,Organization,"Schleussig in Leipzig, Germany",,german_fires_lepzig_locations,b988d476e9b2c491bc464d075e9f4b19,german_fires_lepzig_locations__b988d476e9b2c491bc464d075e9f4b19
schonau,"Schonau in Leipzig, Germany",51.3298309,12.2936089,2,,,,Pipeline,"Schonau in Leipzig, Germany",,german_fires_lepzig_locations,c288b298b255c20e58c43789b831c8a1,german_fires_lepzig_locations__c288b298b255c20e58c43789b831c8a1
schonefeld,"Schonefeld in Leipzig, Germany",51.3628098,12.4332571,2,,,,Refinery,"Schonefeld in Leipzig, Germany",,german_fires_lepzig_locations,a9df6f83c0f678481aeb14a5e5ddf557,german_fires_lepzig_locations__a9df6f83c0f678481aeb14a5e5ddf557
seehausen,"Seehausen in Leipzig, Germany",51.4061849,12.4186447,2,,,,Diplomat,"Seehausen in Leipzig, Germany",,german_fires_lepzig_locations,e78ddc241a8d45633bb857e2585356a4,german_fires_lepzig_locations__e78ddc241a8d45633bb857e2585356a4
sellerhausen,"Sellerhausen in Leipzig, Germany",51.3475751,12.4263725,2,,,,Media,"Sellerhausen in Leipzig, Germany",,german_fires_lepzig_locations,690776b03fb907c28cb769d88812fd9a,german_fires_lepzig_locations__690776b03fb907c28cb769d88812fd9a
sommerfeld,"Sommerfeld in Leipzig, Germany",51.3450915,12.4988022,2,,,,Wells,"Sommerfeld in Leipzig, Germany",,german_fires_lepzig_locations,d5e70c1de85639ad261cf463a6cdb5b3,german_fires_lepzig_locations__d5e70c1de85639ad261cf463a6cdb5b3
stahmeln,"Stahmeln in Leipzig, Germany",51.3820013,12.2858938,2,,,,News,"Stahmeln in Leipzig, Germany",,german_fires_lepzig_locations,433962e3ef6a43e4bd986ed3186d38d9,german_fires_lepzig_locations__433962e3ef6a43e4bd986ed3186d38d9
stotteritz,"Stotteritz in Leipzig, Germany",51.3214381,12.421917,2,,,,CompanyKeyword,"Stotteritz in Leipzig, Germany",,german_fires_lepzig_locations,f3f6bc2bbb296311b25a02edbeea5e17,german_fires_lepzig_locations__f3f6bc2bbb296311b25a02edbeea5e17
stunz,"Stunz in Leipzig, Germany",51.3409901,12.4380989,2,,,,Shipping,"Stunz in Leipzig, Germany",,german_fires_lepzig_locations,538c1cdb2293aaf6d8db8a12290ac03b,german_fires_lepzig_locations__538c1cdb2293aaf6d8db8a12290ac03b
thonberg,"Thonberg in Leipzig, Germany",51.3214857,12.4090863,2,,,,Keyphrase,"Thonberg in Leipzig, Germany",,german_fires_lepzig_locations,7cdab9a8d042801c71bb6d88c0783f01,german_fires_lepzig_locations__7cdab9a8d042801c71bb6d88c0783f01
volkmarsdorf,"Volkmarsdorf in Leipzig, Germany",51.3454607,12.408881,2,,,,FTO,"Volkmarsdorf in Leipzig, Germany",,german_fires_lepzig_locations,4f26d632cb2b959cbd51c4e38bc35666,german_fires_lepzig_locations__4f26d632cb2b959cbd51c4e38bc35666
wahren,"Wahren in Leipzig, Germany",51.3759892,12.3168477,2,,,,space,"Wahren in Leipzig, Germany",,german_fires_lepzig_locations,d0a5c5847774089451768f50808f262f,german_fires_lepzig_locations__d0a5c5847774089451768f50808f262f
windorf,"Windorf in Leipzig, Germany",51.2941841,12.3161443,2,,,,IndustryTerm,"Windorf in Leipzig, Germany",,german_fires_lepzig_locations,2a2e4374c85b8b40a56d4f76835b12cf,german_fires_lepzig_locations__2a2e4374c85b8b40a56d4f76835b12cf
zuckelhausen,"Zuckelhausen in Leipzig, Germany",51.3016913,12.4570592,2,,,,Organization,"Zuckelhausen in Leipzig, Germany",,german_fires_lepzig_locations,c0b4cf4d005a4ab51bfedc3e5a7c8e5b,german_fires_lepzig_locations__c0b4cf4d005a4ab51bfedc3e5a7c8e5b
zweinaundorf,"Zweinaundorf in Leipzig, Germany",51.3234982,12.4522363,2,,,,Pipeline,"Zweinaundorf in Leipzig, Germany",,german_fires_lepzig_locations,a120852239657d64fcc452c3f80f8f2b,german_fires_lepzig_locations__a120852239657d64fcc452c3f80f8f2b
aachener strasse,"Aachener Strasse in Leipzig, Germany",51.3395235,12.3568627,1,,,,IndustryTerm,"Aachener Strasse in Leipzig, Germany",,german_fires_lepzig_locations,aebf408e903ab74b9ba091f0d4411127,german_fires_lepzig_locations__aebf408e903ab74b9ba091f0d4411127
abrahamstrasse,"Abrahamstrasse in Leipzig, Germany",51.3357197,12.3060206,1,,,,Wells,"Abrahamstrasse in Leipzig, Germany",,german_fires_lepzig_locations,17ce60b132e2c779cdef287415ee4311,german_fires_lepzig_locations__17ce60b132e2c779cdef287415ee4311
abtnaundorfer strasse,"Abtnaundorfer Strasse in Leipzig, Germany",51.365831,12.4196092,1,,,,Person,"Abtnaundorfer Strasse in Leipzig, Germany",,german_fires_lepzig_locations,ff72e02741dd9bf8f06e44cdfdb6f3fc,german_fires_lepzig_locations__ff72e02741dd9bf8f06e44cdfdb6f3fc
achatstrasse,"Achatstrasse in Leipzig, Germany",51.3395499,12.4810576,1,,,,space,"Achatstrasse in Leipzig, Germany",,german_fires_lepzig_locations,6bd40c5eb0293d2b22993f2ecdb2f22c,german_fires_lepzig_locations__6bd40c5eb0293d2b22993f2ecdb2f22c
ackerweg,"Ackerweg in Leipzig, Germany",51.3818933,12.4717709,1,,,,Person,"Ackerweg in Leipzig, Germany",,german_fires_lepzig_locations,f6cf2c17a96e4b0a55bec44977e67553,german_fires_lepzig_locations__f6cf2c17a96e4b0a55bec44977e67553
adamsweg,"Adamsweg in Leipzig, Germany",51.303444,12.438327,1,,,,Organization,"Adamsweg in Leipzig, Germany",,german_fires_lepzig_locations,44b1c18e13ff216101de333de129226d,german_fires_lepzig_locations__44b1c18e13ff216101de333de129226d
addis-abeba-platz,"Addis-Abeba-Platz in Leipzig, Germany",51.3344345,12.3791648,1,,,,News,"Addis-Abeba-Platz in Leipzig, Germany",,german_fires_lepzig_locations,bff95f98234c6edd4d51e6ea96bedd58,german_fires_lepzig_locations__bff95f98234c6edd4d51e6ea96bedd58
adelgunde-gottsched-weg,"Adelgunde-Gottsched-Weg in Leipzig, Germany",51.3511541,12.4833855,1,,,,Pipeline,"Adelgunde-Gottsched-Weg in Leipzig, Germany",,german_fires_lepzig_locations,a81e1f8453dde78b4ecd5b054de3deff,german_fires_lepzig_locations__a81e1f8453dde78b4ecd5b054de3deff
adenauerallee,"Adenauerallee in Leipzig, Germany",51.350097,12.4096242,1,,,,Refinery,"Adenauerallee in Leipzig, Germany",,german_fires_lepzig_locations,05637617a273b65ea40da5a7a4388eea,german_fires_lepzig_locations__05637617a273b65ea40da5a7a4388eea
adlershelmstrasse,"Adlershelmstrasse in Leipzig, Germany",51.3392132,12.4143137,1,,,,Consulates,"Adlershelmstrasse in Leipzig, Germany",,german_fires_lepzig_locations,41bf116533fee6af7232db934cd21fe0,german_fires_lepzig_locations__41bf116533fee6af7232db934cd21fe0
adolf-damaschke-strasse,"Adolf-Damaschke-Strasse in Leipzig, Germany",51.3371577,12.4791601,1,,,,Media,"Adolf-Damaschke-Strasse in Leipzig, Germany",,german_fires_lepzig_locations,311e6c1ee81f9532ad2c28af81d326cb,german_fires_lepzig_locations__311e6c1ee81f9532ad2c28af81d326cb
adolf-koppe-strasse,"Adolf-Koppe-Strasse in Leipzig, Germany",51.3237546,12.4557969,1,,,,space,"Adolf-Koppe-Strasse in Leipzig, Germany",,german_fires_lepzig_locations,fd294956d598260dfc189e1aedd1ece5,german_fires_lepzig_locations__fd294956d598260dfc189e1aedd1ece5
adolph-menzel-strasse,"Adolph-Menzel-Strasse in Leipzig, Germany",51.3694779,12.3714065,1,,,,ForeignMinister,"Adolph-Menzel-Strasse in Leipzig, Germany",,german_fires_lepzig_locations,90dfbf944478f31615e0640cf2efe814,german_fires_lepzig_locations__90dfbf944478f31615e0640cf2efe814
agnesstrasse,"Agnesstrasse in Leipzig, Germany",51.3715104,12.3300912,1,,,,Pipeline,"Agnesstrasse in Leipzig, Germany",,german_fires_lepzig_locations,965a5f16d876a54c7bcd0aa7f604b529,german_fires_lepzig_locations__965a5f16d876a54c7bcd0aa7f604b529
agricolastrasse,"Agricolastrasse in Leipzig, Germany",51.3148176,12.3440655,1,,,,News,"Agricolastrasse in Leipzig, Germany",,german_fires_lepzig_locations,97dc488f3cb0c4302a02db541e355156,german_fires_lepzig_locations__97dc488f3cb0c4302a02db541e355156
ahlfeldstrasse,"Ahlfeldstrasse in Leipzig, Germany",51.3418613,12.3213518,1,,,,space,"Ahlfeldstrasse in Leipzig, Germany",,german_fires_lepzig_locations,48f37188501e2f61f17e627d8fdec3a6,german_fires_lepzig_locations__48f37188501e2f61f17e627d8fdec3a6
ahorngasse,"Ahorngasse in Leipzig, Germany",51.4212123,12.443598,1,,,,AAEntity,"Ahorngasse in Leipzig, Germany",,german_fires_lepzig_locations,4053167193709c5243689c3ca2f471cd,german_fires_lepzig_locations__4053167193709c5243689c3ca2f471cd
ahornstrasse,"Ahornstrasse in Leipzig, Germany",51.3547657,12.4618785,1,,,,Wells,"Ahornstrasse in Leipzig, Germany",,german_fires_lepzig_locations,f179f6c9d12878d3e8b86e3647f0d630,german_fires_lepzig_locations__f179f6c9d12878d3e8b86e3647f0d630
ahornweg,"Ahornweg in Leipzig, Germany",51.2873357,12.3652499,1,,,,Media,"Ahornweg in Leipzig, Germany",,german_fires_lepzig_locations,20aaf477b930778cb6d4f84fb794b6cc,german_fires_lepzig_locations__20aaf477b930778cb6d4f84fb794b6cc
akazienweg,"Akazienweg in Leipzig, Germany",51.3882349,12.3738243,1,,,,Organization,"Akazienweg in Leipzig, Germany",,german_fires_lepzig_locations,a1dfbe324bc83545bff9428cd742465f,german_fires_lepzig_locations__a1dfbe324bc83545bff9428cd742465f
akeleiweg,"Akeleiweg in Leipzig, Germany",51.3375928,12.4953555,1,,,,Legislator,"Akeleiweg in Leipzig, Germany",,german_fires_lepzig_locations,6ba4a7d7b71e50006ce1bbb536969438,german_fires_lepzig_locations__6ba4a7d7b71e50006ce1bbb536969438
albersdorfer strasse,"Albersdorfer Strasse in Leipzig, Germany",51.2850664,12.3023075,1,,,,Keyphrase,"Albersdorfer Strasse in Leipzig, Germany",,german_fires_lepzig_locations,893fbd66fff5d06f21550d88950f5394,german_fires_lepzig_locations__893fbd66fff5d06f21550d88950f5394
albersdorfer weg,"Albersdorfer Weg in Leipzig, Germany",51.2745592,12.2731882,1,,,,FTO,"Albersdorfer Weg in Leipzig, Germany",,german_fires_lepzig_locations,e23990c11209228d4f6fce9f90891da2,german_fires_lepzig_locations__e23990c11209228d4f6fce9f90891da2
albert-schweitzer-strasse,"Albert-Schweitzer-Strasse in Leipzig, Germany",51.3318532,12.4041257,1,,,,ForeignMinistry,"Albert-Schweitzer-Strasse in Leipzig, Germany",,german_fires_lepzig_locations,e792c5d870a9bf4f9bbd2460912b666b,german_fires_lepzig_locations__e792c5d870a9bf4f9bbd2460912b666b
albert-vollsack-strasse,"Albert-Vollsack-Strasse in Leipzig, Germany",51.3067199,12.32685,1,,,,Wells,"Albert-Vollsack-Strasse in Leipzig, Germany",,german_fires_lepzig_locations,eec06126c909b48b049e302db81aec16,german_fires_lepzig_locations__eec06126c909b48b049e302db81aec16
albrecht-durer-platz,"Albrecht-Durer-Platz in Leipzig, Germany",51.3236834,12.3777277,1,,,,Legislator,"Albrecht-Durer-Platz in Leipzig, Germany",,german_fires_lepzig_locations,423ed5f3d4eaede944f696578be1fcc5,german_fires_lepzig_locations__423ed5f3d4eaede944f696578be1fcc5
albrecht-durer-weg,"Albrecht-Durer-Weg in Leipzig, Germany",51.3486017,12.4626148,1,,,,LegislativeCommittee,"Albrecht-Durer-Weg in Leipzig, Germany",,german_fires_lepzig_locations,00c13da8e5681089e16f9f212dfbabae,german_fires_lepzig_locations__00c13da8e5681089e16f9f212dfbabae
albrechtshainer strasse,"Albrechtshainer Strasse in Leipzig, Germany",51.3237938,12.4440423,1,,,,AAEntity,"Albrechtshainer Strasse in Leipzig, Germany",,german_fires_lepzig_locations,b1d6b31e448d0d05cdb5c417671edcff,german_fires_lepzig_locations__b1d6b31e448d0d05cdb5c417671edcff
alemannenweg,"Alemannenweg in Leipzig, Germany",51.3770203,12.339182,1,,,,LegislativeCommittee,"Alemannenweg in Leipzig, Germany",,german_fires_lepzig_locations,71e46de763891c6de525b4d7268bbe28,german_fires_lepzig_locations__71e46de763891c6de525b4d7268bbe28
alexander-alesius-strasse,"Alexander-Alesius-Strasse in Leipzig, Germany",51.324813,12.4505173,1,,,,space,"Alexander-Alesius-Strasse in Leipzig, Germany",,german_fires_lepzig_locations,385c809ee45764ae734a29f40010176c,german_fires_lepzig_locations__385c809ee45764ae734a29f40010176c
alexanderstrasse,"Alexanderstrasse in Leipzig, Germany",51.339961,12.3627107,1,,,,DiplomaticFacilities,"Alexanderstrasse in Leipzig, Germany",,german_fires_lepzig_locations,c32a794053df65af8d311a4be2ed5fd3,german_fires_lepzig_locations__c32a794053df65af8d311a4be2ed5fd3
alexis-schumann-platz,"Alexis-Schumann-Platz in Leipzig, Germany",51.3191963,12.37448,1,,,,CompanyKeyword,"Alexis-Schumann-Platz in Leipzig, Germany",,german_fires_lepzig_locations,b0f98dd95cb416884628aa7375bb381f,german_fires_lepzig_locations__b0f98dd95cb416884628aa7375bb381f
alfred-frank-platz,"Alfred-Frank-Platz in Leipzig, Germany",51.3307346,12.4100875,1,,,,Keyphrase,"Alfred-Frank-Platz in Leipzig, Germany",,german_fires_lepzig_locations,8942cee05b763af1694f3e651e541cc6,german_fires_lepzig_locations__8942cee05b763af1694f3e651e541cc6
alfred-frank-strasse,"Alfred-Frank-Strasse in Leipzig, Germany",51.325777,12.3434296,1,,,,News,"Alfred-Frank-Strasse in Leipzig, Germany",,german_fires_lepzig_locations,48c7fe65d095b2878a57a3b41944e75d,german_fires_lepzig_locations__48c7fe65d095b2878a57a3b41944e75d
alfred-kastner-strasse,"Alfred-Kastner-Strasse in Leipzig, Germany",51.322084,12.3736208,1,,,,Wells,"Alfred-Kastner-Strasse in Leipzig, Germany",,german_fires_lepzig_locations,da2f858578d5a148c8b71bbc221a4cf4,german_fires_lepzig_locations__da2f858578d5a148c8b71bbc221a4cf4
alfred-schurig-strasse,"Alfred-Schurig-Strasse in Leipzig, Germany",51.3503003,12.4295191,1,,,,Legislator,"Alfred-Schurig-Strasse in Leipzig, Germany",,german_fires_lepzig_locations,b81013f6dcac73adc0f738c8a8e78fb3,german_fires_lepzig_locations__b81013f6dcac73adc0f738c8a8e78fb3
altdorferweg,"Altdorferweg in Leipzig, Germany",51.2850893,12.4424456,1,,,,Keyphrase,"Altdorferweg in Leipzig, Germany",,german_fires_lepzig_locations,8813f32c32f9575807b21f891487720c,german_fires_lepzig_locations__8813f32c32f9575807b21f891487720c
alte baumschule,"Alte Baumschule in Leipzig, Germany",51.2754768,12.478833,1,,,,News,"Alte Baumschule in Leipzig, Germany",,german_fires_lepzig_locations,a788daae3a02577dab22e73ce53f1cb4,german_fires_lepzig_locations__a788daae3a02577dab22e73ce53f1cb4
alte burghausener strasse,"Alte Burghausener Strasse in Leipzig, Germany",51.3223879,12.2617359,1,,,,Diplomat,"Alte Burghausener Strasse in Leipzig, Germany",,german_fires_lepzig_locations,0a6851e6ae4a8ef8593db6e1c68bc036,german_fires_lepzig_locations__0a6851e6ae4a8ef8593db6e1c68bc036
alte dorfstrasse,"Alte Dorfstrasse in Leipzig, Germany",51.3441432,12.257292,1,,,,Keyphrase,"Alte Dorfstrasse in Leipzig, Germany",,german_fires_lepzig_locations,b23bb1f86339be8c3e7e2a4b2a081540,german_fires_lepzig_locations__b23bb1f86339be8c3e7e2a4b2a081540
alte dubener landstrasse,"Alte Dubener Landstrasse in Leipzig, Germany",51.4023963,12.3921958,1,,,,Legislator,"Alte Dubener Landstrasse in Leipzig, Germany",,german_fires_lepzig_locations,d1caa3e66f5620fe1f5df7ff77143843,german_fires_lepzig_locations__d1caa3e66f5620fe1f5df7ff77143843
alte gartnerei,"Alte Gartnerei in Leipzig, Germany",51.2795449,12.4676316,1,,,,ForeignMinistry,"Alte Gartnerei in Leipzig, Germany",,german_fires_lepzig_locations,726fb5ce6658398db1d3a31abd33d698,german_fires_lepzig_locations__726fb5ce6658398db1d3a31abd33d698
alte hohe strasse,"Alte Hohe Strasse in Leipzig, Germany",51.3844602,12.4224121,1,,,,FTO,"Alte Hohe Strasse in Leipzig, Germany",,german_fires_lepzig_locations,2458cbfbe6e3db35964d254a7106e1f8,german_fires_lepzig_locations__2458cbfbe6e3db35964d254a7106e1f8
alte holzhausener strasse,"Alte Holzhausener Strasse in Leipzig, Germany",51.2846697,12.4665506,1,,,,Wells,"Alte Holzhausener Strasse in Leipzig, Germany",,german_fires_lepzig_locations,19467948eadedd9e2dcf11401f0e7e62,german_fires_lepzig_locations__19467948eadedd9e2dcf11401f0e7e62
alte landsberger strasse,"Alte Landsberger Strasse in Leipzig, Germany",51.3208444,12.398013,1,,,,IndustryTerm,"Alte Landsberger Strasse in Leipzig, Germany",,german_fires_lepzig_locations,6905c2b9ea0155dc1bef41ddf9a9f026,german_fires_lepzig_locations__6905c2b9ea0155dc1bef41ddf9a9f026
alte messe,"Alte Messe in Leipzig, Germany",51.3181072,12.4029049,1,,,,Consulates,"Alte Messe in Leipzig, Germany",,german_fires_lepzig_locations,d4612f87a4553816b66051379a2b93bd,german_fires_lepzig_locations__d4612f87a4553816b66051379a2b93bd
alte parkstrasse,"Alte Parkstrasse in Leipzig, Germany",51.340755,12.3783706,1,,,,Consulates,"Alte Parkstrasse in Leipzig, Germany",,german_fires_lepzig_locations,fb6c462300536265721ad3309e42efe2,german_fires_lepzig_locations__fb6c462300536265721ad3309e42efe2
alte salzstrasse,"Alte Salzstrasse in Leipzig, Germany",51.3165468,12.286951,1,,,,IndustryTerm,"Alte Salzstrasse in Leipzig, Germany",,german_fires_lepzig_locations,5d8c718cc669664fb30afab006dfe32b,german_fires_lepzig_locations__5d8c718cc669664fb30afab006dfe32b
alte schmiede,"Alte Schmiede in Leipzig, Germany",51.3417314,12.2522847,1,,,,IndustryTerm,"Alte Schmiede in Leipzig, Germany",,german_fires_lepzig_locations,82be602551856f61445ac342bd8b6f81,german_fires_lepzig_locations__82be602551856f61445ac342bd8b6f81
alte seehausener strasse,"Alte Seehausener Strasse in Leipzig, Germany",51.415838,12.4393503,1,,,,Organization,"Alte Seehausener Strasse in Leipzig, Germany",,german_fires_lepzig_locations,58bcdc4c517dcb541c7844b1a654d16f,german_fires_lepzig_locations__58bcdc4c517dcb541c7844b1a654d16f
alte strasse,"Alte Strasse in Leipzig, Germany",51.3301821,12.3408534,1,,,,DiplomaticFacilities,"Alte Strasse in Leipzig, Germany",,german_fires_lepzig_locations,559a20895d531a42dcc973b1e6522dad,german_fires_lepzig_locations__559a20895d531a42dcc973b1e6522dad
alte tauchaer strasse,"Alte Tauchaer Strasse in Leipzig, Germany",51.2882968,12.4606369,1,,,,Wells,"Alte Tauchaer Strasse in Leipzig, Germany",,german_fires_lepzig_locations,aa87dc43ac777a8ff5574b9367f4f5dd,german_fires_lepzig_locations__aa87dc43ac777a8ff5574b9367f4f5dd
alte theklaer strasse,"Alte Theklaer Strasse in Leipzig, Germany",51.3904428,12.4484109,1,,,,Consulates,"Alte Theklaer Strasse in Leipzig, Germany",,german_fires_lepzig_locations,a041dcf775ff403ff5cd0ecc0b5c1909,german_fires_lepzig_locations__a041dcf775ff403ff5cd0ecc0b5c1909
altenburger strasse,"Altenburger Strasse in Leipzig, Germany",51.3175367,12.3828254,1,,,,CompanyKeyword,"Altenburger Strasse in Leipzig, Germany",,german_fires_lepzig_locations,b75f05bdec132eee5551265615ba3a04,german_fires_lepzig_locations__b75f05bdec132eee5551265615ba3a04
alter amtshof,"Alter Amtshof in Leipzig, Germany",51.3373499,12.3702838,1,,,,space,"Alter Amtshof in Leipzig, Germany",,german_fires_lepzig_locations,09b6303532075b5304dc6e79562ff67f,german_fires_lepzig_locations__09b6303532075b5304dc6e79562ff67f
alter kirchweg,"Alter Kirchweg in Leipzig, Germany",51.3769519,12.3055163,1,,,,Diplomat,"Alter Kirchweg in Leipzig, Germany",,german_fires_lepzig_locations,d572849e9f45fb6647f2237c537c9677,german_fires_lepzig_locations__d572849e9f45fb6647f2237c537c9677
alter marktweg,"Alter Marktweg in Leipzig, Germany",51.3450896,12.4807651,1,,,,AAEntity,"Alter Marktweg in Leipzig, Germany",,german_fires_lepzig_locations,194f368f3e7e268d745143ba8e82c63d,german_fires_lepzig_locations__194f368f3e7e268d745143ba8e82c63d
altes dorf,"Altes Dorf in Leipzig, Germany",51.3867481,12.4514438,1,,,,Organization,"Altes Dorf in Leipzig, Germany",,german_fires_lepzig_locations,265ee37ff384d587e401b7d00ac64870,german_fires_lepzig_locations__265ee37ff384d587e401b7d00ac64870
althener anger,"Althener Anger in Leipzig, Germany",51.3386604,12.5162131,1,,,,LegislativeCommittee,"Althener Anger in Leipzig, Germany",,german_fires_lepzig_locations,5c490ebd1ec7b1ee03180a00fbfeff82,german_fires_lepzig_locations__5c490ebd1ec7b1ee03180a00fbfeff82
althener strasse,"Althener Strasse in Leipzig, Germany",51.3356896,12.4955699,1,,,,News,"Althener Strasse in Leipzig, Germany",,german_fires_lepzig_locations,b3d3c0342b3cf41ba063d9aff8152319,german_fires_lepzig_locations__b3d3c0342b3cf41ba063d9aff8152319
altranstadter strasse,"Altranstadter Strasse in Leipzig, Germany",51.3186376,12.331443,1,,,,FTO,"Altranstadter Strasse in Leipzig, Germany",,german_fires_lepzig_locations,3a00e6026a6c043723f9e873f465a9a1,german_fires_lepzig_locations__3a00e6026a6c043723f9e873f465a9a1
am alten bahnhof,"Am Alten Bahnhof in Leipzig, Germany",51.3029247,12.2633122,1,,,,CompanyKeyword,"Am Alten Bahnhof in Leipzig, Germany",,german_fires_lepzig_locations,08495bf3ad2e58cfb6f77653260f532a,german_fires_lepzig_locations__08495bf3ad2e58cfb6f77653260f532a
am alten flugfeld,"Am Alten Flugfeld in Leipzig, Germany",51.3901433,12.3328246,1,,,,Diplomat,"Am Alten Flugfeld in Leipzig, Germany",,german_fires_lepzig_locations,609426085b371d2a81078bf27d4aac65,german_fires_lepzig_locations__609426085b371d2a81078bf27d4aac65
am alten flughafen,"Am alten Flughafen in Leipzig, Germany",51.390996,12.3973237,1,,,,DiplomaticFacilities,"Am alten Flughafen in Leipzig, Germany",,german_fires_lepzig_locations,574c26aa2927b9d14e615d8d7e0cdccd,german_fires_lepzig_locations__574c26aa2927b9d14e615d8d7e0cdccd
am alten gasthof,"Am alten Gasthof in Leipzig, Germany",51.3722517,12.3216662,1,,,,IndustryTerm,"Am alten Gasthof in Leipzig, Germany",,german_fires_lepzig_locations,5c39790072f81e08698b946e34baec5e,german_fires_lepzig_locations__5c39790072f81e08698b946e34baec5e
am alten muhlgraben,"Am Alten Muhlgraben in Leipzig, Germany",51.3614384,12.2899492,1,,,,Keyphrase,"Am Alten Muhlgraben in Leipzig, Germany",,german_fires_lepzig_locations,f8d39eb8e90421a2df8ce3a09776d545,german_fires_lepzig_locations__f8d39eb8e90421a2df8ce3a09776d545
am anger,"Am Anger in Leipzig, Germany",51.4207097,12.4494334,1,,,,Pipeline,"Am Anger in Leipzig, Germany",,german_fires_lepzig_locations,a6f8fb5470ab8a401b7bd926bef9cb60,german_fires_lepzig_locations__a6f8fb5470ab8a401b7bd926bef9cb60
am angerteich,"Am Angerteich in Leipzig, Germany",51.2839159,12.4589922,1,,,,Refinery,"Am Angerteich in Leipzig, Germany",,german_fires_lepzig_locations,2c4a8abdccf6ef881d48b6de645e9564,german_fires_lepzig_locations__2c4a8abdccf6ef881d48b6de645e9564
am bahndamm,"Am Bahndamm in Leipzig, Germany",51.334492,12.4572892,1,,,,FTO,"Am Bahndamm in Leipzig, Germany",,german_fires_lepzig_locations,21ecead2dd23a1da0126072acc6b04c2,german_fires_lepzig_locations__21ecead2dd23a1da0126072acc6b04c2
am bahngraben,"Am Bahngraben in Leipzig, Germany",51.3812181,12.2967375,1,,,,Refinery,"Am Bahngraben in Leipzig, Germany",,german_fires_lepzig_locations,557fb2b7fee146ab1ebcbb593d3ee309,german_fires_lepzig_locations__557fb2b7fee146ab1ebcbb593d3ee309
am bahnhof,"Am Bahnhof in Leipzig, Germany",51.2656486,12.4851455,1,,,,DiplomaticFacilities,"Am Bahnhof in Leipzig, Germany",,german_fires_lepzig_locations,f24d5f7aad2a3de5cdbb2b9deb83a1c2,german_fires_lepzig_locations__f24d5f7aad2a3de5cdbb2b9deb83a1c2
am barnecker gut,"Am Barnecker Gut in Leipzig, Germany",51.3536077,12.3014514,1,,,,CompanyKeyword,"Am Barnecker Gut in Leipzig, Germany",,german_fires_lepzig_locations,75614bb0f5ab020a141face0073abcb9,german_fires_lepzig_locations__75614bb0f5ab020a141face0073abcb9
am bauernsteg,"Am Bauernsteg in Leipzig, Germany",51.3807872,12.2794244,1,,,,DiplomaticFacilities,"Am Bauernsteg in Leipzig, Germany",,german_fires_lepzig_locations,8b039bf14b0166b0000737fdd5817272,german_fires_lepzig_locations__8b039bf14b0166b0000737fdd5817272
am bauernteich,"Am Bauernteich in Leipzig, Germany",51.3465928,12.4478495,1,,,,Consulates,"Am Bauernteich in Leipzig, Germany",,german_fires_lepzig_locations,52a9bf13d97ab07a99c295fb5864687c,german_fires_lepzig_locations__52a9bf13d97ab07a99c295fb5864687c
am bildersaal,"Am Bildersaal in Leipzig, Germany",51.3821538,12.2825071,1,,,,Refinery,"Am Bildersaal in Leipzig, Germany",,german_fires_lepzig_locations,afd36c688c07b0b2c16aebdabac459ed,german_fires_lepzig_locations__afd36c688c07b0b2c16aebdabac459ed
am bischofsholz,"Am Bischofsholz in Leipzig, Germany",51.2763826,12.4770443,1,,,,AAEntity,"Am Bischofsholz in Leipzig, Germany",,german_fires_lepzig_locations,0e495b7175e6be8ff8fc65cf59d8d06c,german_fires_lepzig_locations__0e495b7175e6be8ff8fc65cf59d8d06c
am bogen,"Am Bogen in Leipzig, Germany",51.309664,12.4004329,1,,,,CompanyKeyword,"Am Bogen in Leipzig, Germany",,german_fires_lepzig_locations,b5fd979837c57461eb8fc7e53c16e9da,german_fires_lepzig_locations__b5fd979837c57461eb8fc7e53c16e9da
am bornchen,"Am Bornchen in Leipzig, Germany",51.379979,12.3153303,1,,,,Media,"Am Bornchen in Leipzig, Germany",,german_fires_lepzig_locations,ac890bff1010685c0b73fbe877955883,german_fires_lepzig_locations__ac890bff1010685c0b73fbe877955883
am brunnen,"Am Brunnen in Leipzig, Germany",51.382836,12.2724154,1,,,,ForeignMinistry,"Am Brunnen in Leipzig, Germany",,german_fires_lepzig_locations,9ff4f578db5546050902f2ee0d9f4156,german_fires_lepzig_locations__9ff4f578db5546050902f2ee0d9f4156
am doppeladler,"Am Doppeladler in Leipzig, Germany",51.3050987,12.4687289,1,,,,space,"Am Doppeladler in Leipzig, Germany",,german_fires_lepzig_locations,888f5b1ca4e58aa4fda12a933abe1fe7,german_fires_lepzig_locations__888f5b1ca4e58aa4fda12a933abe1fe7
am dorfplatz,"Am Dorfplatz in Leipzig, Germany",51.3568079,12.265504,1,,,,Pipeline,"Am Dorfplatz in Leipzig, Germany",,german_fires_lepzig_locations,6aca2e0263f1f3e8e93f9fb603e53015,german_fires_lepzig_locations__6aca2e0263f1f3e8e93f9fb603e53015
am dorfteich,"Am Dorfteich in Leipzig, Germany",51.3089302,12.5134048,1,,,,Keyphrase,"Am Dorfteich in Leipzig, Germany",,german_fires_lepzig_locations,2db248d29c495388c3208d010ff9d5d1,german_fires_lepzig_locations__2db248d29c495388c3208d010ff9d5d1
am eichberg,"Am Eichberg in Leipzig, Germany",51.3746038,12.4496203,1,,,,space,"Am Eichberg in Leipzig, Germany",,german_fires_lepzig_locations,519cc712b77a8f76b6dd8d770f58d3c5,german_fires_lepzig_locations__519cc712b77a8f76b6dd8d770f58d3c5
am eichenbogen,"Am Eichenbogen in Leipzig, Germany",51.2876805,12.366395,1,,,,News,"Am Eichenbogen in Leipzig, Germany",,german_fires_lepzig_locations,bc507d65374cc222def8d5b5d1d2a1c7,german_fires_lepzig_locations__bc507d65374cc222def8d5b5d1d2a1c7
am eichwinkel,"Am Eichwinkel in Leipzig, Germany",51.2831044,12.3978583,1,,,,Wells,"Am Eichwinkel in Leipzig, Germany",,german_fires_lepzig_locations,4baa4494e3e281b9fc55d736d86b8b74,german_fires_lepzig_locations__4baa4494e3e281b9fc55d736d86b8b74
am elsterbogen,"Am Elsterbogen in Leipzig, Germany",51.2664898,12.3106329,1,,,,Diplomat,"Am Elsterbogen in Leipzig, Germany",,german_fires_lepzig_locations,46967d5a81631e6d0ea8af552f156dd6,german_fires_lepzig_locations__46967d5a81631e6d0ea8af552f156dd6
am elsterwehr,"Am Elsterwehr in Leipzig, Germany",51.3353468,12.3507981,1,,,,News,"Am Elsterwehr in Leipzig, Germany",,german_fires_lepzig_locations,5d8525a4d59675bb4ec68c2da1238e70,german_fires_lepzig_locations__5d8525a4d59675bb4ec68c2da1238e70
am eselshaus,"Am Eselshaus in Leipzig, Germany",51.3794013,12.3025528,1,,,,DiplomaticFacilities,"Am Eselshaus in Leipzig, Germany",,german_fires_lepzig_locations,f185ba341b10d1ee29e893d842c9241c,german_fires_lepzig_locations__f185ba341b10d1ee29e893d842c9241c
am eulengraben,"Am Eulengraben in Leipzig, Germany",51.2728231,12.4829687,1,,,,CompanyKeyword,"Am Eulengraben in Leipzig, Germany",,german_fires_lepzig_locations,5e14c5ff8c357bfe227c7bb6efa26932,german_fires_lepzig_locations__5e14c5ff8c357bfe227c7bb6efa26932
am exer,"Am Exer in Leipzig, Germany",51.3933533,12.2996995,1,,,,CompanyKeyword,"Am Exer in Leipzig, Germany",,german_fires_lepzig_locations,c316822c72280ca6bfe850ed198d1ada,german_fires_lepzig_locations__c316822c72280ca6bfe850ed198d1ada
am exerzierplatz,"Am Exerzierplatz in Leipzig, Germany",51.4071687,12.3077876,1,,,,ForeignMinistry,"Am Exerzierplatz in Leipzig, Germany",,german_fires_lepzig_locations,9ab1e80bd01c47d3197df11a5d15c5a0,german_fires_lepzig_locations__9ab1e80bd01c47d3197df11a5d15c5a0
am feld,"Am Feld in Leipzig, Germany",51.4219784,12.4427802,1,,,,Person,"Am Feld in Leipzig, Germany",,german_fires_lepzig_locations,b1be0aca832bb319c133626bcf60c72e,german_fires_lepzig_locations__b1be0aca832bb319c133626bcf60c72e
am feldrain,"Am Feldrain in Leipzig, Germany",51.3107093,12.5152268,1,,,,News,"Am Feldrain in Leipzig, Germany",,german_fires_lepzig_locations,770b257088a811cb39f4322237461ad5,german_fires_lepzig_locations__770b257088a811cb39f4322237461ad5
am fischerhaus,"Am Fischerhaus in Leipzig, Germany",51.3770481,12.309141,1,,,,ForeignMinister,"Am Fischerhaus in Leipzig, Germany",,german_fires_lepzig_locations,a811dd53b56e8bfd4c2164c69e65e5ee,german_fires_lepzig_locations__a811dd53b56e8bfd4c2164c69e65e5ee
am flossgen,"Am Flossgen in Leipzig, Germany",51.3550533,12.2681946,1,,,,CompanyKeyword,"Am Flossgen in Leipzig, Germany",,german_fires_lepzig_locations,c76060d54b4732d06a30f6dd0b34f427,german_fires_lepzig_locations__c76060d54b4732d06a30f6dd0b34f427
am flugelrad,"Am Flugelrad in Leipzig, Germany",51.3666318,12.3928716,1,,,,Wells,"Am Flugelrad in Leipzig, Germany",,german_fires_lepzig_locations,d40f2b0a677ddaf4f3afb5c2bca84827,german_fires_lepzig_locations__d40f2b0a677ddaf4f3afb5c2bca84827
am freibad,"Am Freibad in Leipzig, Germany",51.3931328,12.3285579,1,,,,Exec,"Am Freibad in Leipzig, Germany",,german_fires_lepzig_locations,e431a6df9377948f56340eca644c532a,german_fires_lepzig_locations__e431a6df9377948f56340eca644c532a
am fuchsbau,"Am Fuchsbau in Leipzig, Germany",51.2892722,12.3644858,1,,,,Diplomat,"Am Fuchsbau in Leipzig, Germany",,german_fires_lepzig_locations,a935f128a165af5bdc452750da1e9119,german_fires_lepzig_locations__a935f128a165af5bdc452750da1e9119
am ganseanger,"Am Ganseanger in Leipzig, Germany",51.2856721,12.4628234,1,,,,Legislator,"Am Ganseanger in Leipzig, Germany",,german_fires_lepzig_locations,d448ce16c916d31f40e1e7b9b55c151a,german_fires_lepzig_locations__d448ce16c916d31f40e1e7b9b55c151a
am gartenverein,"Am Gartenverein in Leipzig, Germany",51.3466509,12.3161222,1,,,,Organization,"Am Gartenverein in Leipzig, Germany",,german_fires_lepzig_locations,e646a9e2958507989f69ffc19ac42b68,german_fires_lepzig_locations__e646a9e2958507989f69ffc19ac42b68
am geleinholz,"Am Geleinholz in Leipzig, Germany",51.2932322,12.4198647,1,,,,Refinery,"Am Geleinholz in Leipzig, Germany",,german_fires_lepzig_locations,557bdbb3bcf152f3626444f277081989,german_fires_lepzig_locations__557bdbb3bcf152f3626444f277081989
am gothischen bad,"Am Gothischen Bad in Leipzig, Germany",51.351389,12.3929862,1,,,,IndustryTerm,"Am Gothischen Bad in Leipzig, Germany",,german_fires_lepzig_locations,8ec3350f08290f0ccd8ac28d86e7306d,german_fires_lepzig_locations__8ec3350f08290f0ccd8ac28d86e7306d
am grund,"Am Grund in Leipzig, Germany",51.3077625,12.2634247,1,,,,Refinery,"Am Grund in Leipzig, Germany",,german_fires_lepzig_locations,2b4f44d6c00d021bb4a9f36c5653c4fe,german_fires_lepzig_locations__2b4f44d6c00d021bb4a9f36c5653c4fe
am gundorfer teich,"Am Gundorfer Teich in Leipzig, Germany",51.3624549,12.2665532,1,,,,News,"Am Gundorfer Teich in Leipzig, Germany",,german_fires_lepzig_locations,a32b4900b395a8ac281733b36dc90469,german_fires_lepzig_locations__a32b4900b395a8ac281733b36dc90469
am guterring,"Am Guterring in Leipzig, Germany",51.3317575,12.418621,1,,,,LegislativeCommittee,"Am Guterring in Leipzig, Germany",,german_fires_lepzig_locations,a7fd958da849370cddebc88c4da56d03,german_fires_lepzig_locations__a7fd958da849370cddebc88c4da56d03
am gutspark,"Am Gutspark in Leipzig, Germany",51.3246744,12.4578568,1,,,,IndustryTerm,"Am Gutspark in Leipzig, Germany",,german_fires_lepzig_locations,475c6c2b8fd63b1f217602e57b69fac4,german_fires_lepzig_locations__475c6c2b8fd63b1f217602e57b69fac4
am hallischen tor,"Am Hallischen Tor in Leipzig, Germany",51.343887,12.3769452,1,,,,CompanyKeyword,"Am Hallischen Tor in Leipzig, Germany",,german_fires_lepzig_locations,3cd12f608dbef61c658d6eb3e9a9e5be,german_fires_lepzig_locations__3cd12f608dbef61c658d6eb3e9a9e5be
am hasenberg,"Am Hasenberg in Leipzig, Germany",51.3218946,12.4441153,1,,,,Exec,"Am Hasenberg in Leipzig, Germany",,german_fires_lepzig_locations,c84739d2f272055bce86eec799095863,german_fires_lepzig_locations__c84739d2f272055bce86eec799095863
am hasengraben,"Am Hasengraben in Leipzig, Germany",51.4211013,12.482466,1,,,,Organization,"Am Hasengraben in Leipzig, Germany",,german_fires_lepzig_locations,4582640e1dc05af7339d902a580c6ab8,german_fires_lepzig_locations__4582640e1dc05af7339d902a580c6ab8
am hegeanger,"Am Hegeanger in Leipzig, Germany",51.2993995,12.2600481,1,,,,FTO,"Am Hegeanger in Leipzig, Germany",,german_fires_lepzig_locations,0737432ab06dbfce6dd0c0b57673f6eb,german_fires_lepzig_locations__0737432ab06dbfce6dd0c0b57673f6eb
am hirtenhaus,"Am Hirtenhaus in Leipzig, Germany",51.3724727,12.322755,1,,,,Keyphrase,"Am Hirtenhaus in Leipzig, Germany",,german_fires_lepzig_locations,8a9d550e22c0df096bfbc521aa292b22,german_fires_lepzig_locations__8a9d550e22c0df096bfbc521aa292b22
am hohen graben,"Am Hohen Graben in Leipzig, Germany",51.3253531,12.4766461,1,,,,ForeignMinistry,"Am Hohen Graben in Leipzig, Germany",,german_fires_lepzig_locations,e2682a928eb4e0c5c1bf028acc85c02e,german_fires_lepzig_locations__e2682a928eb4e0c5c1bf028acc85c02e
am hohlweg,"Am Hohlweg in Leipzig, Germany",51.3810087,12.3052092,1,,,,ForeignMinister,"Am Hohlweg in Leipzig, Germany",,german_fires_lepzig_locations,90870affd597a7e572236c38bafbc295,german_fires_lepzig_locations__90870affd597a7e572236c38bafbc295
am hufeisen,"Am Hufeisen in Leipzig, Germany",51.3462871,12.270985,1,,,,Refinery,"Am Hufeisen in Leipzig, Germany",,german_fires_lepzig_locations,3efe2430c1c85c3c0b2beb2eaff6831d,german_fires_lepzig_locations__3efe2430c1c85c3c0b2beb2eaff6831d
am jagerhaus,"Am Jagerhaus in Leipzig, Germany",51.3959026,12.2905137,1,,,,Shipping,"Am Jagerhaus in Leipzig, Germany",,german_fires_lepzig_locations,ae494172d7150007818a02b9b3d14288,german_fires_lepzig_locations__ae494172d7150007818a02b9b3d14288
am kanal,"Am Kanal in Leipzig, Germany",51.3278522,12.317099,1,,,,Keyphrase,"Am Kanal in Leipzig, Germany",,german_fires_lepzig_locations,05a69fbf2635fb2d8b72cf5f90d01097,german_fires_lepzig_locations__05a69fbf2635fb2d8b72cf5f90d01097
am kellerberg,"Am Kellerberg in Leipzig, Germany",51.3951997,12.4559817,1,,,,Person,"Am Kellerberg in Leipzig, Germany",,german_fires_lepzig_locations,9b534d26abab5f2565e7e2a60e727d7e,german_fires_lepzig_locations__9b534d26abab5f2565e7e2a60e727d7e
am keulenberg,"Am Keulenberg in Leipzig, Germany",51.3860864,12.4412984,1,,,,News,"Am Keulenberg in Leipzig, Germany",,german_fires_lepzig_locations,7e105691460ed64e07277588feaa4d77,german_fires_lepzig_locations__7e105691460ed64e07277588feaa4d77
am kirschberg,"Am Kirschberg in Leipzig, Germany",51.3192841,12.2813189,1,,,,LegislativeCommittee,"Am Kirschberg in Leipzig, Germany",,german_fires_lepzig_locations,5ba45b0363096164138fe820a750f51b,german_fires_lepzig_locations__5ba45b0363096164138fe820a750f51b
am kleinen feld,"Am kleinen Feld in Leipzig, Germany",51.3183358,12.2631065,1,,,,IndustryTerm,"Am kleinen Feld in Leipzig, Germany",,german_fires_lepzig_locations,5013fc9f3293cea8e648f25927f7235d,german_fires_lepzig_locations__5013fc9f3293cea8e648f25927f7235d
am klerfeld,"Am Klerfeld in Leipzig, Germany",49.5183789,17.340771,1,,,,Legislator,"Am Klerfeld in Leipzig, Germany",,german_fires_lepzig_locations,9899fd64604ca74d8c50462f1b7902e7,german_fires_lepzig_locations__9899fd64604ca74d8c50462f1b7902e7
am klucksgraben,"Am Klucksgraben in Leipzig, Germany",51.2675961,12.294799,1,,,,AAEntity,"Am Klucksgraben in Leipzig, Germany",,german_fires_lepzig_locations,9e0a09be5840f6d182b20f6a74f3c299,german_fires_lepzig_locations__9e0a09be5840f6d182b20f6a74f3c299
am krummen graben,"Am krummen Graben in Leipzig, Germany",51.2831495,12.3173229,1,,,,AAEntity,"Am krummen Graben in Leipzig, Germany",,german_fires_lepzig_locations,b6d48f72515dba5005c643d482582ca5,german_fires_lepzig_locations__b6d48f72515dba5005c643d482582ca5
am kunstlerbogen,"Am Kunstlerbogen in Leipzig, Germany",51.3824136,12.458479,1,,,,LegislativeCommittee,"Am Kunstlerbogen in Leipzig, Germany",,german_fires_lepzig_locations,969f0f8800605638238c653fcf7aa0fc,german_fires_lepzig_locations__969f0f8800605638238c653fcf7aa0fc
am langen felde,"Am langen Felde in Leipzig, Germany",51.3438314,12.3154276,1,,,,Person,"Am langen Felde in Leipzig, Germany",,german_fires_lepzig_locations,3fd00547594261d425019d5fc3e0634a,german_fires_lepzig_locations__3fd00547594261d425019d5fc3e0634a
am langen teiche,"Am langen Teiche in Leipzig, Germany",51.3847877,12.4531457,1,,,,Exec,"Am langen Teiche in Leipzig, Germany",,german_fires_lepzig_locations,063e2447842a70890564ff2af075a5ce,german_fires_lepzig_locations__063e2447842a70890564ff2af075a5ce
am lindeneck,"Am Lindeneck in Leipzig, Germany",51.3010313,12.2596329,1,,,,IndustryTerm,"Am Lindeneck in Leipzig, Germany",,german_fires_lepzig_locations,a2204a3c9727bb9ca2b4b02d18045856,german_fires_lepzig_locations__a2204a3c9727bb9ca2b4b02d18045856
am lindenhof,"Am Lindenhof in Leipzig, Germany",51.2998336,12.3833476,1,,,,Refinery,"Am Lindenhof in Leipzig, Germany",,german_fires_lepzig_locations,11cfdf73d7ae8d4f060602bc5751b912,german_fires_lepzig_locations__11cfdf73d7ae8d4f060602bc5751b912
am losegraben,"Am Losegraben in Leipzig, Germany",51.3814675,12.4740848,1,,,,Shipping,"Am Losegraben in Leipzig, Germany",,german_fires_lepzig_locations,d5f3be8c41655bfc4d487f609a8da12e,german_fires_lepzig_locations__d5f3be8c41655bfc4d487f609a8da12e
am luppedeich,"Am Luppedeich in Leipzig, Germany",51.3672648,12.3306783,1,,,,Exec,"Am Luppedeich in Leipzig, Germany",,german_fires_lepzig_locations,264f0474d8939b3746c1f829ee5b86e6,german_fires_lepzig_locations__264f0474d8939b3746c1f829ee5b86e6
am markt,"Am Markt in Leipzig, Germany",51.3399052,12.3748035,1,,,,Media,"Am Markt in Leipzig, Germany",,german_fires_lepzig_locations,2b12acb46ce47a947fe6984e7e141ad9,german_fires_lepzig_locations__2b12acb46ce47a947fe6984e7e141ad9
am meilenstein,"Am Meilenstein in Leipzig, Germany",51.3760373,12.3217281,1,,,,Exec,"Am Meilenstein in Leipzig, Germany",,german_fires_lepzig_locations,5b1455378de38a036ba588f331c02221,german_fires_lepzig_locations__5b1455378de38a036ba588f331c02221
am muckenschlosschen,"Am Muckenschlosschen in Leipzig, Germany",51.348291,12.3529924,1,,,,Exec,"Am Muckenschlosschen in Leipzig, Germany",,german_fires_lepzig_locations,a21b7eaa3b85dbf8b68353422e695ca1,german_fires_lepzig_locations__a21b7eaa3b85dbf8b68353422e695ca1
am muhlengrund,"Am Muhlengrund in Leipzig, Germany",51.3004287,12.2590875,1,,,,Diplomat,"Am Muhlengrund in Leipzig, Germany",,german_fires_lepzig_locations,9e7988e3d352f4d508a41582c1d91ffa,german_fires_lepzig_locations__9e7988e3d352f4d508a41582c1d91ffa
am muhlgraben,"Am Muhlgraben in Leipzig, Germany",51.2725753,12.3138524,1,,,,AAEntity,"Am Muhlgraben in Leipzig, Germany",,german_fires_lepzig_locations,69d28ad2f65e6a90dc809dc0da159e0d,german_fires_lepzig_locations__69d28ad2f65e6a90dc809dc0da159e0d
am niederholz,"Am Niederholz in Leipzig, Germany",51.2754358,12.4767901,1,,,,Legislator,"Am Niederholz in Leipzig, Germany",,german_fires_lepzig_locations,a0ec3151561a22dbc7c03444b8a3cab2,german_fires_lepzig_locations__a0ec3151561a22dbc7c03444b8a3cab2
am ochsenwinkel,"Am Ochsenwinkel in Leipzig, Germany",51.3210473,12.5250992,1,,,,Refinery,"Am Ochsenwinkel in Leipzig, Germany",,german_fires_lepzig_locations,eac85ed7d9aabd61edc6b57bc3435a7f,german_fires_lepzig_locations__eac85ed7d9aabd61edc6b57bc3435a7f
am hang,"Am hang in Leipzig, Germany",51.3385738,12.3784615,1,,,,CompanyKeyword,"Am hang in Leipzig, Germany",,german_fires_lepzig_locations,b20c8bce89f86c71a3272d8c6bc00852,german_fires_lepzig_locations__b20c8bce89f86c71a3272d8c6bc00852
am park,"Am Park in Leipzig, Germany",51.4173768,12.7259482,1,,,,space,"Am Park in Leipzig, Germany",,german_fires_lepzig_locations,980fc28d612b866fba8ab36eed59ce14,german_fires_lepzig_locations__980fc28d612b866fba8ab36eed59ce14
am parkteich,"Am Parkteich in Leipzig, Germany",51.3660648,12.3811816,1,,,,AAEntity,"Am Parkteich in Leipzig, Germany",,german_fires_lepzig_locations,d64656a39cd60432b853ae65430c014e,german_fires_lepzig_locations__d64656a39cd60432b853ae65430c014e
am pfarrfelde,"Am Pfarrfelde in Leipzig, Germany",51.3783373,12.3244241,1,,,,Pipeline,"Am Pfarrfelde in Leipzig, Germany",,german_fires_lepzig_locations,b707327ef178b3102cc6854079c5e9fd,german_fires_lepzig_locations__b707327ef178b3102cc6854079c5e9fd
am pfefferbruckchen,"Am Pfefferbruckchen in Leipzig, Germany",51.3729076,12.3285116,1,,,,Wells,"Am Pfefferbruckchen in Leipzig, Germany",,german_fires_lepzig_locations,3684b4aec2ae70928cf3e75aef92ccde,german_fires_lepzig_locations__3684b4aec2ae70928cf3e75aef92ccde
am pfingstanger,"Am Pfingstanger in Leipzig, Germany",51.3777037,12.2671285,1,,,,Keyphrase,"Am Pfingstanger in Leipzig, Germany",,german_fires_lepzig_locations,c0906eb6c43ae61283dac375ec0c9d33,german_fires_lepzig_locations__c0906eb6c43ae61283dac375ec0c9d33
am posgraben,"Am Posgraben in Leipzig, Germany",51.3045715,12.5147518,1,,,,Keyphrase,"Am Posgraben in Leipzig, Germany",,german_fires_lepzig_locations,ccad09c5d3a2ca207eb95230d6c01db6,german_fires_lepzig_locations__ccad09c5d3a2ca207eb95230d6c01db6
am rain,"Am Rain in Leipzig, Germany",51.3439076,12.2682588,1,,,,Media,"Am Rain in Leipzig, Germany",,german_fires_lepzig_locations,1ac3a987242c0a1a11c8e753c067addf,german_fires_lepzig_locations__1ac3a987242c0a1a11c8e753c067addf
am rennsteig,"Am Rennsteig in Leipzig, Germany",51.3455712,12.2559679,1,,,,ForeignMinistry,"Am Rennsteig in Leipzig, Germany",,german_fires_lepzig_locations,a638d4d15a1ef0b448d82da489f588a0,german_fires_lepzig_locations__a638d4d15a1ef0b448d82da489f588a0
am ring,"Am Ring in Leipzig, Germany",51.4304985,12.4855408,1,,,,DiplomaticFacilities,"Am Ring in Leipzig, Germany",,german_fires_lepzig_locations,61b97658f3c0245d85bb892a01167fdb,german_fires_lepzig_locations__61b97658f3c0245d85bb892a01167fdb
am ritterschlosschen,"Am Ritterschlosschen in Leipzig, Germany",51.3558975,12.3086091,1,,,,Media,"Am Ritterschlosschen in Leipzig, Germany",,german_fires_lepzig_locations,f7ef70e9f06d08d0fc711cd22ba8604e,german_fires_lepzig_locations__f7ef70e9f06d08d0fc711cd22ba8604e
am rodeland,"Am Rodeland in Leipzig, Germany",51.2742365,12.4804538,1,,,,DiplomaticFacilities,"Am Rodeland in Leipzig, Germany",,german_fires_lepzig_locations,0f890d2c4e67af9f2a9af0d127c9eca9,german_fires_lepzig_locations__0f890d2c4e67af9f2a9af0d127c9eca9
am roschenhof,"Am Roschenhof in Leipzig, Germany",51.3469063,12.4462492,1,,,,Refinery,"Am Roschenhof in Leipzig, Germany",,german_fires_lepzig_locations,145da36987a5e1014849378cb4f21ef3,german_fires_lepzig_locations__145da36987a5e1014849378cb4f21ef3
am russischen garten,"Am Russischen Garten in Leipzig, Germany",51.3804144,12.2821178,1,,,,Wells,"Am Russischen Garten in Leipzig, Germany",,german_fires_lepzig_locations,6b6c60b6e25ac5e718abe021d9f1a327,german_fires_lepzig_locations__6b6c60b6e25ac5e718abe021d9f1a327
am sandberg,"Am Sandberg in Leipzig, Germany",51.4017936,12.3725416,1,,,,AAEntity,"Am Sandberg in Leipzig, Germany",,german_fires_lepzig_locations,3f50627424119f2c51e1c41c3dc558e2,german_fires_lepzig_locations__3f50627424119f2c51e1c41c3dc558e2
am schaferhugel,"Am Schaferhugel in Leipzig, Germany",51.322306,12.4615992,1,,,,Exec,"Am Schaferhugel in Leipzig, Germany",,german_fires_lepzig_locations,d24713d4e7a54babf90697960d0fbad0,german_fires_lepzig_locations__d24713d4e7a54babf90697960d0fbad0
am schaukelgraben,"Am Schaukelgraben in Leipzig, Germany",51.2735722,12.48146,1,,,,Organization,"Am Schaukelgraben in Leipzig, Germany",,german_fires_lepzig_locations,9dbadc68916fffb08afaec90dbd7c3e1,german_fires_lepzig_locations__9dbadc68916fffb08afaec90dbd7c3e1
am schenkberg,"Am Schenkberg in Leipzig, Germany",51.396666,12.4484248,1,,,,CompanyKeyword,"Am Schenkberg in Leipzig, Germany",,german_fires_lepzig_locations,e088546cf899a334415555d6aef83c25,german_fires_lepzig_locations__e088546cf899a334415555d6aef83c25
am schwalbennest,"Am Schwalbennest in Leipzig, Germany",51.3245172,12.2854809,1,,,,Shipping,"Am Schwalbennest in Leipzig, Germany",,german_fires_lepzig_locations,1c19cd1d82e04951a39bb4bb02e21834,german_fires_lepzig_locations__1c19cd1d82e04951a39bb4bb02e21834
am silo,"Am Silo in Leipzig, Germany",51.3041023,12.2612263,1,,,,Organization,"Am Silo in Leipzig, Germany",,german_fires_lepzig_locations,33482ba4e22afe3ed9d1b03310f5d963,german_fires_lepzig_locations__33482ba4e22afe3ed9d1b03310f5d963
am sommerfeld,"Am Sommerfeld in Leipzig, Germany",51.3503484,12.4853739,1,,,,Wells,"Am Sommerfeld in Leipzig, Germany",,german_fires_lepzig_locations,02c3f7ce0b3091479d12247a8b27caa9,german_fires_lepzig_locations__02c3f7ce0b3091479d12247a8b27caa9
am sonneneck,"Am Sonneneck in Leipzig, Germany",51.3007982,12.2623786,1,,,,FTO,"Am Sonneneck in Leipzig, Germany",,german_fires_lepzig_locations,8528714f4155c9ce21918f1124a4c626,german_fires_lepzig_locations__8528714f4155c9ce21918f1124a4c626
am sonnenwinkel,"Am Sonnenwinkel in Leipzig, Germany",51.3915131,12.3202412,1,,,,Diplomat,"Am Sonnenwinkel in Leipzig, Germany",,german_fires_lepzig_locations,35e4d8e47eb6aff8249779eb34717621,german_fires_lepzig_locations__35e4d8e47eb6aff8249779eb34717621
am sperrtor,"Am Sperrtor in Leipzig, Germany",51.3561909,12.2481037,1,,,,DiplomaticFacilities,"Am Sperrtor in Leipzig, Germany",,german_fires_lepzig_locations,e2e29effcdfc1c72530402ec8cb1bd4b,german_fires_lepzig_locations__e2e29effcdfc1c72530402ec8cb1bd4b
am sportforum,"Am Sportforum in Leipzig, Germany",51.3467037,12.3504391,1,,,,Legislator,"Am Sportforum in Leipzig, Germany",,german_fires_lepzig_locations,20cc541a92d0b3dfefae9e4d53154277,german_fires_lepzig_locations__20cc541a92d0b3dfefae9e4d53154277
am sportpark,"Am Sportpark in Leipzig, Germany",51.3575392,12.3085643,1,,,,Organization,"Am Sportpark in Leipzig, Germany",,german_fires_lepzig_locations,f63a751fabcd5cb264f0fd13839e4f95,german_fires_lepzig_locations__f63a751fabcd5cb264f0fd13839e4f95
am sportplatz,"Am Sportplatz in Leipzig, Germany",51.2652746,12.3085831,1,,,,Wells,"Am Sportplatz in Leipzig, Germany",,german_fires_lepzig_locations,d554f4ee99d7e24bfa7a5208f0927db0,german_fires_lepzig_locations__d554f4ee99d7e24bfa7a5208f0927db0
am stausee,"Am Stausee in Leipzig, Germany",51.266087,12.3152797,1,,,,Person,"Am Stausee in Leipzig, Germany",,german_fires_lepzig_locations,003dad76a110891c9e51b932dc3de818,german_fires_lepzig_locations__003dad76a110891c9e51b932dc3de818
am tanzplan,"Am Tanzplan in Leipzig, Germany",51.3496791,12.3131537,1,,,,Person,"Am Tanzplan in Leipzig, Germany",,german_fires_lepzig_locations,ee774ec1157cd64ca439a9ad77f0d158,german_fires_lepzig_locations__ee774ec1157cd64ca439a9ad77f0d158
am teich,"Am Teich in Leipzig, Germany",51.3027845,12.2582729,1,,,,Legislator,"Am Teich in Leipzig, Germany",,german_fires_lepzig_locations,11d3f02329ab733b49be9b05b963d39f,german_fires_lepzig_locations__11d3f02329ab733b49be9b05b963d39f
am teilungswehr,"Am Teilungswehr in Leipzig, Germany",51.3021937,12.3402365,1,,,,FTO,"Am Teilungswehr in Leipzig, Germany",,german_fires_lepzig_locations,d3cbdd73fabefdc32e9a5ad6f0460943,german_fires_lepzig_locations__d3cbdd73fabefdc32e9a5ad6f0460943
am tore,"Am Tore in Leipzig, Germany",51.3699332,12.4096417,1,,,,IndustryTerm,"Am Tore in Leipzig, Germany",,german_fires_lepzig_locations,19156950dc6001cdcd11e937d5538ba6,german_fires_lepzig_locations__19156950dc6001cdcd11e937d5538ba6
am turnplatz,"Am Turnplatz in Leipzig, Germany",51.3542286,12.2663467,1,,,,space,"Am Turnplatz in Leipzig, Germany",,german_fires_lepzig_locations,19c8000c3d2e059b849ce17441b4fd8b,german_fires_lepzig_locations__19c8000c3d2e059b849ce17441b4fd8b
am ubergang,"Am ubergang in Leipzig, Germany",51.3217887,12.3045583,1,,,,Diplomat,"Am ubergang in Leipzig, Germany",,german_fires_lepzig_locations,5fe610648c71d758b65253be13a561a4,german_fires_lepzig_locations__5fe610648c71d758b65253be13a561a4
am viadukt,"Am Viadukt in Leipzig, Germany",51.3757146,12.3290753,1,,,,ForeignMinister,"Am Viadukt in Leipzig, Germany",,german_fires_lepzig_locations,6c36b9f2bee2d7baa177c6d32812d302,german_fires_lepzig_locations__6c36b9f2bee2d7baa177c6d32812d302
am volksgut,"Am Volksgut in Leipzig, Germany",51.3493019,12.4990245,1,,,,Person,"Am Volksgut in Leipzig, Germany",,german_fires_lepzig_locations,5715a66441afe66c4010191e75af5445,german_fires_lepzig_locations__5715a66441afe66c4010191e75af5445
am vorwerk,"Am Vorwerk in Leipzig, Germany",51.3525868,12.4613825,1,,,,Organization,"Am Vorwerk in Leipzig, Germany",,german_fires_lepzig_locations,57d135475d74be147c4a601ee30e2f24,german_fires_lepzig_locations__57d135475d74be147c4a601ee30e2f24
am wassergraben,"Am Wassergraben in Leipzig, Germany",51.3818219,12.2931399,1,,,,IndustryTerm,"Am Wassergraben in Leipzig, Germany",,german_fires_lepzig_locations,78b493029f3c35ac181255d99269d9d8,german_fires_lepzig_locations__78b493029f3c35ac181255d99269d9d8
am wasserschloss,"Am Wasserschloss in Leipzig, Germany",51.348822,12.3167032,1,,,,Shipping,"Am Wasserschloss in Leipzig, Germany",,german_fires_lepzig_locations,489eb066ba4910c16f2963f80113ebda,german_fires_lepzig_locations__489eb066ba4910c16f2963f80113ebda
am wasserturm,"Am Wasserturm in Leipzig, Germany",51.3417663,12.2605258,1,,,,Organization,"Am Wasserturm in Leipzig, Germany",,german_fires_lepzig_locations,8ef9933f88fd739a906f22f73f1b5db3,german_fires_lepzig_locations__8ef9933f88fd739a906f22f73f1b5db3
am wasserwerk,"Am Wasserwerk in Leipzig, Germany",51.3138591,12.4171341,1,,,,Diplomat,"Am Wasserwerk in Leipzig, Germany",,german_fires_lepzig_locations,e43fe411fa452b9d9ed0778d5c2b5693,german_fires_lepzig_locations__e43fe411fa452b9d9ed0778d5c2b5693
am wegekreuz,"Am Wegekreuz in Leipzig, Germany",51.380993,12.4411584,1,,,,DiplomaticFacilities,"Am Wegekreuz in Leipzig, Germany",,german_fires_lepzig_locations,b1b7319116738b679bfcb9edd414efd9,german_fires_lepzig_locations__b1b7319116738b679bfcb9edd414efd9
am weiher,"Am Weiher in Leipzig, Germany",51.2727383,12.3115918,1,,,,Keyphrase,"Am Weiher in Leipzig, Germany",,german_fires_lepzig_locations,f1abca7a3c4a09e84344c4c468699b17,german_fires_lepzig_locations__f1abca7a3c4a09e84344c4c468699b17
am wiesenblick,"Am Wiesenblick in Leipzig, Germany",51.3401796,12.5261178,1,,,,Media,"Am Wiesenblick in Leipzig, Germany",,german_fires_lepzig_locations,a6510ec0ec1905f2b1d135b8b7f90c47,german_fires_lepzig_locations__a6510ec0ec1905f2b1d135b8b7f90c47
am wiesengrund,"Am Wiesengrund in Leipzig, Germany",51.299773,12.25923,1,,,,Pipeline,"Am Wiesengrund in Leipzig, Germany",,german_fires_lepzig_locations,69feec8cd19497a6e217ce6a0b044e55,german_fires_lepzig_locations__69feec8cd19497a6e217ce6a0b044e55
am wolfswinkel,"Am Wolfswinkel in Leipzig, Germany",51.2902159,12.3635588,1,,,,DiplomaticFacilities,"Am Wolfswinkel in Leipzig, Germany",,german_fires_lepzig_locations,668f3f204afb122476d34adaafd1937a,german_fires_lepzig_locations__668f3f204afb122476d34adaafd1937a
am zuckmantel,"Am Zuckmantel in Leipzig, Germany",51.3738369,12.3244964,1,,,,Pipeline,"Am Zuckmantel in Leipzig, Germany",,german_fires_lepzig_locations,eb8dd1178881b77d8674a4e3c8f96d31,german_fires_lepzig_locations__eb8dd1178881b77d8674a4e3c8f96d31
amalie-winter-platz,"Amalie-Winter-Platz in Leipzig, Germany",51.3326186,12.3936802,1,,,,LegislativeCommittee,"Amalie-Winter-Platz in Leipzig, Germany",,german_fires_lepzig_locations,be547a566f50eb903763c0b43988f683,german_fires_lepzig_locations__be547a566f50eb903763c0b43988f683
amalienstrasse,"Amalienstrasse in Leipzig, Germany",51.3297572,12.3387003,1,,,,ForeignMinistry,"Amalienstrasse in Leipzig, Germany",,german_fires_lepzig_locations,0e80573d4f75b7f1dba3ed2f2798c74e,german_fires_lepzig_locations__0e80573d4f75b7f1dba3ed2f2798c74e
amazonstrasse,"Amazonstrasse in Leipzig, Germany",51.3639155,12.4550299,1,,,,Wells,"Amazonstrasse in Leipzig, Germany",,german_fires_lepzig_locations,db538dc2b11b17ae5aec6ec673f6b41f,german_fires_lepzig_locations__db538dc2b11b17ae5aec6ec673f6b41f
amboldweg,"Amboldweg in Leipzig, Germany",51.3440961,12.2808992,1,,,,Pipeline,"Amboldweg in Leipzig, Germany",,german_fires_lepzig_locations,f67f21f9a38710c4f8a997baafe284d0,german_fires_lepzig_locations__f67f21f9a38710c4f8a997baafe284d0
ambrosius-barth-platz,"Ambrosius-Barth-Platz in Leipzig, Germany",51.3159451,12.4219616,1,,,,ForeignMinistry,"Ambrosius-Barth-Platz in Leipzig, Germany",,german_fires_lepzig_locations,6050fd5825abfa0567414bcf090912ca,german_fires_lepzig_locations__6050fd5825abfa0567414bcf090912ca
ameisenstrasse,"Ameisenstrasse in Leipzig, Germany",51.2967603,12.3218473,1,,,,Refinery,"Ameisenstrasse in Leipzig, Germany",,german_fires_lepzig_locations,98b0f7c458de644f96025bf36993b25f,german_fires_lepzig_locations__98b0f7c458de644f96025bf36993b25f
ammernplatz,"Ammernplatz in Leipzig, Germany",51.3497452,12.2869813,1,,,,LegislativeCommittee,"Ammernplatz in Leipzig, Germany",,german_fires_lepzig_locations,70c079d7eb63bc5b0ce3fa93c3afb9ca,german_fires_lepzig_locations__70c079d7eb63bc5b0ce3fa93c3afb9ca
ammernweg,"Ammernweg in Leipzig, Germany",51.3497304,12.286469,1,,,,CompanyKeyword,"Ammernweg in Leipzig, Germany",,german_fires_lepzig_locations,23718bc239708645ed1bac1c4ea71dbe,german_fires_lepzig_locations__23718bc239708645ed1bac1c4ea71dbe
amorbacher strasse,"Amorbacher Strasse in Leipzig, Germany",51.3115471,12.2744263,1,,,,AAEntity,"Amorbacher Strasse in Leipzig, Germany",,german_fires_lepzig_locations,d3230a153bd7789f192b869ada10e5e0,german_fires_lepzig_locations__d3230a153bd7789f192b869ada10e5e0
ampreweg,"Ampreweg in Leipzig, Germany",51.3216128,12.4348412,1,,,,Keyphrase,"Ampreweg in Leipzig, Germany",,german_fires_lepzig_locations,93c297da07e9b61cb0349cd7c5147faa,german_fires_lepzig_locations__93c297da07e9b61cb0349cd7c5147faa
amselgrund,"Amselgrund in Leipzig, Germany",51.383386,12.3602902,1,,,,Exec,"Amselgrund in Leipzig, Germany",,german_fires_lepzig_locations,b3c6f438684ee7fd34d1c16a4bfe7daf,german_fires_lepzig_locations__b3c6f438684ee7fd34d1c16a4bfe7daf
amselhohe,"Amselhohe in Leipzig, Germany",51.2801148,12.4562091,1,,,,ForeignMinistry,"Amselhohe in Leipzig, Germany",,german_fires_lepzig_locations,3dd142526696697792148c06aef0887f,german_fires_lepzig_locations__3dd142526696697792148c06aef0887f
amselnest,"Amselnest in Leipzig, Germany",51.3147617,12.4534039,1,,,,Legislator,"Amselnest in Leipzig, Germany",,german_fires_lepzig_locations,8b9b1f31a7f8feae2fb16d897d9bfc3f,german_fires_lepzig_locations__8b9b1f31a7f8feae2fb16d897d9bfc3f
amselstrasse,"Amselstrasse in Leipzig, Germany",51.3486685,12.2875545,1,,,,LegislativeCommittee,"Amselstrasse in Leipzig, Germany",,german_fires_lepzig_locations,f5d80ff60f48cf3055ba2b80968f87ec,german_fires_lepzig_locations__f5d80ff60f48cf3055ba2b80968f87ec
amselweg,"Amselweg in Leipzig, Germany",51.4057882,12.4141686,1,,,,Legislator,"Amselweg in Leipzig, Germany",,german_fires_lepzig_locations,fb2b91263ec964f26063cc3c8c82d5d7,german_fires_lepzig_locations__fb2b91263ec964f26063cc3c8c82d5d7
amstetter weg,"Amstetter Weg in Leipzig, Germany",51.3828333,12.4650618,1,,,,Shipping,"Amstetter Weg in Leipzig, Germany",,german_fires_lepzig_locations,0b6cc0e47ca6f1cd1c4ba10882e815f0,german_fires_lepzig_locations__0b6cc0e47ca6f1cd1c4ba10882e815f0
an den birken,"An den Birken in Leipzig, Germany",51.3580919,12.262801,1,,,,Refinery,"An den Birken in Leipzig, Germany",,german_fires_lepzig_locations,c302a01a99833466d8315238105c7832,german_fires_lepzig_locations__c302a01a99833466d8315238105c7832
an den krutschen,"An den Krutschen in Leipzig, Germany",51.3481176,12.2712136,1,,,,Consulates,"An den Krutschen in Leipzig, Germany",,german_fires_lepzig_locations,07aa64ad34d57835b1481a65b6d9df01,german_fires_lepzig_locations__07aa64ad34d57835b1481a65b6d9df01
an den linden,"An den Linden in Leipzig, Germany",51.3427971,12.2723629,1,,,,Pipeline,"An den Linden in Leipzig, Germany",,german_fires_lepzig_locations,05000ed786b1670a7d37af1dde203d53,german_fires_lepzig_locations__05000ed786b1670a7d37af1dde203d53
an den pferdnerkabeln,"An den Pferdnerkabeln in Leipzig, Germany",51.380668,12.4363243,1,,,,News,"An den Pferdnerkabeln in Leipzig, Germany",,german_fires_lepzig_locations,2addcce2c0bad4f98b1e48e44646fc8c,german_fires_lepzig_locations__2addcce2c0bad4f98b1e48e44646fc8c
an den platanen,"An den Platanen in Leipzig, Germany",51.3256347,12.4417013,1,,,,space,"An den Platanen in Leipzig, Germany",,german_fires_lepzig_locations,6e58d0fb316e3e84493eb4621346dec6,german_fires_lepzig_locations__6e58d0fb316e3e84493eb4621346dec6
an den feldern,"An den feldern in Leipzig, Germany",51.3519845,12.2014501,1,,,,Refinery,"An den feldern in Leipzig, Germany",,german_fires_lepzig_locations,4b9adfca6363169c0f71790b31646395,german_fires_lepzig_locations__4b9adfca6363169c0f71790b31646395
an den tierkliniken,"An den Tierkliniken in Leipzig, Germany",51.3197054,12.3914868,1,,,,ForeignMinistry,"An den Tierkliniken in Leipzig, Germany",,german_fires_lepzig_locations,a57d8bf868b810657ac35d499cb23949,german_fires_lepzig_locations__a57d8bf868b810657ac35d499cb23949
an der alten muhle,"An der Alten Muhle in Leipzig, Germany",51.4109166,12.4188806,1,,,,Consulates,"An der Alten Muhle in Leipzig, Germany",,german_fires_lepzig_locations,1d3f7d8cb9d8032fd0daef3c80a8fc3a,german_fires_lepzig_locations__1d3f7d8cb9d8032fd0daef3c80a8fc3a
an der alten post,"An der Alten Post in Leipzig, Germany",51.3250872,12.2534944,1,,,,CompanyKeyword,"An der Alten Post in Leipzig, Germany",,german_fires_lepzig_locations,64baeb84a65441f7b74a97ed969c53af,german_fires_lepzig_locations__64baeb84a65441f7b74a97ed969c53af
an der autobahn,"An der Autobahn in Leipzig, Germany",51.4034792,12.398341,1,,,,Media,"An der Autobahn in Leipzig, Germany",,german_fires_lepzig_locations,79553f398c271a08c4873b35ec52cad4,german_fires_lepzig_locations__79553f398c271a08c4873b35ec52cad4
an der badeanlage,"An der Badeanlage in Leipzig, Germany",51.2789972,12.4651815,1,,,,space,"An der Badeanlage in Leipzig, Germany",,german_fires_lepzig_locations,edf1c293b4cb2291244f1ceb2ffba5d3,german_fires_lepzig_locations__edf1c293b4cb2291244f1ceb2ffba5d3
an der bahn,"An der Bahn in Leipzig, Germany",51.3454111,12.4874964,1,,,,News,"An der Bahn in Leipzig, Germany",,german_fires_lepzig_locations,115c0dcb47bd2f3a0f2590c83658fc21,german_fires_lepzig_locations__115c0dcb47bd2f3a0f2590c83658fc21
an der brauerei,"An der Brauerei in Leipzig, Germany",51.2838466,12.4572949,1,,,,Legislator,"An der Brauerei in Leipzig, Germany",,german_fires_lepzig_locations,1c5f9a22ca18b78e3e57b209af3aa730,german_fires_lepzig_locations__1c5f9a22ca18b78e3e57b209af3aa730
an der brucke,"An der Brucke in Leipzig, Germany",51.3539885,12.2654568,1,,,,Exec,"An der Brucke in Leipzig, Germany",,german_fires_lepzig_locations,08250420f9b5f74bc0d1b169643b1748,german_fires_lepzig_locations__08250420f9b5f74bc0d1b169643b1748
an der burgaue,"An der Burgaue in Leipzig, Germany",51.3567512,12.3007973,1,,,,Person,"An der Burgaue in Leipzig, Germany",,german_fires_lepzig_locations,ffe26c82da2777a62ae3ff700d6824ad,german_fires_lepzig_locations__ffe26c82da2777a62ae3ff700d6824ad
an der eisenbahn,"An der Eisenbahn in Leipzig, Germany",51.2830667,12.46918,1,,,,Shipping,"An der Eisenbahn in Leipzig, Germany",,german_fires_lepzig_locations,77b8972a0246b11c9fbddfb275c3e9f3,german_fires_lepzig_locations__77b8972a0246b11c9fbddfb275c3e9f3
an der elster,"An der Elster in Leipzig, Germany",51.3718371,12.3116045,1,,,,DiplomaticFacilities,"An der Elster in Leipzig, Germany",,german_fires_lepzig_locations,047d6d360149c762d4993103e6b6f8e3,german_fires_lepzig_locations__047d6d360149c762d4993103e6b6f8e3
an der fasanerie,"An der Fasanerie in Leipzig, Germany",51.3898925,12.4455785,1,,,,CompanyKeyword,"An der Fasanerie in Leipzig, Germany",,german_fires_lepzig_locations,e9622310579d880e6ac73445f04bd8f7,german_fires_lepzig_locations__e9622310579d880e6ac73445f04bd8f7
an der feuerwache,"An der Feuerwache in Leipzig, Germany",51.3594248,12.2810711,1,,,,IndustryTerm,"An der Feuerwache in Leipzig, Germany",,german_fires_lepzig_locations,9e2336a2f7e11411300e814eaaa1accf,german_fires_lepzig_locations__9e2336a2f7e11411300e814eaaa1accf
an der feuerwehr,"An der Feuerwehr in Leipzig, Germany",51.3846389,12.2806233,1,,,,FTO,"An der Feuerwehr in Leipzig, Germany",,german_fires_lepzig_locations,8080d91e687af3435191d4f527ae4bca,german_fires_lepzig_locations__8080d91e687af3435191d4f527ae4bca
an der friedenseiche,"An der Friedenseiche in Leipzig, Germany",51.3436029,12.2519179,1,,,,LegislativeCommittee,"An der Friedenseiche in Leipzig, Germany",,german_fires_lepzig_locations,7ff490502afb67468c714e1a0c461324,german_fires_lepzig_locations__7ff490502afb67468c714e1a0c461324
an der ganseweide,"An der Ganseweide in Leipzig, Germany",51.3039013,12.4688418,1,,,,News,"An der Ganseweide in Leipzig, Germany",,german_fires_lepzig_locations,4e11ebeafd809d963bee23e04ae4272e,german_fires_lepzig_locations__4e11ebeafd809d963bee23e04ae4272e
an der gartnerei,"An der Gartnerei in Leipzig, Germany",51.324017,12.2581795,1,,,,AAEntity,"An der Gartnerei in Leipzig, Germany",,german_fires_lepzig_locations,95d566ca6a063d7c298a402ace04b855,german_fires_lepzig_locations__95d566ca6a063d7c298a402ace04b855
an der grundschule,"An der Grundschule in Leipzig, Germany",51.3414736,12.4876091,1,,,,Consulates,"An der Grundschule in Leipzig, Germany",,german_fires_lepzig_locations,5050762e972500622f475aceb4db74b7,german_fires_lepzig_locations__5050762e972500622f475aceb4db74b7
an der hainkirche,"An der Hainkirche in Leipzig, Germany",51.3846555,12.265535,1,,,,Media,"An der Hainkirche in Leipzig, Germany",,german_fires_lepzig_locations,d9fd34cd5852c26a2d558252370f0db3,german_fires_lepzig_locations__d9fd34cd5852c26a2d558252370f0db3
an der hauptstrasse,"An der Hauptstrasse in Leipzig, Germany",51.4202496,12.4513096,1,,,,ForeignMinistry,"An der Hauptstrasse in Leipzig, Germany",,german_fires_lepzig_locations,cc6ff8aa150f2f98180f31e104d10b11,german_fires_lepzig_locations__cc6ff8aa150f2f98180f31e104d10b11
an der hebemarchte,"An der Hebemarchte in Leipzig, Germany",51.3219014,12.4945565,1,,,,Refinery,"An der Hebemarchte in Leipzig, Germany",,german_fires_lepzig_locations,2a001a5c9b3831e97a7cd59e37c80d60,german_fires_lepzig_locations__2a001a5c9b3831e97a7cd59e37c80d60
an der hufschmiede,"An der Hufschmiede in Leipzig, Germany",51.3935593,12.3396761,1,,,,Organization,"An der Hufschmiede in Leipzig, Germany",,german_fires_lepzig_locations,19ace6807e7ceb51d124996e41d59e51,german_fires_lepzig_locations__19ace6807e7ceb51d124996e41d59e51
an der kaninchenfarm,"An der Kaninchenfarm in Leipzig, Germany",51.3428538,12.2942708,1,,,,Media,"An der Kaninchenfarm in Leipzig, Germany",,german_fires_lepzig_locations,ea7e21b67cf39df128a349c361a4c735,german_fires_lepzig_locations__ea7e21b67cf39df128a349c361a4c735
an der kegelbahn,"An der Kegelbahn in Leipzig, Germany",51.3786851,12.3332275,1,,,,ForeignMinistry,"An der Kegelbahn in Leipzig, Germany",,german_fires_lepzig_locations,b77be4c71d4276d3d29c8a958dd78c04,german_fires_lepzig_locations__b77be4c71d4276d3d29c8a958dd78c04
an der kirche,"An der Kirche in Leipzig, Germany",51.3080202,12.464252,1,,,,FTO,"An der Kirche in Leipzig, Germany",,german_fires_lepzig_locations,4c55ca7f6686d9d21cef129086bb0718,german_fires_lepzig_locations__4c55ca7f6686d9d21cef129086bb0718
an der kirchgasse,"An der Kirchgasse in Leipzig, Germany",51.3220708,12.2578016,1,,,,ForeignMinistry,"An der Kirchgasse in Leipzig, Germany",,german_fires_lepzig_locations,2c09e17dfaecd11a14f9c5e935fe3f8c,german_fires_lepzig_locations__2c09e17dfaecd11a14f9c5e935fe3f8c
an der kirschallee,"An der Kirschallee in Leipzig, Germany",51.3879806,12.2756448,1,,,,Exec,"An der Kirschallee in Leipzig, Germany",,german_fires_lepzig_locations,a0b53c1a2e44cf6adc2ac62bb5d410fb,german_fires_lepzig_locations__a0b53c1a2e44cf6adc2ac62bb5d410fb
an der kotsche,"An der Kotsche in Leipzig, Germany",51.3092907,12.2680837,1,,,,Keyphrase,"An der Kotsche in Leipzig, Germany",,german_fires_lepzig_locations,b603a6e624f91ab487ed1907b870ccbb,german_fires_lepzig_locations__b603a6e624f91ab487ed1907b870ccbb
an der lautsche,"An der Lautsche in Leipzig, Germany",51.309834,12.2634793,1,,,,News,"An der Lautsche in Leipzig, Germany",,german_fires_lepzig_locations,177e442ef1c7798d9b9767eb15f29fe4,german_fires_lepzig_locations__177e442ef1c7798d9b9767eb15f29fe4
an der lehde,"An der Lehde in Leipzig, Germany",51.3456137,12.3213812,1,,,,Wells,"An der Lehde in Leipzig, Germany",,german_fires_lepzig_locations,e2f601a584aa515bf7dffe65e80af52f,german_fires_lepzig_locations__e2f601a584aa515bf7dffe65e80af52f
an der luppe,"An der Luppe in Leipzig, Germany",51.3569356,12.3033938,1,,,,Consulates,"An der Luppe in Leipzig, Germany",,german_fires_lepzig_locations,105eafe41207d33544eabd2ae3144d7b,german_fires_lepzig_locations__105eafe41207d33544eabd2ae3144d7b
an der marchenwiese,"An der Marchenwiese in Leipzig, Germany",51.3061752,12.3964745,1,,,,DiplomaticFacilities,"An der Marchenwiese in Leipzig, Germany",,german_fires_lepzig_locations,f40a6c95bfcf933fe2db28cfab076ccd,german_fires_lepzig_locations__f40a6c95bfcf933fe2db28cfab076ccd
an der merseburger strasse,"An der Merseburger Strasse in Leipzig, Germany",51.3436138,12.2898334,1,,,,Keyphrase,"An der Merseburger Strasse in Leipzig, Germany",,german_fires_lepzig_locations,87a482d31c8f57b0125227c01dfe9b81,german_fires_lepzig_locations__87a482d31c8f57b0125227c01dfe9b81
an der meusdorfer hohe,"An der Meusdorfer Hohe in Leipzig, Germany",51.2979951,12.4445836,1,,,,Legislator,"An der Meusdorfer Hohe in Leipzig, Germany",,german_fires_lepzig_locations,983d537acef7792fbc6de002a1916b69,german_fires_lepzig_locations__983d537acef7792fbc6de002a1916b69
an der milchinsel,"An der Milchinsel in Leipzig, Germany",51.3430164,12.3915335,1,,,,ForeignMinistry,"An der Milchinsel in Leipzig, Germany",,german_fires_lepzig_locations,2d801da1a773febcfc5cca2140c73511,german_fires_lepzig_locations__2d801da1a773febcfc5cca2140c73511
an der muhle,"An der Muhle in Leipzig, Germany",51.3102299,12.455049,1,,,,LegislativeCommittee,"An der Muhle in Leipzig, Germany",,german_fires_lepzig_locations,18e8aaa0136cfc517f75df4900b85808,german_fires_lepzig_locations__18e8aaa0136cfc517f75df4900b85808
an der muhlpleisse,"An der Muhlpleisse in Leipzig, Germany",51.2914184,12.3888717,1,,,,AAEntity,"An der Muhlpleisse in Leipzig, Germany",,german_fires_lepzig_locations,bb52c892c80837c4db35c2b3fd3c94b0,german_fires_lepzig_locations__bb52c892c80837c4db35c2b3fd3c94b0
an der parthe,"An der Parthe in Leipzig, Germany",51.3724466,12.4185642,1,,,,Person,"An der Parthe in Leipzig, Germany",,german_fires_lepzig_locations,f397ad8dc6863f6460ac3eed46f5aa88,german_fires_lepzig_locations__f397ad8dc6863f6460ac3eed46f5aa88
an der passage,"An der Passage in Leipzig, Germany",51.4002928,12.3973563,1,,,,Pipeline,"An der Passage in Leipzig, Germany",,german_fires_lepzig_locations,3aa57c1d090f6f233df9d0fb0700acd0,german_fires_lepzig_locations__3aa57c1d090f6f233df9d0fb0700acd0
an der querbreite,"An der Querbreite in Leipzig, Germany",51.3713876,12.3882741,1,,,,Consulates,"An der Querbreite in Leipzig, Germany",,german_fires_lepzig_locations,6dffe2e787a6f63b10956b30eed2791d,german_fires_lepzig_locations__6dffe2e787a6f63b10956b30eed2791d
an der rehwiese,"An der Rehwiese in Leipzig, Germany",51.3562388,12.2601094,1,,,,News,"An der Rehwiese in Leipzig, Germany",,german_fires_lepzig_locations,3cdcac213bac3fdc1ecfd408878d0bca,german_fires_lepzig_locations__3cdcac213bac3fdc1ecfd408878d0bca
an der rietzschke,"An der Rietzschke in Leipzig, Germany",51.3160458,12.4426124,1,,,,Wells,"An der Rietzschke in Leipzig, Germany",,german_fires_lepzig_locations,1be62954dbf3f74935b2556f59d46d45,german_fires_lepzig_locations__1be62954dbf3f74935b2556f59d46d45
an der salzstrasse,"An der Salzstrasse in Leipzig, Germany",51.3981572,12.2932151,1,,,,Pipeline,"An der Salzstrasse in Leipzig, Germany",,german_fires_lepzig_locations,168972474b5f3a91f74f2057aed195f1,german_fires_lepzig_locations__168972474b5f3a91f74f2057aed195f1
an der sandgrube,"An der Sandgrube in Leipzig, Germany",51.3401482,12.2606576,1,,,,Consulates,"An der Sandgrube in Leipzig, Germany",,german_fires_lepzig_locations,86089fec3d4995d288155ce44d632ddc,german_fires_lepzig_locations__86089fec3d4995d288155ce44d632ddc
an der schaferei,"An der Schaferei in Leipzig, Germany",51.3819882,12.2813018,1,,,,Keyphrase,"An der Schaferei in Leipzig, Germany",,german_fires_lepzig_locations,1cecb64ca444a639d3f070786250cb59,german_fires_lepzig_locations__1cecb64ca444a639d3f070786250cb59
an der schule,"An der Schule in Leipzig, Germany",51.3915843,12.3333418,1,,,,space,"An der Schule in Leipzig, Germany",,german_fires_lepzig_locations,2e8bd5b9d81afddcd35ee90b0470cd65,german_fires_lepzig_locations__2e8bd5b9d81afddcd35ee90b0470cd65
an der siedlung,"An der Siedlung in Leipzig, Germany",51.2788383,12.4710742,1,,,,LegislativeCommittee,"An der Siedlung in Leipzig, Germany",,german_fires_lepzig_locations,51613da29e9c85221326861806d8daec,german_fires_lepzig_locations__51613da29e9c85221326861806d8daec
an der spitze,"An der Spitze in Leipzig, Germany",51.2743409,12.4755218,1,,,,Media,"An der Spitze in Leipzig, Germany",,german_fires_lepzig_locations,d88d303831a93b631c2f990898dd56c3,german_fires_lepzig_locations__d88d303831a93b631c2f990898dd56c3
an der streuobstwiese,"An der Streuobstwiese in Leipzig, Germany",51.3430963,12.3161681,1,,,,ForeignMinistry,"An der Streuobstwiese in Leipzig, Germany",,german_fires_lepzig_locations,6802916b44b63add5b0baca46a2a3925,german_fires_lepzig_locations__6802916b44b63add5b0baca46a2a3925
an der tabaksmuhle,"An der Tabaksmuhle in Leipzig, Germany",51.3127692,12.4036826,1,,,,Shipping,"An der Tabaksmuhle in Leipzig, Germany",,german_fires_lepzig_locations,ade0443636d95d17886faf97d14b499b,german_fires_lepzig_locations__ade0443636d95d17886faf97d14b499b
an der teichmuhle,"An der Teichmuhle in Leipzig, Germany",51.3406608,12.2514056,1,,,,Person,"An der Teichmuhle in Leipzig, Germany",,german_fires_lepzig_locations,8bf3b354ae084cb9baf568dd69348c84,german_fires_lepzig_locations__8bf3b354ae084cb9baf568dd69348c84
an der telle,"An der Telle in Leipzig, Germany",51.3770416,12.3077411,1,,,,Refinery,"An der Telle in Leipzig, Germany",,german_fires_lepzig_locations,8c2c60c7513d0ea96c67c1f16add4a51,german_fires_lepzig_locations__8c2c60c7513d0ea96c67c1f16add4a51
an der trift,"An der Trift in Leipzig, Germany",51.2731858,12.458978,1,,,,IndustryTerm,"An der Trift in Leipzig, Germany",,german_fires_lepzig_locations,b95415edebb82b53764485a3d96b2ea8,german_fires_lepzig_locations__b95415edebb82b53764485a3d96b2ea8
an der verfassungslinde,"An der Verfassungslinde in Leipzig, Germany",51.3352822,12.3850455,1,,,,AAEntity,"An der Verfassungslinde in Leipzig, Germany",,german_fires_lepzig_locations,fdaa06d083ff91a7d94275aa302d9f62,german_fires_lepzig_locations__fdaa06d083ff91a7d94275aa302d9f62
an der vogelweide,"An der Vogelweide in Leipzig, Germany",51.3421994,12.2700072,1,,,,Keyphrase,"An der Vogelweide in Leipzig, Germany",,german_fires_lepzig_locations,847e2da2e4b5ebcc9cfe7972bd99c64e,german_fires_lepzig_locations__847e2da2e4b5ebcc9cfe7972bd99c64e
an der weide,"An der Weide in Leipzig, Germany",51.3096609,12.523132,1,,,,Legislator,"An der Weide in Leipzig, Germany",,german_fires_lepzig_locations,026b38691dd90d218d0f493ea34c45fa,german_fires_lepzig_locations__026b38691dd90d218d0f493ea34c45fa
an der wendeschleife,"An der Wendeschleife in Leipzig, Germany",51.2576063,12.2999573,1,,,,FTO,"An der Wendeschleife in Leipzig, Germany",,german_fires_lepzig_locations,f87a6eb27c199cab9c40e701fe166b83,german_fires_lepzig_locations__f87a6eb27c199cab9c40e701fe166b83
an der windmuhle,"An der Windmuhle in Leipzig, Germany",51.3916453,12.3385899,1,,,,LegislativeCommittee,"An der Windmuhle in Leipzig, Germany",,german_fires_lepzig_locations,fa31ec247ea614d73098f117d6f9ad85,german_fires_lepzig_locations__fa31ec247ea614d73098f117d6f9ad85
andersenweg,"Andersenweg in Leipzig, Germany",51.3117927,12.3993371,1,,,,Diplomat,"Andersenweg in Leipzig, Germany",,german_fires_lepzig_locations,90dd57346baf3c525344e86ee67aca23,german_fires_lepzig_locations__90dd57346baf3c525344e86ee67aca23
andreasstrasse,"Andreasstrasse in Leipzig, Germany",51.3192967,12.3750588,1,,,,Refinery,"Andreasstrasse in Leipzig, Germany",,german_fires_lepzig_locations,60627be7977f6c71b90251962d6b73cb,german_fires_lepzig_locations__60627be7977f6c71b90251962d6b73cb
andromedaweg,"Andromedaweg in Leipzig, Germany",51.3193325,12.2713141,1,,,,ForeignMinistry,"Andromedaweg in Leipzig, Germany",,german_fires_lepzig_locations,50e228448cb231a612fb0f0e45c2c750,german_fires_lepzig_locations__50e228448cb231a612fb0f0e45c2c750
anemonenweg,"Anemonenweg in Leipzig, Germany",51.3323846,12.4392597,1,,,,Wells,"Anemonenweg in Leipzig, Germany",,german_fires_lepzig_locations,15efaecc149cb8f17fe8300d8027fdbd,german_fires_lepzig_locations__15efaecc149cb8f17fe8300d8027fdbd
angerstrasse,"Angerstrasse in Leipzig, Germany",51.3396794,12.3369548,1,,,,Refinery,"Angerstrasse in Leipzig, Germany",,german_fires_lepzig_locations,a92bdf128c154e987c6d2e3c2b2d836f,german_fires_lepzig_locations__a92bdf128c154e987c6d2e3c2b2d836f
anhalter strasse,"Anhalter Strasse in Leipzig, Germany",51.3635604,12.3896206,1,,,,space,"Anhalter Strasse in Leipzig, Germany",,german_fires_lepzig_locations,9e0c7f8cedbd6bc838a479d2a0ec65fa,german_fires_lepzig_locations__9e0c7f8cedbd6bc838a479d2a0ec65fa
anna-kuhnow-strasse,"Anna-Kuhnow-Strasse in Leipzig, Germany",51.3373762,12.4025779,1,,,,Refinery,"Anna-Kuhnow-Strasse in Leipzig, Germany",,german_fires_lepzig_locations,97d994355ada92f32791a0267f4e68a1,german_fires_lepzig_locations__97d994355ada92f32791a0267f4e68a1
annaberger strasse,"Annaberger Strasse in Leipzig, Germany",51.3726115,12.3314386,1,,,,Exec,"Annaberger Strasse in Leipzig, Germany",,german_fires_lepzig_locations,2bff81647d032d5388bb5c704496559d,german_fires_lepzig_locations__2bff81647d032d5388bb5c704496559d
annenstrasse,"Annenstrasse in Leipzig, Germany",51.3440951,12.4215961,1,,,,Pipeline,"Annenstrasse in Leipzig, Germany",,german_fires_lepzig_locations,8e963d9be1e5dbcb06da47d8888d7204,german_fires_lepzig_locations__8e963d9be1e5dbcb06da47d8888d7204
ansbacher strasse,"Ansbacher Strasse in Leipzig, Germany",51.3099427,12.2841433,1,,,,IndustryTerm,"Ansbacher Strasse in Leipzig, Germany",,german_fires_lepzig_locations,46a6c18d7d3240022d73b483a5b8b393,german_fires_lepzig_locations__46a6c18d7d3240022d73b483a5b8b393
anton-bruckner-allee,"Anton-Bruckner-Allee in Leipzig, Germany",51.3308745,12.3564036,1,,,,Consulates,"Anton-Bruckner-Allee in Leipzig, Germany",,german_fires_lepzig_locations,c22eb910977747ae2d40b0168522814c,german_fires_lepzig_locations__c22eb910977747ae2d40b0168522814c
anton-zickmantel-strasse,"Anton-Zickmantel-Strasse in Leipzig, Germany",51.3026042,12.3230414,1,,,,FTO,"Anton-Zickmantel-Strasse in Leipzig, Germany",,german_fires_lepzig_locations,d65dc2f2e799565b0e11adda8d850295,german_fires_lepzig_locations__d65dc2f2e799565b0e11adda8d850295
antonienstrasse,"Antonienstrasse in Leipzig, Germany",51.3203494,12.3247339,1,,,,FTO,"Antonienstrasse in Leipzig, Germany",,german_fires_lepzig_locations,fc0009b25f10584a9a32bcff0a8e35af,german_fires_lepzig_locations__fc0009b25f10584a9a32bcff0a8e35af
anzengruberstrasse,"Anzengruberstrasse in Leipzig, Germany",51.2987317,12.4323785,1,,,,Wells,"Anzengruberstrasse in Leipzig, Germany",,german_fires_lepzig_locations,9b7018dc5c6ae7d62f9a12c6e596d1e8,german_fires_lepzig_locations__9b7018dc5c6ae7d62f9a12c6e596d1e8
apels garten,"Apels Garten in Leipzig, Germany",51.3387034,12.3689144,1,,,,Legislator,"Apels Garten in Leipzig, Germany",,german_fires_lepzig_locations,8158851cba4ec23c4b2da30503527118,german_fires_lepzig_locations__8158851cba4ec23c4b2da30503527118
apelsteinweg,"Apelsteinweg in Leipzig, Germany",51.32061,12.4746248,1,,,,Wells,"Apelsteinweg in Leipzig, Germany",,german_fires_lepzig_locations,8db15b4b91f41cd4a336767d0eaa8d1e,german_fires_lepzig_locations__8db15b4b91f41cd4a336767d0eaa8d1e
apelstrasse,"Apelstrasse in Leipzig, Germany",51.3561181,12.3892895,1,,,,Media,"Apelstrasse in Leipzig, Germany",,german_fires_lepzig_locations,128dbef66cd92c29773832c9ccb2af9b,german_fires_lepzig_locations__128dbef66cd92c29773832c9ccb2af9b
apitzschgasse,"Apitzschgasse in Leipzig, Germany",51.3015144,12.3778714,1,,,,LegislativeCommittee,"Apitzschgasse in Leipzig, Germany",,german_fires_lepzig_locations,fba7fd94274d524fe2efdd4301c9bc9c,german_fires_lepzig_locations__fba7fd94274d524fe2efdd4301c9bc9c
apoldaer weg,"Apoldaer Weg in Leipzig, Germany",51.3225296,12.2833903,1,,,,AAEntity,"Apoldaer Weg in Leipzig, Germany",,german_fires_lepzig_locations,b33a2d8c720c1c4955b0c535fbb499c9,german_fires_lepzig_locations__b33a2d8c720c1c4955b0c535fbb499c9
apelstrasse,"Apelstrasse in Leipzig, Germany",51.3561181,12.3892895,1,,,,IndustryTerm,"Apelstrasse in Leipzig, Germany",,german_fires_lepzig_locations,128dbef66cd92c29773832c9ccb2af9b,german_fires_lepzig_locations__128dbef66cd92c29773832c9ccb2af9b
aprikosenweg,"Aprikosenweg in Leipzig, Germany",51.3262058,12.4432215,1,,,,Diplomat,"Aprikosenweg in Leipzig, Germany",,german_fires_lepzig_locations,877db4f0303013cdab869558f8e030f9,german_fires_lepzig_locations__877db4f0303013cdab869558f8e030f9
ariostiweg,"Ariostiweg in Leipzig, Germany",51.3214845,12.477854,1,,,,Legislator,"Ariostiweg in Leipzig, Germany",,german_fires_lepzig_locations,f94308dffd5d4459efbfb43fd38c80c8,german_fires_lepzig_locations__f94308dffd5d4459efbfb43fd38c80c8
arlandbogen,"Arlandbogen in Leipzig, Germany",51.3045434,12.4372797,1,,,,Wells,"Arlandbogen in Leipzig, Germany",,german_fires_lepzig_locations,b71f8cdda3d5bd98bff980c8ef5a2bb4,german_fires_lepzig_locations__b71f8cdda3d5bd98bff980c8ef5a2bb4
arminiushof,"Arminiushof in Leipzig, Germany",51.3097384,12.3993034,1,,,,AAEntity,"Arminiushof in Leipzig, Germany",,german_fires_lepzig_locations,d450b73c85ed631532895e00a2103be6,german_fires_lepzig_locations__d450b73c85ed631532895e00a2103be6
arndts hufen,"Arndts Hufen in Leipzig, Germany",51.3832741,12.4443505,1,,,,AAEntity,"Arndts Hufen in Leipzig, Germany",,german_fires_lepzig_locations,184b89dff437f01f2e9595d57a89466e,german_fires_lepzig_locations__184b89dff437f01f2e9595d57a89466e
arndtstrasse,"Arndtstrasse in Leipzig, Germany",51.3231682,12.3734666,1,,,,Legislator,"Arndtstrasse in Leipzig, Germany",,german_fires_lepzig_locations,8c3ca19f595b931996595e17cece3e5e,german_fires_lepzig_locations__8c3ca19f595b931996595e17cece3e5e
arnikaweg,"Arnikaweg in Leipzig, Germany",51.3889153,12.2698468,1,,,,Wells,"Arnikaweg in Leipzig, Germany",,german_fires_lepzig_locations,e73950c568e03003a5637501bf6e7c71,german_fires_lepzig_locations__e73950c568e03003a5637501bf6e7c71
arno-bruchardt-strasse,"Arno-Bruchardt-Strasse in Leipzig, Germany",51.3986839,12.3777214,1,,,,Refinery,"Arno-Bruchardt-Strasse in Leipzig, Germany",,german_fires_lepzig_locations,3259cd1dc5f4007b4a8da987a9180e25,german_fires_lepzig_locations__3259cd1dc5f4007b4a8da987a9180e25
arno-nitzsche-strasse,"Arno-Nitzsche-Strasse in Leipzig, Germany",51.3096562,12.3842972,1,,,,Exec,"Arno-Nitzsche-Strasse in Leipzig, Germany",,german_fires_lepzig_locations,850c8c87b213572d01c7992eb014f1d1,german_fires_lepzig_locations__850c8c87b213572d01c7992eb014f1d1
arnoldplatz,"Arnoldplatz in Leipzig, Germany",51.3479408,12.4928504,1,,,,Consulates,"Arnoldplatz in Leipzig, Germany",,german_fires_lepzig_locations,7e25056bec6ae9d61350510451f6e8fc,german_fires_lepzig_locations__7e25056bec6ae9d61350510451f6e8fc
arnoldstrasse,"Arnoldstrasse in Leipzig, Germany",51.3211187,12.4190271,1,,,,ForeignMinister,"Arnoldstrasse in Leipzig, Germany",,german_fires_lepzig_locations,981097130ac5960a46efdf3b0bb6f26b,german_fires_lepzig_locations__981097130ac5960a46efdf3b0bb6f26b
