german_text,caption_text,lat,lon,ranking,default location,default_lat,default_lon,,ss,ENTITY_LABEL,name,description,source,source_identifier,global_identifier
altenfurt,"Altenfurt in Nuremberg, Germany",49.4063738,11.1738314,2,"Nuremberg, Germany",49.45033536,11.10205625,,u,ForeignMinistry,"Altenfurt in Nuremberg, Germany",,german_fires_nuremberg_locations,c76bf8b8774be281111cc81bafc31ea9,german_fires_nuremberg_locations__274740c3e02f14d16cbcf17dda5e08e9
barenschanze,"Barenschanze in Nuremberg, Germany",49.4528905,11.048146,2,,,,,a,Refinery,"Barenschanze in Nuremberg, Germany",,german_fires_nuremberg_locations,643bc8b3f3f4afad301eaf8b579499b3,german_fires_nuremberg_locations__fd8af78f637feda882adfcf48e7f2ce9
boxdorf,"Boxdorf in Nuremberg, Germany",49.5163637,11.0172093,2,,,,,o,Media,"Boxdorf in Nuremberg, Germany",,german_fires_nuremberg_locations,d5f1fc4a87307da3a4912f59ad2acd30,german_fires_nuremberg_locations__00e8bc2748af2a6db6a80a04f3a1a343
brunn,"Brunn in Nuremberg, Germany",49.4251963,11.2663657,2,,,,,,Refinery,"Brunn in Nuremberg, Germany",,german_fires_nuremberg_locations,e90f73950eba3dda8066c3aa5990ca5e,german_fires_nuremberg_locations__77b650bb429bbf44a5229a539ed2953d
buch,"Buch in Nuremberg, Germany",49.4967937,11.0332553,2,,,,,,Shipping,"Buch in Nuremberg, Germany",,german_fires_nuremberg_locations,c68b9a6842b7ffcac671b9d1be1f5734,german_fires_nuremberg_locations__cfce945d373d7bd5051c633b31355f34
buchenbuhl,"Buchenbuhl in Nuremberg, Germany",49.5019203,11.1134309,2,,,,,,Diplomat,"Buchenbuhl in Nuremberg, Germany",,german_fires_nuremberg_locations,b34ea50a83945fb78c2f75f2b618bcf2,german_fires_nuremberg_locations__822913976018884483c91b8d22fe2cee
eibach,"Eibach in Nuremberg, Germany",49.4016318,11.0329845,2,,,,,,ForeignMinistry,"Eibach in Nuremberg, Germany",,german_fires_nuremberg_locations,d901485ad648e88b948d7106046be96f,german_fires_nuremberg_locations__64fa3e21400d7f22835296a60c54180b
erlenstegen,"Erlenstegen in Nuremberg, Germany",49.4739513,11.1362907,2,,,,,,Wells,"Erlenstegen in Nuremberg, Germany",,german_fires_nuremberg_locations,62756da5963d492f987dd168e98af6ad,german_fires_nuremberg_locations__7a08542c3651027f16a3355791556de8
fischbach,"Fischbach in Nuremberg, Germany",49.4212752,11.1883033,2,,,,,,FTO,"Fischbach in Nuremberg, Germany",,german_fires_nuremberg_locations,1e23c7062c168907568d07b88bc18d81,german_fires_nuremberg_locations__f6118806fdb636070ae5296950ce67ba
gartenstadt,"Gartenstadt in Nuremberg, Germany",49.4071263,11.0825771,2,,,,,,Pipeline,"Gartenstadt in Nuremberg, Germany",,german_fires_nuremberg_locations,7524f3e54d8e765ff238bdd20b0718d0,german_fires_nuremberg_locations__c23ae5bafa158628bc0eab33d7fa6f08
gebersdorf,"Gebersdorf in Nuremberg, Germany",49.4295423,11.0101273,2,,,,,,Media,"Gebersdorf in Nuremberg, Germany",,german_fires_nuremberg_locations,6c23576eba5edddd14ffb0d74d4847e7,german_fires_nuremberg_locations__d5aea520b3223e9f55ab589ff53f4813
gerasmuhle,"Gerasmuhle in Nuremberg, Germany",49.4528471,11.0495401,2,,,,,,FTO,"Gerasmuhle in Nuremberg, Germany",,german_fires_nuremberg_locations,3ef84041dc1c5aa542be322f681a42b5,german_fires_nuremberg_locations__48f0c8856010b0e213697a04abf9ca03
gibitzenhof,"Gibitzenhof in Nuremberg, Germany",49.4330228,11.067414,2,,,,,,Media,"Gibitzenhof in Nuremberg, Germany",,german_fires_nuremberg_locations,617251ea8a6d2bedeec4b91525c25535,german_fires_nuremberg_locations__a510b870ae10f786453849e437e9dc82
gleisshammer,"Gleisshammer in Nuremberg, Germany",49.4448534,11.1179108,2,,,,,,ForeignMinistry,"Gleisshammer in Nuremberg, Germany",,german_fires_nuremberg_locations,9bc98c48688e579a176a3b572eba6887,german_fires_nuremberg_locations__dd116d3d87bf76057366b2b24f8720e8
grossgrundlach,"Grossgrundlach in Nuremberg, Germany",49.5303449,11.0057382,2,,,,,,Pipeline,"Grossgrundlach in Nuremberg, Germany",,german_fires_nuremberg_locations,cc0854fe75913a5b9c975e7ed1e782b3,german_fires_nuremberg_locations__a204b011ce2759ea53fb7c385d4b679b
herpersdorf,"Herpersdorf in Nuremberg, Germany",49.3729198,11.0774885,2,,,,,,FTO,"Herpersdorf in Nuremberg, Germany",,german_fires_nuremberg_locations,4616bdf70ad388172f6226ae8a038aa7,german_fires_nuremberg_locations__54d1e7dc3baf7502997f6cf53c99be4c
herrnhutte,"Herrnhutte in Nuremberg, Germany",49.478119,11.1110742,2,,,,,,Refinery,"Herrnhutte in Nuremberg, Germany",,german_fires_nuremberg_locations,66651908a91c16f858d5077883b7ff47,german_fires_nuremberg_locations__a4a34343c681ac7dbfe49432c7a5ada8
hofen,"Hofen in Nuremberg, Germany",49.4499961,11.011408,2,,,,,,FTO,"Hofen in Nuremberg, Germany",,german_fires_nuremberg_locations,8211a14781838c5e31cb264d4d355a69,german_fires_nuremberg_locations__9c50af58e510295a31e82f12875a2eda
katzwang,"Katzwang in Nuremberg, Germany",49.3515961,11.0588978,2,,,,,,Exec,"Katzwang in Nuremberg, Germany",,german_fires_nuremberg_locations,d44303e2a2d1788b2cc55ebd940feb70,german_fires_nuremberg_locations__0f6fe81ad25df3a5f8ca4220f7e028bf
klingenhof,"Klingenhof in Nuremberg, Germany",49.4774767,11.1136782,2,,,,,,Consulates,"Klingenhof in Nuremberg, Germany",,german_fires_nuremberg_locations,697bc889f052af2dc5945e00307699e8,german_fires_nuremberg_locations__8dd366c24bbdfbfc07bf8af789742423
kornburg,"Kornburg in Nuremberg, Germany",49.3552331,11.1009393,2,,,,,,DiplomaticFacilities,"Kornburg in Nuremberg, Germany",,german_fires_nuremberg_locations,42c379e2ffd11f406632fb0f1e36e5b1,german_fires_nuremberg_locations__8fc900e1d467500fc3c5a634204a4ae8
kraftshof,"Kraftshof in Nuremberg, Germany",49.5082512,11.0479698,2,,,,,,Shipping,"Kraftshof in Nuremberg, Germany",,german_fires_nuremberg_locations,23534a17c634475480a171bb18b8689c,german_fires_nuremberg_locations__d074642203d9cffa01029acbb49d1fb4
langwasser,"Langwasser in Nuremberg, Germany",49.413795,11.1394785,2,,,,,,Exec,"Langwasser in Nuremberg, Germany",,german_fires_nuremberg_locations,f68060abaa9d99c02007f86d115ad51d,german_fires_nuremberg_locations__d1cffb144889a19978bb3b7ac79616d4
laufamholz,"Laufamholz in Nuremberg, Germany",49.4662671,11.1626241,2,,,,,,News,"Laufamholz in Nuremberg, Germany",,german_fires_nuremberg_locations,d613063142f83b06f92f7d1a68be758f,german_fires_nuremberg_locations__fe3cf44b861649670d5bcc31b82238cf
maxfeld,"Maxfeld in Nuremberg, Germany",49.4670821,11.0876989,2,,,,,,News,"Maxfeld in Nuremberg, Germany",,german_fires_nuremberg_locations,caef87c3aeb2fea891721cda958fb92a,german_fires_nuremberg_locations__d42861b83b89e0cf56129a25c07f6a19
mogeldorf,"Mogeldorf in Nuremberg, Germany",49.462323,11.1367537,2,,,,,,Refinery,"Mogeldorf in Nuremberg, Germany",,german_fires_nuremberg_locations,0ee0b8d2204e7a60d4496b85236afd14,german_fires_nuremberg_locations__f23c78223b8a3c6a2b6094df9b0be7b7
moorenbrunn,"Moorenbrunn in Nuremberg, Germany",49.3971631,11.1718678,2,,,,,,Diplomat,"Moorenbrunn in Nuremberg, Germany",,german_fires_nuremberg_locations,2764aa214f119cfda54b25ed6d348568,german_fires_nuremberg_locations__ad7eb52ec8c0619377dd6948216ec5c0
neunhof,"Neunhof in Nuremberg, Germany",49.5237689,11.04731,2,,,,,,ForeignMinister,"Neunhof in Nuremberg, Germany",,german_fires_nuremberg_locations,a135673c9285ba079f0c81a974e893a0,german_fires_nuremberg_locations__80e40ba235b5f1fba9b795e09548fdc8
pillenreuth,"Pillenreuth in Nuremberg, Germany",49.37904,11.0739885,2,,,,,,Wells,"Pillenreuth in Nuremberg, Germany",,german_fires_nuremberg_locations,1aa80b4e05b41c8bc5a436ada1f5d133,german_fires_nuremberg_locations__1fde398aadf5ec9d623f0b02b02aa10a
reichelsdorf,"Reichelsdorf in Nuremberg, Germany",49.3811958,11.0316898,2,,,,,,ForeignMinister,"Reichelsdorf in Nuremberg, Germany",,german_fires_nuremberg_locations,eb5d133211bddd9e03a6c0cd0f7e0732,german_fires_nuremberg_locations__6e6b3a7830e77af161f5a3d21cdf6982
rothenbach,"Rothenbach in Nuremberg, Germany",49.4159978,11.0374699,2,,,,,,LegislativeCommittee,"Rothenbach in Nuremberg, Germany",,german_fires_nuremberg_locations,343b6f1d086bdb051b9e09b89b3b1712,german_fires_nuremberg_locations__8f9a8e677fc4396a32905af9407df3ef
schafhof,"Schafhof in Nuremberg, Germany",49.4801802,11.1251765,2,,,,,,Shipping,"Schafhof in Nuremberg, Germany",,german_fires_nuremberg_locations,8b1b412d11298034300b9874a5dc9f6c,german_fires_nuremberg_locations__65e50ccdf0a907b4c450deab7dab818b
schnepfenreuth,"Schnepfenreuth in Nuremberg, Germany",49.4780162,11.0603313,2,,,,,,Consulates,"Schnepfenreuth in Nuremberg, Germany",,german_fires_nuremberg_locations,93956b3836f076e21bd1fddaf44b11cd,german_fires_nuremberg_locations__a7efb18b55ce6f9dde9d31b4b52ba5d6
schniegling,"Schniegling in Nuremberg, Germany",49.4702825,11.0278815,2,,,,,,ForeignMinistry,"Schniegling in Nuremberg, Germany",,german_fires_nuremberg_locations,ba20795a2da21561bc5568f1b63b78dd,german_fires_nuremberg_locations__826deba147d186beecdb41258a9ba5fb
schweinau,"Schweinau in Nuremberg, Germany",49.4321218,11.0501076,2,,,,,,AAEntity,"Schweinau in Nuremberg, Germany",,german_fires_nuremberg_locations,2a993aabc2b91f325cc13c8a7ecf064e,german_fires_nuremberg_locations__7bd1a653e7084b1ecf32adb24b826537
st. johannis,"St. Johannis in Nuremberg, Germany",49.4584024,11.065778,2,,,,,,IndustryTerm,"St. Johannis in Nuremberg, Germany",,german_fires_nuremberg_locations,df5e981c0047f10d1d5fb357190ecb38,german_fires_nuremberg_locations__75e04e02c7c5ed4e6a0441cceaac4072
st. leonhard,"St. Leonhard in Nuremberg, Germany",49.4398698,11.0497806,2,,,,,,Person,"St. Leonhard in Nuremberg, Germany",,german_fires_nuremberg_locations,acda79a47e2fec440ccda1a7d7644695,german_fires_nuremberg_locations__95288dc9487a1746f42e2603e949d89f
st. peter,"St. Peter in Nuremberg, Germany",49.445633,11.0953627,2,,,,,,Refinery,"St. Peter in Nuremberg, Germany",,german_fires_nuremberg_locations,47de09e1e415ff5bb6f544059c9612db,german_fires_nuremberg_locations__982ef0f432bac961551ec6bb118db0f7
steinbuhl,"Steinbuhl in Nuremberg, Germany",49.4404553,11.0703572,2,,,,,,Refinery,"Steinbuhl in Nuremberg, Germany",,german_fires_nuremberg_locations,499f5e575d59cb733426c46966281412,german_fires_nuremberg_locations__48c598a3de10d8b229576a68ed5c34f3
thon,"Thon in Nuremberg, Germany",49.4802931,11.0708667,2,,,,,,Legislator,"Thon in Nuremberg, Germany",,german_fires_nuremberg_locations,bffec7dda6e869be2aa5e517c8829a3b,german_fires_nuremberg_locations__bbfed6c07a8ab20f7fddf2355f490fe3
weiherhaus,"Weiherhaus in Nuremberg, Germany",49.3756308,11.0733985,2,,,,,,DiplomaticFacilities,"Weiherhaus in Nuremberg, Germany",,german_fires_nuremberg_locations,a7d7ed2e61250927acc7356ccde1f529,german_fires_nuremberg_locations__a2dfe449c0b79f238943a974a5ea8be1
wetzendorf,"Wetzendorf in Nuremberg, Germany",49.4744336,11.0515744,2,,,,,,Refinery,"Wetzendorf in Nuremberg, Germany",,german_fires_nuremberg_locations,2415ab9f454420d9efc1773f4d54b6cf,german_fires_nuremberg_locations__3f1f43cf3005c0003d53238db2b6bbe9
wohrd,"Wohrd in Nuremberg, Germany",49.4547943,11.09317,2,,,,,,ForeignMinistry,"Wohrd in Nuremberg, Germany",,german_fires_nuremberg_locations,0001103240ae79b758b22fb88ab7bcd2,german_fires_nuremberg_locations__a8ef923392f71501b6ae384729753275
zerzabelshof,"Zerzabelshof in Nuremberg, Germany",49.4372321,11.130154,2,,,,,,Diplomat,"Zerzabelshof in Nuremberg, Germany",,german_fires_nuremberg_locations,13f42ff4f0c7c2c1fd2d329970da1000,german_fires_nuremberg_locations__d6208343abc61f905cf2dc14980be03d
ziegelstein,"Ziegelstein in Nuremberg, Germany",49.4864086,11.11406,2,,,,,,Organization,"Ziegelstein in Nuremberg, Germany",,german_fires_nuremberg_locations,74426bc95dde1f02a8d6f7edd98f0798,german_fires_nuremberg_locations__89ac70d5f8c192e73f1d3cb5f1ffc54a
aachener strasse,"Aachener strasseasse in Nuremberg, Germany",49.4682636,11.058301,1,,,,,,LegislativeCommittee,"Aachener strasseasse in Nuremberg, Germany",,german_fires_nuremberg_locations,8591a2756c04c9a23997d4ccb0ca4ccc,german_fires_nuremberg_locations__531e670f5225616097e81b601e40cbe2
aalener strasse,"Aalener strasse in Nuremberg, Germany",49.4249449,11.0441479,1,,,,,,LegislativeCommittee,"Aalener strasse in Nuremberg, Germany",,german_fires_nuremberg_locations,8cc3344459f66a9be9714207696de599,german_fires_nuremberg_locations__7bab037cac9cfc5f5c85835a2a53fa62
abenberger strasse,"Abenberger strasse in Nuremberg, Germany",49.4057265,11.0376108,1,,,,,,CompanyKeyword,"Abenberger strasse in Nuremberg, Germany",,german_fires_nuremberg_locations,40014ad7967ec6302232ddd08cb973d0,german_fires_nuremberg_locations__6e96f8a7d5332088a0baf10c5706bc71
abendgasse,"Abendgasse in Nuremberg, Germany",49.4011257,11.0356746,1,,,,,,FTO,"Abendgasse in Nuremberg, Germany",,german_fires_nuremberg_locations,9239a663caf26e2df34504197aaa9570,german_fires_nuremberg_locations__505d254839c8f5d80a1e075f50e9513b
achahildisweg,"Achahildisweg in Nuremberg, Germany",49.3932786,11.1750322,1,,,,,,ForeignMinistry,"Achahildisweg in Nuremberg, Germany",,german_fires_nuremberg_locations,6370af046a9c390a0568f62112943bf3,german_fires_nuremberg_locations__8a6a7bf548881121a7a88684e3247ed3
ackerstrasse,"Ackerstrasse in Nuremberg, Germany",49.4403617,11.0648986,1,,,,,,IndustryTerm,"Ackerstrasse in Nuremberg, Germany",,german_fires_nuremberg_locations,c6551b5fb327230b2b4256aa90da48db,german_fires_nuremberg_locations__b75e5abc923bee13a2c1f0f80fcb7ede
adalbert-stifter-strasse,"Adalbert-Stifter-strasse in Nuremberg, Germany",49.4412754,11.128998,1,,,,,,Diplomat,"Adalbert-Stifter-strasse in Nuremberg, Germany",,german_fires_nuremberg_locations,8219cdd6c888649aeb174131b6aa831e,german_fires_nuremberg_locations__af53ed4fbf3bc1a878a3b1ce1ca6fca7
adalbertstrasse,"Adalbertstrasse in Nuremberg, Germany",49.428372,11.0423914,1,,,,,,FTO,"Adalbertstrasse in Nuremberg, Germany",,german_fires_nuremberg_locations,1543200d62b8c63f654dbfa968d1c623,german_fires_nuremberg_locations__17b26bad83fcdc76ba0a6a4ded2d00e1
adam-kraft-strasse,"Adam-Kraft-strasse in Nuremberg, Germany",49.4600629,11.0648632,1,,,,,,FTO,"Adam-Kraft-strasse in Nuremberg, Germany",,german_fires_nuremberg_locations,558751496b9ae43b5da073859c72560d,german_fires_nuremberg_locations__bd5405b4648ec18c30a657a370831919
adamstrasse,"Adamstrasse in Nuremberg, Germany",49.4604299,11.0976333,1,,,,,,AAEntity,"Adamstrasse in Nuremberg, Germany",,german_fires_nuremberg_locations,dba37d82e77e9d6b16df2ca1c878b286,german_fires_nuremberg_locations__ac28c2e10bc8241c79e4e7f8f6c8edf9
adelgundenstrasse,"Adelgundenstrasse in Nuremberg, Germany",49.4619814,11.0528338,1,,,,,,ForeignMinistry,"Adelgundenstrasse in Nuremberg, Germany",,german_fires_nuremberg_locations,a8de38ef6a22d4f2df08ffe1ae32baba,german_fires_nuremberg_locations__cca616d2c7bb288c92cd37af79412ac5
adlerstrasse,"Adlerstrasse in Nuremberg, Germany",49.4518938,11.0759855,1,,,,,,Organization,"Adlerstrasse in Nuremberg, Germany",,german_fires_nuremberg_locations,e22aad5716af350b19018ddff12879a8,german_fires_nuremberg_locations__0368bb74e73c96f8ce7ac6ddbf8dfd9e
adolf-braun-strasse,"Adolf-Braun-strasse in Nuremberg, Germany",49.4642081,11.025228,1,,,,,,Keyphrase,"Adolf-Braun-strasse in Nuremberg, Germany",,german_fires_nuremberg_locations,30cbcccbf2621294a87d0312e76967e0,german_fires_nuremberg_locations__f96fc4275001782b3e91493d9e79c437
adolf-v.-harless-strasse.,"Adolf-v.-Harless-strasse. in Nuremberg, Germany",49.5333129,11.0133141,1,,,,,,Keyphrase,"Adolf-v.-Harless-strasse. in Nuremberg, Germany",,german_fires_nuremberg_locations,88e7cb863c9ee7e7f4e823e52844fff4,german_fires_nuremberg_locations__6283d187d439f43ef68246f2a8666f2c
agnesgasse,"Agnesgasse in Nuremberg, Germany",49.4561484,11.0748309,1,,,,,,Consulates,"Agnesgasse in Nuremberg, Germany",,german_fires_nuremberg_locations,c70cea96877268c053034eb43768c732,german_fires_nuremberg_locations__e5029e7d11961ef205b5dcb98b8bec73
agnes-gerlach-ring,"Agnes-Gerlach-Ring in Nuremberg, Germany",49.3543707,11.061548,1,,,,,,ForeignMinister,"Agnes-Gerlach-Ring in Nuremberg, Germany",,german_fires_nuremberg_locations,e6bf48aef034f52698285bf75cab4a0c,german_fires_nuremberg_locations__daf75e23abee5562cb4eee00d7f9d4ec
ahornstrasse,"Ahornstrasse in Nuremberg, Germany",49.4099283,11.038354,1,,,,,,Refinery,"Ahornstrasse in Nuremberg, Germany",,german_fires_nuremberg_locations,a3ab935109c650058786c1d516c5a09a,german_fires_nuremberg_locations__f0dea72732e2ad06070e28941b3d6206
aichacher strasse,"Aichacher strasse in Nuremberg, Germany",49.3689711,11.0737765,1,,,,,,News,"Aichacher strasse in Nuremberg, Germany",,german_fires_nuremberg_locations,641e0692472186a12a0f54d94bc7fa6f,german_fires_nuremberg_locations__051e994ce59cc92f102a921a983dc65c
ailsbachweg,"Ailsbachweg in Nuremberg, Germany",49.4308813,11.0120878,1,,,,,,IndustryTerm,"Ailsbachweg in Nuremberg, Germany",,german_fires_nuremberg_locations,3c7763947f00f57ec1306e6e36c998fb,german_fires_nuremberg_locations__80884e7e3085bc862083143e59da1f1d
aischweg,"Aischweg in Nuremberg, Germany",49.431282,11.0111929,1,,,,,,FTO,"Aischweg in Nuremberg, Germany",,german_fires_nuremberg_locations,7f74104cd5d0662930d25ddcfecf97c1,german_fires_nuremberg_locations__8a8c1cd3c8f0f44a24c5ffb96f4654c3
ajtoschstrasse,"Ajtoschstrasse in Nuremberg, Germany",49.433405,11.084091,1,,,,,,Media,"Ajtoschstrasse in Nuremberg, Germany",,german_fires_nuremberg_locations,70967fa43566de1d33db069cb87b5f6f,german_fires_nuremberg_locations__fe64a428612a1c498cf2c0d552e83276
akeleiweg,"Akeleiweg in Nuremberg, Germany",49.418525,11.0599834,1,,,,,,AAEntity,"Akeleiweg in Nuremberg, Germany",,german_fires_nuremberg_locations,49d52ff803755e23504a2ffbcdbdf0ce,german_fires_nuremberg_locations__3ee6594a8d38a15cea62c439c4b8b9a6
alberichstrasse,"Alberichstrasse in Nuremberg, Germany",49.4394519,11.0990242,1,,,,,,ForeignMinister,"Alberichstrasse in Nuremberg, Germany",,german_fires_nuremberg_locations,6c09c47811bb7010b356accfd68f2b0e,german_fires_nuremberg_locations__31d67177cfb231abef6c178b3de85b54
albert-ortmann-strasse,"Albert-Ortmann-strasse in Nuremberg, Germany",49.4790142,11.0534182,1,,,,,,Organization,"Albert-Ortmann-strasse in Nuremberg, Germany",,german_fires_nuremberg_locations,7c41a5307159d3c7be9d1ec2cbac26ec,german_fires_nuremberg_locations__81822c44d4abe2f829fd8e3c2aea229d
albert-rosenfelder-strasse,"Albert-Rosenfelder-strasse in Nuremberg, Germany",49.4169825,11.0427897,1,,,,,,Consulates,"Albert-Rosenfelder-strasse in Nuremberg, Germany",,german_fires_nuremberg_locations,c89d4b502d305b8c86b63fea99e4159b,german_fires_nuremberg_locations__990d1727cad5e180a46da42ea87245d5
albert-schweitzer-strasse,"Albert-Schweitzer-strasse in Nuremberg, Germany",49.3635388,11.053306,1,,,,,,Pipeline,"Albert-Schweitzer-strasse in Nuremberg, Germany",,german_fires_nuremberg_locations,3f40f2e8029628be0186943ed5b1471a,german_fires_nuremberg_locations__769739a103e276200e5f77ebe667624b
albertstrasse,"Albertstrasse in Nuremberg, Germany",49.4466062,11.1039883,1,,,,,,AAEntity,"Albertstrasse in Nuremberg, Germany",,german_fires_nuremberg_locations,55e5623519e3e8de7795978db88a7478,german_fires_nuremberg_locations__3eb1ad96ed2d3d852d316c6c30e5b9aa
albrecht-achilles-strasse,"Albrecht-Achilles-strasse in Nuremberg, Germany",49.3744707,11.0748189,1,,,,,,Diplomat,"Albrecht-Achilles-strasse in Nuremberg, Germany",,german_fires_nuremberg_locations,2713a9fd7ec0226901f34bf06aa7837d,german_fires_nuremberg_locations__1a86394de2b61b75fec90bcbee59fa36
albrecht-durer-platz,"Albrecht-Durer-Platz in Nuremberg, Germany",49.4561511,11.0758831,1,,,,,,Organization,"Albrecht-Durer-Platz in Nuremberg, Germany",,german_fires_nuremberg_locations,77ea504bec9ed6344f5f00a1e405a5a1,german_fires_nuremberg_locations__015303d90c76d614bdd4b7559fba2a40
albrecht-durer-strasse,"Albrecht-Durer-strasse in Nuremberg, Germany",49.4564323,11.0742105,1,,,,,,Keyphrase,"Albrecht-Durer-strasse in Nuremberg, Germany",,german_fires_nuremberg_locations,76a1f096d066775bdf372f07db1a6715,german_fires_nuremberg_locations__7f37fd979ea6041a4f58ff30340f19aa
albrecht-thaer-strasse,"Albrecht-Thaer-strasse in Nuremberg, Germany",49.4160353,11.0279086,1,,,,,,Pipeline,"Albrecht-Thaer-strasse in Nuremberg, Germany",,german_fires_nuremberg_locations,8efed966aea9d6c801b6b6cb14efaf38,german_fires_nuremberg_locations__562ecd70ac94db1f41269f0d044dce20
aldringenstrasse,"Aldringenstrasse in Nuremberg, Germany",49.37395,11.019601,1,,,,,,AAEntity,"Aldringenstrasse in Nuremberg, Germany",,german_fires_nuremberg_locations,27b2d473fd00ec838ff2feee528b0e63,german_fires_nuremberg_locations__7e34fc4b09c32a9a35222fdc85a796e7
alexanderstrasse,"Alexanderstrasse in Nuremberg, Germany",49.4412837,11.0771968,1,,,,,,Media,"Alexanderstrasse in Nuremberg, Germany",,german_fires_nuremberg_locations,0e8310c6eb9b17cd19999f643516523d,german_fires_nuremberg_locations__83b5f7ac4e9e5434f401882f1cc252c9
alfelder weg,"Alfelder Weg in Nuremberg, Germany",49.4640753,11.1428923,1,,,,,,Legislator,"Alfelder Weg in Nuremberg, Germany",,german_fires_nuremberg_locations,febd6bec18d7a2b977888c3d1649c9ba,german_fires_nuremberg_locations__54161ac9001f4fac48fe648295dd4fe5
alfons-stauder-strasse,"Alfons-Stauder-strasse in Nuremberg, Germany",49.3645365,11.0571871,1,,,,,,Person,"Alfons-Stauder-strasse in Nuremberg, Germany",,german_fires_nuremberg_locations,d98098d4cd6f758a3cc430066c2d26e8,german_fires_nuremberg_locations__2b776d708088397f50332049e9b2362e
alfonsstrasse,"Alfonsstrasse in Nuremberg, Germany",49.4277529,11.0424207,1,,,,,,FTO,"Alfonsstrasse in Nuremberg, Germany",,german_fires_nuremberg_locations,e87f8ae37e584e81267e19953e80056b,german_fires_nuremberg_locations__a7fc1f64e406def262fe83a5dfb5ef5d
alfred-graf-weg,"Alfred-Graf-Weg in Nuremberg, Germany",49.4146341,11.1356731,1,,,,,,ForeignMinister,"Alfred-Graf-Weg in Nuremberg, Germany",,german_fires_nuremberg_locations,c8cbf8b0fb2c6ac8ff4a703f9b194514,german_fires_nuremberg_locations__ad564a208a0d0c057c0fa99f387a64c8
alfredstrasse,"Alfredstrasse in Nuremberg, Germany",49.4559684,11.0128446,1,,,,,,DiplomaticFacilities,"Alfredstrasse in Nuremberg, Germany",,german_fires_nuremberg_locations,20679ed50f0f7f39c5b3d57ad91df18c,german_fires_nuremberg_locations__32c896aa06aac2f266ddfc4b09776140
almoshofer hauptstrasse,"Almoshofer Hauptstrasse in Nuremberg, Germany",49.4892632,11.0645249,1,,,,,,FTO,"Almoshofer Hauptstrasse in Nuremberg, Germany",,german_fires_nuremberg_locations,d60515e8cccaa8e4eca3a0a560d8be6a,german_fires_nuremberg_locations__ee8168ef1f817a996d5cddfd953e6ef6
alpenrosenweg,"Alpenrosenweg in Nuremberg, Germany",49.4163883,11.0606534,1,,,,,,Media,"Alpenrosenweg in Nuremberg, Germany",,german_fires_nuremberg_locations,aee713e1b35b6d7430492f033b1f40c6,german_fires_nuremberg_locations__e04dbaac90c8107d3964d853d1fc27e2
alsterstrasse,"Alsterstrasse in Nuremberg, Germany",49.3609677,11.0544319,1,,,,,,ForeignMinister,"Alsterstrasse in Nuremberg, Germany",,german_fires_nuremberg_locations,e17a2ad628e8b13cfccfa5fba3b45aa4,german_fires_nuremberg_locations__7076c13ebd70170aebefe78e36ee78f7
altdorfer strasse,"Altdorfer strasse in Nuremberg, Germany",49.4531094,11.1191189,1,,,,,,LegislativeCommittee,"Altdorfer strasse in Nuremberg, Germany",,german_fires_nuremberg_locations,2186939d4e87fb315f728746c74ee7ea,german_fires_nuremberg_locations__5cbdf15217ab9cc259e610759bb29a01
alte parlerstrasse,"Alte Parlerstrasse in Nuremberg, Germany",49.4703318,11.0426871,1,,,,,,Consulates,"Alte Parlerstrasse in Nuremberg, Germany",,german_fires_nuremberg_locations,5bd9283728bf9f1e6335bbb9c492dfcb,german_fires_nuremberg_locations__dae8c80d966e3a6b5a87ac2cacf1b4a0
alte strasse,"Alte strasse in Nuremberg, Germany",49.4037597,11.0338478,1,,,,,,Wells,"Alte strasse in Nuremberg, Germany",,german_fires_nuremberg_locations,8dfb1370273f59db69fc6383affa74e6,german_fires_nuremberg_locations__0c5fd661a8feddd68be9f7a27cf35292
alte wallensteinstrasse,"Alte Wallensteinstrasse in Nuremberg, Germany",49.4344229,11.0214188,1,,,,,,Diplomat,"Alte Wallensteinstrasse in Nuremberg, Germany",,german_fires_nuremberg_locations,e74da6bc51df27145bab8c5a28d52bd7,german_fires_nuremberg_locations__bd71577eeb9c75fa674b72cabe97d003
altenberger strasse,"Altenberger strasse in Nuremberg, Germany",49.4414449,11.0084299,1,,,,,,IndustryTerm,"Altenberger strasse in Nuremberg, Germany",,german_fires_nuremberg_locations,95ce5bb1643c8e403871b35e57fc6db8,german_fires_nuremberg_locations__359d82cfa519fa6e1c340bc921f7b7f1
altenfurter strasse,"Altenfurter strasse in Nuremberg, Germany",49.4054097,11.1744245,1,,,,,,Legislator,"Altenfurter strasse in Nuremberg, Germany",,german_fires_nuremberg_locations,9856648ed4e57c84afee0b7cbf3ce13a,german_fires_nuremberg_locations__c459640c73ef82bff2a9555de30c7913
altmuhlweg,"Altmuhlweg in Nuremberg, Germany",49.3863674,11.0372853,1,,,,,,Refinery,"Altmuhlweg in Nuremberg, Germany",,german_fires_nuremberg_locations,b117821b03d7f17a1afb010d706a61c2,german_fires_nuremberg_locations__e9fa31098c7a9fb7295ad72f2adb1059
am alten sudhaus,"Am Alten Sudhaus in Nuremberg, Germany",49.4646025,11.0837325,1,,,,,,ForeignMinister,"Am Alten Sudhaus in Nuremberg, Germany",,german_fires_nuremberg_locations,dc1539039a7bcf74f9199af8084866e7,german_fires_nuremberg_locations__e6600b4397f9b78b3c3d68758baebe05
am anger,"Am Anger in Nuremberg, Germany",49.4888427,11.107416,1,,,,,,News,"Am Anger in Nuremberg, Germany",,german_fires_nuremberg_locations,c00b5b2b01122ef91031d1cb08ea5b78,german_fires_nuremberg_locations__465d257a744e7950a2e85055aa43f9e8
am bauernfeld,"Am Bauernfeld in Nuremberg, Germany",49.4238369,11.1907792,1,,,,,,Refinery,"Am Bauernfeld in Nuremberg, Germany",,german_fires_nuremberg_locations,03ded8346540a9439d9703755af56de1,german_fires_nuremberg_locations__0390f42210c3fb7bd491d0e75c16c039
am bauernwald,"Am Bauernwald in Nuremberg, Germany",49.4826698,11.110045,1,,,,,,CompanyKeyword,"Am Bauernwald in Nuremberg, Germany",,german_fires_nuremberg_locations,e7ba2f383cc1615aed5dd1dd39b44bdf,german_fires_nuremberg_locations__65840fd7909290c212473cf9d54f57f4
am baumling,"Am Baumling in Nuremberg, Germany",49.4875342,11.0758502,1,,,,,,Shipping,"Am Baumling in Nuremberg, Germany",,german_fires_nuremberg_locations,d92dea680ebc3802ade28b049b288061,german_fires_nuremberg_locations__5fc5f9a11d0d68ed393972709ef62294
am behlanger,"Am Behlanger in Nuremberg, Germany",49.4626758,11.1681771,1,,,,,,ForeignMinister,"Am Behlanger in Nuremberg, Germany",,german_fires_nuremberg_locations,cd55e89bc6797be071c6eba6bd0316dd,german_fires_nuremberg_locations__021dd47031bcafd91abf1a626dcbbe1f
am berg,"Am Berg in Nuremberg, Germany",49.3928798,11.1708626,1,,,,,,AAEntity,"Am Berg in Nuremberg, Germany",,german_fires_nuremberg_locations,29cbdd25f0845d23c48aa194373b7e3a,german_fires_nuremberg_locations__afe91f739648c6c23dd9ef6f34894418
am birkenschlag,"Am Birkenschlag in Nuremberg, Germany",49.3703485,11.0392058,1,,,,,,Diplomat,"Am Birkenschlag in Nuremberg, Germany",,german_fires_nuremberg_locations,1b801f5e2f00137aa4801b153264dfe2,german_fires_nuremberg_locations__1d123c0d00b7840c0d6d0a060fdfd469
am birnbaum,"Am Birnbaum in Nuremberg, Germany",49.4249661,11.0108846,1,,,,,,AAEntity,"Am Birnbaum in Nuremberg, Germany",,german_fires_nuremberg_locations,560700fc9b9d9b77b986450a3076ab2d,german_fires_nuremberg_locations__8465eec256177e2ac4831e5f43a6600d
am brand,"Am Brand in Nuremberg, Germany",49.4263277,11.1819559,1,,,,,,Exec,"Am Brand in Nuremberg, Germany",,german_fires_nuremberg_locations,c67cdb565513dcf4428cccd7ab1b9b9f,german_fires_nuremberg_locations__d41ae9becc9976343fd7e4a5c4b94051
am doktorsfeld,"Am Doktorsfeld in Nuremberg, Germany",49.4658118,11.1670733,1,,,,,,Exec,"Am Doktorsfeld in Nuremberg, Germany",,german_fires_nuremberg_locations,a84b06454352761cd3fa4c63e97feba4,german_fires_nuremberg_locations__8562febb749d243f0bb49c251148c858
am eichelberg,"Am Eichelberg in Nuremberg, Germany",49.3758849,11.0300901,1,,,,,,ForeignMinister,"Am Eichelberg in Nuremberg, Germany",,german_fires_nuremberg_locations,5d61e93d7d74a621a475111fcea26f3a,german_fires_nuremberg_locations__0b48055e0ffa9a43620a31e2660a7fe1
am eichgrabenfeld,"Am Eichgrabenfeld in Nuremberg, Germany",49.4490849,11.1251479,1,,,,,,Keyphrase,"Am Eichgrabenfeld in Nuremberg, Germany",,german_fires_nuremberg_locations,788535d4e3defe05e9f1bca3976e60f3,german_fires_nuremberg_locations__0c03fbf2c411a375b4ca23c62cfd0f37
am entengraben,"Am Entengraben in Nuremberg, Germany",49.3859204,11.0360275,1,,,,,,FTO,"Am Entengraben in Nuremberg, Germany",,german_fires_nuremberg_locations,3f67f87639acd9ac852d3e6bf4345c34,german_fires_nuremberg_locations__328d0ba4cfb663fe4158853bb09fbcd7
am fernmeldeturm,"Am Fernmeldeturm in Nuremberg, Germany",49.4274724,11.038921,1,,,,,,AAEntity,"Am Fernmeldeturm in Nuremberg, Germany",,german_fires_nuremberg_locations,d66eabd48a7d549949da17f818672c89,german_fires_nuremberg_locations__8bf406135881b7dc1710bc085c5abd74
am feuchter brucklein,"Am Feuchter Brucklein in Nuremberg, Germany",49.4165095,11.1938521,1,,,,,,Pipeline,"Am Feuchter Brucklein in Nuremberg, Germany",,german_fires_nuremberg_locations,36b3e5b6a6ff7ae60d639e101b7f9ef2,german_fires_nuremberg_locations__dc8cbf68a868def8baa7ce42bbefc4dc
am fuchsberg,"Am Fuchsberg in Nuremberg, Germany",49.3652777,11.0460398,1,,,,,,DiplomaticFacilities,"Am Fuchsberg in Nuremberg, Germany",,german_fires_nuremberg_locations,ce8aa8ff1aeee22eb958cf254fb50b94,german_fires_nuremberg_locations__b8591ae47e76f30dfa33087068cc540e
am gaulnhofener graben,"Am Gaulnhofener Graben in Nuremberg, Germany",49.3689002,11.079207,1,,,,,,AAEntity,"Am Gaulnhofener Graben in Nuremberg, Germany",,german_fires_nuremberg_locations,98a3cee551627f632ee7c5ab6275df4a,german_fires_nuremberg_locations__dec5773885d15c1b3aed203888643482
am goldhammer,"Am Goldhammer in Nuremberg, Germany",49.4640949,11.1280829,1,,,,,,Diplomat,"Am Goldhammer in Nuremberg, Germany",,german_fires_nuremberg_locations,1f1ef5de064b2833e7c19d431d5a0592,german_fires_nuremberg_locations__2cfa8159b29f8fe37827e3469766984d
am graben,"Am Graben in Nuremberg, Germany",49.4096771,11.1720271,1,,,,,,Legislator,"Am Graben in Nuremberg, Germany",,german_fires_nuremberg_locations,2ed12a3a5f240a03d1ccacf4aa5841bd,german_fires_nuremberg_locations__8fe6f9dd5c6061b2a573189108ed8d15
am hammer,"Am Hammer in Nuremberg, Germany",49.35262,11.055007,1,,,,,,Exec,"Am Hammer in Nuremberg, Germany",,german_fires_nuremberg_locations,305906d9f6e61e58036bdf5c4d4919ca,german_fires_nuremberg_locations__7380df5b988c71288de9c68bb107af18
am hang,"Am Hang in Nuremberg, Germany",49.4669572,11.1134956,1,,,,,,ForeignMinistry,"Am Hang in Nuremberg, Germany",,german_fires_nuremberg_locations,a48ede6cbaa7083c3bed9904555e224f,german_fires_nuremberg_locations__d7e90b394a072e3ff51dcea7cfa6aa76
am harnischschlag,"Am Harnischschlag in Nuremberg, Germany",49.4033876,11.1183012,1,,,,,,Media,"Am Harnischschlag in Nuremberg, Germany",,german_fires_nuremberg_locations,610daefe65832fdd54736d0b7b47877a,german_fires_nuremberg_locations__36e5e72551b27fdc2b7bee88f25ca949
am herrenwaldchen,"Am Herrenwaldchen in Nuremberg, Germany",49.4656696,11.1744892,1,,,,,,Wells,"Am Herrenwaldchen in Nuremberg, Germany",,german_fires_nuremberg_locations,4bfb48386fb5a88d1b2549d67c39557c,german_fires_nuremberg_locations__db23fec9cc5761da0b7c1f9ee3ac7629
am hirschfeld,"Am Hirschfeld in Nuremberg, Germany",49.4169971,11.0376655,1,,,,,,space,"Am Hirschfeld in Nuremberg, Germany",,german_fires_nuremberg_locations,3aeca54d19eae4d6d54ccf0fbdfae832,german_fires_nuremberg_locations__0619c3c6f379692fcfc367596a7cd68f
am hochwald,"Am Hochwald in Nuremberg, Germany",49.3731134,11.1058133,1,,,,,,News,"Am Hochwald in Nuremberg, Germany",,german_fires_nuremberg_locations,917616cf7260d1913ebc2523d9b1fe75,german_fires_nuremberg_locations__38fbd999a5d820f9bc70031111688a04
am kappelberg,"Am Kappelberg in Nuremberg, Germany",49.3467682,11.0479461,1,,,,,,Organization,"Am Kappelberg in Nuremberg, Germany",,german_fires_nuremberg_locations,22d89915f30a27a07aff96ac1bc2c22d,german_fires_nuremberg_locations__895680a95a9bfd04d1b10d348d5db8ae
am katharinenkloster,"Am Katharinenkloster in Nuremberg, Germany",49.4516995,11.0817216,1,,,,,,Exec,"Am Katharinenkloster in Nuremberg, Germany",,german_fires_nuremberg_locations,1b30f1ab431a7f5f74f92bd59df16f38,german_fires_nuremberg_locations__046f7c3cb37bdd94a65d6b75fd3ce137
am keuper,"Am Keuper in Nuremberg, Germany",49.3880867,11.1780297,1,,,,,,IndustryTerm,"Am Keuper in Nuremberg, Germany",,german_fires_nuremberg_locations,e43d333a8c52197f8fc255995aeb7d0d,german_fires_nuremberg_locations__0b6015f76e1667e6e55cc09f0c08ab2c
am klosterfeld,"Am Klosterfeld in Nuremberg, Germany",49.5314253,11.0170061,1,,,,,,Refinery,"Am Klosterfeld in Nuremberg, Germany",,german_fires_nuremberg_locations,f9047f123c6978b81a69e960ca6964e9,german_fires_nuremberg_locations__c5724549863279ff72411341f739ce86
am knappsteig,"Am Knappsteig in Nuremberg, Germany",49.5115644,11.0414826,1,,,,,,AAEntity,"Am Knappsteig in Nuremberg, Germany",,german_fires_nuremberg_locations,d425e1682b4e12264c3c18deb090d047,german_fires_nuremberg_locations__12aa1e98e48359339aaa082ac948ced6
am kohlrangen,"Am Kohlrangen in Nuremberg, Germany",49.4011356,11.0334236,1,,,,,,ForeignMinistry,"Am Kohlrangen in Nuremberg, Germany",,german_fires_nuremberg_locations,053e974071bcec4257799b7733944a04,german_fires_nuremberg_locations__c3d5bde09f1d44c3c3912fca3ddfbf97
am kressenstein,"Am Kressenstein in Nuremberg, Germany",49.5097171,11.0463429,1,,,,,,ForeignMinistry,"Am Kressenstein in Nuremberg, Germany",,german_fires_nuremberg_locations,2eb9eabc7eb60050835a111c8d2e49e4,german_fires_nuremberg_locations__e81a7cf34ca5b87db03be7eba4a25cda
am kreuzberg,"Am Kreuzberg in Nuremberg, Germany",49.3550005,11.0577238,1,,,,,,News,"Am Kreuzberg in Nuremberg, Germany",,german_fires_nuremberg_locations,604c63af6a462b4a0a9082005565641f,german_fires_nuremberg_locations__17d3a8bb4eaa0ba2ca517191adbdd63f
am kriegerdenkmal,"Am Kriegerdenkmal in Nuremberg, Germany",49.5185588,11.0482263,1,,,,,,IndustryTerm,"Am Kriegerdenkmal in Nuremberg, Germany",,german_fires_nuremberg_locations,ca6dadc1f4da652d8cf5b00db8c71126,german_fires_nuremberg_locations__17901ed8267ee855ebb8ee646619b359
am kuhnleinsgarten,"Am Kuhnleinsgarten in Nuremberg, Germany",49.3549449,11.065729,1,,,,,,space,"Am Kuhnleinsgarten in Nuremberg, Germany",,german_fires_nuremberg_locations,469f69dc1749d06dc6ab02e4dac545d7,german_fires_nuremberg_locations__d317b1780fc52b5af2a5d89b5688d383
am laufer schlagturm,"Am Laufer Schlagturm in Nuremberg, Germany",49.4561049,11.0834507,1,,,,,,Legislator,"Am Laufer Schlagturm in Nuremberg, Germany",,german_fires_nuremberg_locations,bedff0f9ec545a116ec23aba673a74bd,german_fires_nuremberg_locations__3725d2b15b2143907047c18cd00171a1
am leonhardspark,"Am Leonhardspark in Nuremberg, Germany",49.4431071,11.0560656,1,,,,,,Keyphrase,"Am Leonhardspark in Nuremberg, Germany",,german_fires_nuremberg_locations,fc531ee5c8c22e66c2bc68d677317e2d,german_fires_nuremberg_locations__e87a2cc76e3c33b1d864d0f7c9678a04
am lerchenfeld,"Am Lerchenfeld in Nuremberg, Germany",49.3544734,11.0597893,1,,,,,,Shipping,"Am Lerchenfeld in Nuremberg, Germany",,german_fires_nuremberg_locations,a1b498bb9674c8386b9748e08bc8f6e4,german_fires_nuremberg_locations__77a3e9175829d69f86e33e5439c66dad
am lindenpark,"Am Lindenpark in Nuremberg, Germany",49.5346588,11.0263098,1,,,,,,Consulates,"Am Lindenpark in Nuremberg, Germany",,german_fires_nuremberg_locations,bdc476df84801158223ee76adee6e50a,german_fires_nuremberg_locations__d0835389d0f50b2846de5732286bf314
am maderersbrunnen,"Am Maderersbrunnen in Nuremberg, Germany",49.4394291,11.2543802,1,,,,,,Wells,"Am Maderersbrunnen in Nuremberg, Germany",,german_fires_nuremberg_locations,ebc1c56c3be1e44f2456bbf7a2303890,german_fires_nuremberg_locations__a74759e5182950f6d5d8ca10c6cac8c7
am messehaus,"Am Messehaus in Nuremberg, Germany",49.4645232,11.1002765,1,,,,,,Shipping,"Am Messehaus in Nuremberg, Germany",,german_fires_nuremberg_locations,55b6d8c145c803ed5dc6445e9fd626d7,german_fires_nuremberg_locations__6dc61db1d76253f347c908b4476330c7
am mooshof,"Am Mooshof in Nuremberg, Germany",49.4840716,11.1015475,1,,,,,,space,"Am Mooshof in Nuremberg, Germany",,german_fires_nuremberg_locations,e37030e9789da585f12e8af75ff6e078,german_fires_nuremberg_locations__06ffb6997b4df13610106f1cd818b827
am muhlbach,"Am Muhlbach in Nuremberg, Germany",49.5257716,11.0122251,1,,,,,,Person,"Am Muhlbach in Nuremberg, Germany",,german_fires_nuremberg_locations,e66a0cf55df48b22d52c7343080e2914,german_fires_nuremberg_locations__bd916dd66b7a00518675cc704173f945
am nordostbahnhof,"Am Nordostbahnhof in Nuremberg, Germany",49.4734021,11.1075753,1,,,,,,IndustryTerm,"Am Nordostbahnhof in Nuremberg, Germany",,german_fires_nuremberg_locations,528d1e5b53327eb622eff276941967a3,german_fires_nuremberg_locations__3feb49ed66cad0495168f841487a3ee8
am nordwestbahnhof,"Am Nordwestbahnhof in Nuremberg, Germany",49.467168,11.040207,1,,,,,,Keyphrase,"Am Nordwestbahnhof in Nuremberg, Germany",,german_fires_nuremberg_locations,d8e1444bc05d9ae616a1e62651cb9e38,german_fires_nuremberg_locations__b202f49f5e68c6c096f59fead0932b59
am olberg,"Am olberg in Nuremberg, Germany",49.4574262,11.0761364,1,,,,,,AAEntity,"Am olberg in Nuremberg, Germany",,german_fires_nuremberg_locations,a2a87645fefd77ac33d8baf44d1845cd,german_fires_nuremberg_locations__c2e4e8f99afb361a21c6888b261d754c
am ostbahnhof,"Am Ostbahnhof in Nuremberg, Germany",49.4643324,11.121056,1,,,,,,ForeignMinistry,"Am Ostbahnhof in Nuremberg, Germany",,german_fires_nuremberg_locations,39fcac288f17c865b880c2f7842f9682,german_fires_nuremberg_locations__7fa4e9aa22f4fe74cf52029a71154deb
am paulusstein,"Am Paulusstein in Nuremberg, Germany",49.5029784,11.1104468,1,,,,,,Diplomat,"Am Paulusstein in Nuremberg, Germany",,german_fires_nuremberg_locations,49175cc7ef8db69f21d9c69afab1a799,german_fires_nuremberg_locations__852cfa54529d4e848e6e96ea92070fb2
am pfarrbaum,"Am Pfarrbaum in Nuremberg, Germany",49.5318335,11.0133688,1,,,,,,CompanyKeyword,"Am Pfarrbaum in Nuremberg, Germany",,german_fires_nuremberg_locations,e522e10ece23d76668fa21aafd7cfa6d,german_fires_nuremberg_locations__a44b54a0b8420e43779282b289341ef8
am pferdemarkt,"Am Pferdemarkt in Nuremberg, Germany",49.4416071,11.0581864,1,,,,,,Wells,"Am Pferdemarkt in Nuremberg, Germany",,german_fires_nuremberg_locations,4c5937f37e95d36aa7dbe9d23b7d4f75,german_fires_nuremberg_locations__68f2e2eadeceda75c654dadfb0d41015
am plarrer,"Am Plarrer in Nuremberg, Germany",49.4482381,11.0660127,1,,,,,,ForeignMinistry,"Am Plarrer in Nuremberg, Germany",,german_fires_nuremberg_locations,c33350ee39857626bacc3b35abe4fbcd,german_fires_nuremberg_locations__f119073dace8b23fce931fa18458558a
am pointgraben,"Am Pointgraben in Nuremberg, Germany",49.3611299,11.0583808,1,,,,,,FTO,"Am Pointgraben in Nuremberg, Germany",,german_fires_nuremberg_locations,fa183c3825c3e70555c061ebab30e7f7,german_fires_nuremberg_locations__f79afbd342e2879b79037ca189846173
am rednitzhang,"Am Rednitzhang in Nuremberg, Germany",49.4040346,11.0294634,1,,,,,,News,"Am Rednitzhang in Nuremberg, Germany",,german_fires_nuremberg_locations,1972c0027ddb792180464cd3a65de8c0,german_fires_nuremberg_locations__e3b4a52c2b8f03e7914f72e8e86347fe
am reichsforst,"Am Reichsforst in Nuremberg, Germany",49.5002249,11.1075423,1,,,,,,Exec,"Am Reichsforst in Nuremberg, Germany",,german_fires_nuremberg_locations,ba8265dbfd02547c55f69c3e0b5b29d1,german_fires_nuremberg_locations__46bccb0d8cec7e3e89e528dd14940bfd
am roten buhl,"Am Roten Buhl in Nuremberg, Germany",49.357947,11.0715193,1,,,,,,Person,"Am Roten Buhl in Nuremberg, Germany",,german_fires_nuremberg_locations,4767d1fa80d6d90d91303cef3bca601d,german_fires_nuremberg_locations__87a2dab95e32c11485a3a0c5442a2efd
am rothenbacher landgr,"Am Rothenbacher Landgr in Nuremberg, Germany",49.4478908,11.0827879,1,,,,,,CompanyKeyword,"Am Rothenbacher Landgr in Nuremberg, Germany",,german_fires_nuremberg_locations,8054ec03279465661a480e4c34220afd,german_fires_nuremberg_locations__ba6a6b514ccaf988f4a2df6189c432da
am schlag,"Am Schlag in Nuremberg, Germany",49.4271795,11.1874896,1,,,,,,Pipeline,"Am Schlag in Nuremberg, Germany",,german_fires_nuremberg_locations,75851d2743495965c71aef895250c00e,german_fires_nuremberg_locations__639cb96b85064f887e25a1a61d7625c5
am schlossgraben,"Am Schlossgraben in Nuremberg, Germany",49.3556407,11.0985021,1,,,,,,Shipping,"Am Schlossgraben in Nuremberg, Germany",,german_fires_nuremberg_locations,07998bb4c8068145ab8a7c41467e049f,german_fires_nuremberg_locations__028a36f70bc8638ae1869a2b5481c402
am schlosspark,"Am Schlosspark in Nuremberg, Germany",49.4202558,11.195142,1,,,,,,space,"Am Schlosspark in Nuremberg, Germany",,german_fires_nuremberg_locations,808161c1fccbbfc79b59ba723b0f26f2,german_fires_nuremberg_locations__70648e4efdf020b4a02ab22989eca914
am schwedenbrunnen,"Am Schwedenbrunnen in Nuremberg, Germany",49.5047111,11.111938,1,,,,,,Wells,"Am Schwedenbrunnen in Nuremberg, Germany",,german_fires_nuremberg_locations,efc61cf869e1681baae1d8e849be601f,german_fires_nuremberg_locations__2a24048a0a150bd9f0989dc828c85c92
am schwedengraben,"Am Schwedengraben in Nuremberg, Germany",49.3746746,11.0688261,1,,,,,,AAEntity,"Am Schwedengraben in Nuremberg, Germany",,german_fires_nuremberg_locations,444be0b311f6df7f6e342e68cea3a68b,german_fires_nuremberg_locations__1281a916e79bef4251ddf03ed446d467
am schweigeracker,"Am Schweigeracker in Nuremberg, Germany",49.4805389,11.0793786,1,,,,,,Consulates,"Am Schweigeracker in Nuremberg, Germany",,german_fires_nuremberg_locations,8388416ea8bacc9acaa01fbb958fedc4,german_fires_nuremberg_locations__084a5a7520682a97da2330b8f8d390b1
am sportplatz,"Am Sportplatz in Nuremberg, Germany",49.5159904,11.0320847,1,,,,,,ForeignMinister,"Am Sportplatz in Nuremberg, Germany",,german_fires_nuremberg_locations,f7c9cb388d07ad30f7cdb52886bcf8c1,german_fires_nuremberg_locations__38d5646121243e4a18c7f14abe9f1f5a
am spund,"Am Spund in Nuremberg, Germany",49.5222216,11.0265315,1,,,,,,Diplomat,"Am Spund in Nuremberg, Germany",,german_fires_nuremberg_locations,0a63683ea906a63d46ddae31464ede61,german_fires_nuremberg_locations__62f399553b4d4c4c24947e717945894b
am stadtpark,"Am Stadtpark in Nuremberg, Germany",49.4661277,11.0912536,1,,,,,,space,"Am Stadtpark in Nuremberg, Germany",,german_fires_nuremberg_locations,9f777ba5bb3f55f9a033b0f370d2c6bc,german_fires_nuremberg_locations__48a9f1e0175991f3cafe8d88e08345e3
am steig,"Am Steig in Nuremberg, Germany",49.5251157,11.0058169,1,,,,,,Exec,"Am Steig in Nuremberg, Germany",,german_fires_nuremberg_locations,e8c39a7c28ff0e5cb6e7dfbb856c7b21,german_fires_nuremberg_locations__c83b7a1f287731b590c87bd8e4fff72c
am steinberg,"Am Steinberg in Nuremberg, Germany",49.3855393,11.0354532,1,,,,,,Refinery,"Am Steinberg in Nuremberg, Germany",,german_fires_nuremberg_locations,c7e5582766e39e604592179067030f85,german_fires_nuremberg_locations__915a006e5bfd988fe5c64e8a34e9e18c
am steinbruchlein,"Am Steinbruchlein in Nuremberg, Germany",49.3917128,11.1106515,1,,,,,,IndustryTerm,"Am Steinbruchlein in Nuremberg, Germany",,german_fires_nuremberg_locations,c749087b5fe4c7a0afefa947ef2f0afe,german_fires_nuremberg_locations__78b68fecbaec54f10a394e62d6862d57
am thoner espan,"Am Thoner Espan in Nuremberg, Germany",49.4748574,11.0664079,1,,,,,,News,"Am Thoner Espan in Nuremberg, Germany",,german_fires_nuremberg_locations,3c1363b1a514c597c5e6c964848f4913,german_fires_nuremberg_locations__60d23a27a7050867c7d94e9b18ac9f81
am tiergarten,"Am Tiergarten in Nuremberg, Germany",49.445396,11.1404522,1,,,,,,Shipping,"Am Tiergarten in Nuremberg, Germany",,german_fires_nuremberg_locations,345fba259863b57bac2995cef917fb06,german_fires_nuremberg_locations__7a11063caa696475bca80e5c569f8f7b
am tower,"Am Tower in Nuremberg, Germany",49.3903449,11.1791162,1,,,,,,Organization,"Am Tower in Nuremberg, Germany",,german_fires_nuremberg_locations,c873ecd1871dbc3b8c39b19f68d79489,german_fires_nuremberg_locations__2c0decb38543c6c23f47f5ca364151d6
am tucherturm,"Am Tucherturm in Nuremberg, Germany",49.4656731,11.0845596,1,,,,,,DiplomaticFacilities,"Am Tucherturm in Nuremberg, Germany",,german_fires_nuremberg_locations,b803bf3f76bc274bfa8db697efb0ec23,german_fires_nuremberg_locations__bb2e1b2c722ca450e21c61aa41795130
am tullnaupark,"Am Tullnaupark in Nuremberg, Germany",49.4498113,11.1028648,1,,,,,,Keyphrase,"Am Tullnaupark in Nuremberg, Germany",,german_fires_nuremberg_locations,3d7ec5f609d68411e175816d57bb05ee,german_fires_nuremberg_locations__963b1ba2bdc8dbab525c30862a93d3fe
am vogelberg,"Am Vogelberg in Nuremberg, Germany",49.374546,11.0667778,1,,,,,,ForeignMinister,"Am Vogelberg in Nuremberg, Germany",,german_fires_nuremberg_locations,c0c922e0b77417f7b7c51475240838bb,german_fires_nuremberg_locations__7914234adbbc323934538af15f7409e6
am waldrand,"Am Waldrand in Nuremberg, Germany",49.3470243,11.0565111,1,,,,,,DiplomaticFacilities,"Am Waldrand in Nuremberg, Germany",,german_fires_nuremberg_locations,de7ca421a62cec21238106b30b64deed,german_fires_nuremberg_locations__8220d3eda61caa2ae951b6401097a2eb
am wasserturm,"Am Wasserturm in Nuremberg, Germany",49.3547063,11.1048731,1,,,,,,Shipping,"Am Wasserturm in Nuremberg, Germany",,german_fires_nuremberg_locations,6f2fd4050eddf06e6d28e41ee708dce0,german_fires_nuremberg_locations__0e2ffcaf90e05b83c4a1be508d02cd6e
am wegfeld,"Am Wegfeld in Nuremberg, Germany",49.4920708,11.0461549,1,,,,,,Person,"Am Wegfeld in Nuremberg, Germany",,german_fires_nuremberg_locations,36d1380226a1a21b9cbe950142cbbaef,german_fires_nuremberg_locations__e28359e3fb30fef560acde1a1ba7b018
am weiher,"Am Weiher in Nuremberg, Germany",49.5177786,11.0279835,1,,,,,,Shipping,"Am Weiher in Nuremberg, Germany",,german_fires_nuremberg_locations,b63c704f500fda65ac259f14f0d17cf2,german_fires_nuremberg_locations__7ebace6b476e1e94d72c08773f62bb23
am weissensee,"Am Weissensee in Nuremberg, Germany",49.3688735,11.0522892,1,,,,,,Media,"Am Weissensee in Nuremberg, Germany",,german_fires_nuremberg_locations,22e3770c0504851eddf0c8a7d0a54d90,german_fires_nuremberg_locations__76d16e32213706cae493b03830026aea
am westpark,"Am Westpark in Nuremberg, Germany",49.4437592,11.0280169,1,,,,,,ForeignMinistry,"Am Westpark in Nuremberg, Germany",,german_fires_nuremberg_locations,94b841d8df93d40fd9f7cc5e076e2f92,german_fires_nuremberg_locations__3784b7391b59eabdab7f30f9f4ad0088
am wiesengrund,"Am Wiesengrund in Nuremberg, Germany",49.3738766,11.0895591,1,,,,,,ForeignMinister,"Am Wiesengrund in Nuremberg, Germany",,german_fires_nuremberg_locations,02a93f6adbd171a3cb08b4b3094464cc,german_fires_nuremberg_locations__b428e0bd4b139e50103868e2e0f94226
am wirtsacker,"Am Wirtsacker in Nuremberg, Germany",49.4406774,11.0107076,1,,,,,,CompanyKeyword,"Am Wirtsacker in Nuremberg, Germany",,german_fires_nuremberg_locations,c309f8114f2ad01a35ef5259f7095b8c,german_fires_nuremberg_locations__439a35182a30501b41aaae20f2559943
am wolfshof,"Am Wolfshof in Nuremberg, Germany",49.4252413,11.1809974,1,,,,,,AAEntity,"Am Wolfshof in Nuremberg, Germany",,german_fires_nuremberg_locations,894188690049f08a4110db6b5b4cfae4,german_fires_nuremberg_locations__2926ecda66ce170d2de0d6b156b7f57b
am zollhaus,"Am Zollhaus in Nuremberg, Germany",49.3917757,11.1278618,1,,,,,,Exec,"Am Zollhaus in Nuremberg, Germany",,german_fires_nuremberg_locations,1604638990cbcab278b920fc7386a41c,german_fires_nuremberg_locations__a8470209020e49dc46738af66002cc13
amalienstrasse,"Amalienstrasse in Nuremberg, Germany",49.4605027,11.0567088,1,,,,,,Keyphrase,"Amalienstrasse in Nuremberg, Germany",,german_fires_nuremberg_locations,4dcc5384ed817bd19cce85165b1bd280,german_fires_nuremberg_locations__194cf7452e6158cbc8cbf05234afc85c
ambergerstrasse,"Ambergerstrasse in Nuremberg, Germany",49.4283828,11.0489739,1,,,,,,Refinery,"Ambergerstrasse in Nuremberg, Germany",,german_fires_nuremberg_locations,38a765c5c60d67b187b847c97c76c0a6,german_fires_nuremberg_locations__e6207604e3ea3f4aebc6da5e29030437
ammanstrasse,"Ammanstrasse in Nuremberg, Germany",49.4387904,11.0798277,1,,,,,,Keyphrase,"Ammanstrasse in Nuremberg, Germany",,german_fires_nuremberg_locations,137a809ea33d519a49e443e9c799ae36,german_fires_nuremberg_locations__47c1c7425cb756d2fdc2c686b8205bc7
ammerndorfer strasse,"Ammerndorfer strasse in Nuremberg, Germany",49.451953,11.0313684,1,,,,,,Consulates,"Ammerndorfer strasse in Nuremberg, Germany",,german_fires_nuremberg_locations,fc00927405f6e5aa6a8096bcd0177ac9,german_fires_nuremberg_locations__7f412371f6cdf7386f0388ef4381787f
amorbacher strasse,"Amorbacher strasse in Nuremberg, Germany",49.5352657,11.0253067,1,,,,,,space,"Amorbacher strasse in Nuremberg, Germany",,german_fires_nuremberg_locations,389c4f173b2762a47545d477199d3004,german_fires_nuremberg_locations__90566405cb91369037c6450c9a1d49c5
amrumer strasse,"Amrumer strasse in Nuremberg, Germany",49.4810178,11.0682652,1,,,,,,Refinery,"Amrumer strasse in Nuremberg, Germany",,german_fires_nuremberg_locations,71bcebd36a58e51201657669ca7c7eea,german_fires_nuremberg_locations__7daa78ac87bbb57713124eff3276cb58
amselstrasse,"Amselstrasse in Nuremberg, Germany",49.4403436,11.0548904,1,,,,,,CompanyKeyword,"Amselstrasse in Nuremberg, Germany",,german_fires_nuremberg_locations,96044a036e1359e522396c9d28680887,german_fires_nuremberg_locations__1343a2145f12f90b3084a50d4c503c75
amtmannsbrucklein,"Amtmannsbrucklein in Nuremberg, Germany",49.418448,11.181862,1,,,,,,Keyphrase,"Amtmannsbrucklein in Nuremberg, Germany",,german_fires_nuremberg_locations,58045adc6ad68d1df6e7917222782caa,german_fires_nuremberg_locations__1b0492bc8119688f61808cf09c7998ea
amundsenstrasse,"Amundsenstrasse in Nuremberg, Germany",49.360272,11.0489089,1,,,,,,LegislativeCommittee,"Amundsenstrasse in Nuremberg, Germany",,german_fires_nuremberg_locations,bb7750a6f5507db237ff3096db4a8c8e,german_fires_nuremberg_locations__a99ceea171771917162700ce4ae672aa
an den rampen,"An den Rampen in Nuremberg, Germany",49.4410964,11.064311,1,,,,,,Exec,"An den Rampen in Nuremberg, Germany",,german_fires_nuremberg_locations,f3c88e2e5e648739d5246fae922e2d5a,german_fires_nuremberg_locations__d6490d0be5cac3dbcc8e9acd7d61771d
an den schwedenkreuzen,"An den Schwedenkreuzen in Nuremberg, Germany",49.3538406,11.0934993,1,,,,,,IndustryTerm,"An den Schwedenkreuzen in Nuremberg, Germany",,german_fires_nuremberg_locations,251b073d0454d6d741386b608ed91cc8,german_fires_nuremberg_locations__6ca0cbf8f2375bd86708ee45427391ad
an den weihern,"An den Weihern in Nuremberg, Germany",49.3737233,11.0635733,1,,,,,,Legislator,"An den Weihern in Nuremberg, Germany",,german_fires_nuremberg_locations,2e1702096d27a9688d5fbc7c0342c4f4,german_fires_nuremberg_locations__41b231ddde2e55870de643924909a828
an der bahnlinie,"An der Bahnlinie in Nuremberg, Germany",49.4154067,11.1709134,1,,,,,,Pipeline,"An der Bahnlinie in Nuremberg, Germany",,german_fires_nuremberg_locations,ff25c38836e4f404877aed151bf07e64,german_fires_nuremberg_locations__1df1119cc52022f441c68a3f61f0e5c1
an der bergleite,"An der Bergleite in Nuremberg, Germany",49.3534875,11.0591725,1,,,,,,Person,"An der Bergleite in Nuremberg, Germany",,german_fires_nuremberg_locations,f220c85f24e757b63664579e45b55f2d,german_fires_nuremberg_locations__7f032837653697cc3b32b9e166f7b3ea
an der breiting,"An der Breiting in Nuremberg, Germany",49.3689452,11.0975198,1,,,,,,Media,"An der Breiting in Nuremberg, Germany",,german_fires_nuremberg_locations,a1c638f104146bf6cbd39c0bdf2478d3,german_fires_nuremberg_locations__626949034cb5e0f93495c947a5a6273a
an der fleischbrucke,"An der Fleischbrucke in Nuremberg, Germany",49.4528135,11.0767799,1,,,,,,AAEntity,"An der Fleischbrucke in Nuremberg, Germany",,german_fires_nuremberg_locations,71834528fc0db079d0c96796b7b1abf7,german_fires_nuremberg_locations__e474af6c32de198bc7c3c7d67b334aa0
an der guggenlohe,"An der Guggenlohe in Nuremberg, Germany",49.4956711,11.0497995,1,,,,,,Refinery,"An der Guggenlohe in Nuremberg, Germany",,german_fires_nuremberg_locations,09476953e796dbc1086d712b0e5d6fbb,german_fires_nuremberg_locations__42f2e72f72c1fceb153686d201d84459
an der karlsbrucke,"An der Karlsbrucke in Nuremberg, Germany",49.4528203,11.0745599,1,,,,,,Media,"An der Karlsbrucke in Nuremberg, Germany",,german_fires_nuremberg_locations,15abc05672024bea3c20671a53212ba4,german_fires_nuremberg_locations__a1c99cb6a6caf3ada9dcd05d1ad5542b
an der lehmgrube,"An der Lehmgrube in Nuremberg, Germany",49.5144717,11.030224,1,,,,,,CompanyKeyword,"An der Lehmgrube in Nuremberg, Germany",,german_fires_nuremberg_locations,79ce95ee99c8de7b937478469ba5e3e8,german_fires_nuremberg_locations__a9e92f0dbce66e4fd7b2632495b091f4
an der marterlach,"An der Marterlach in Nuremberg, Germany",49.4188511,11.058302,1,,,,,,Consulates,"An der Marterlach in Nuremberg, Germany",,german_fires_nuremberg_locations,84785ac4cc4f512bb19c39e9f18e7f61,german_fires_nuremberg_locations__7ae65b5b62d57a9de2a728e88307d63b
an der radrunde,"An der Radrunde in Nuremberg, Germany",49.370505,11.0873008,1,,,,,,ForeignMinistry,"An der Radrunde in Nuremberg, Germany",,german_fires_nuremberg_locations,e449405ba9ed0b7f3b82af01b9bffa27,german_fires_nuremberg_locations__12a23bd2734116c25c318ae8d316c1e4
an der rosselwiese,"An der Rosselwiese in Nuremberg, Germany",49.5205971,11.0476548,1,,,,,,IndustryTerm,"An der Rosselwiese in Nuremberg, Germany",,german_fires_nuremberg_locations,6e0393465d4471ee6bce44a5126d97da,german_fires_nuremberg_locations__8e05e8eda2ecf7f19dbe39070255f2dd
an der rundkapelle,"An der Rundkapelle in Nuremberg, Germany",49.4058127,11.1665703,1,,,,,,Wells,"An der Rundkapelle in Nuremberg, Germany",,german_fires_nuremberg_locations,105975cd7e2f100e35fa000e133fdd53,german_fires_nuremberg_locations__c0c9616ac2df1469ba649580496c044f
an der schwarzlach,"An der Schwarzlach in Nuremberg, Germany",49.4098101,11.0810555,1,,,,,,Media,"An der Schwarzlach in Nuremberg, Germany",,german_fires_nuremberg_locations,2a59ec68088d60307121a2061148aac9,german_fires_nuremberg_locations__0ba0b58a086a55ef35cfefc9f3d1d00c
an der schwedenschanze,"An der Schwedenschanze in Nuremberg, Germany",49.3745621,11.0695303,1,,,,,,Organization,"An der Schwedenschanze in Nuremberg, Germany",,german_fires_nuremberg_locations,15dd5e3369036af6ab5f63b82e7a6cc7,german_fires_nuremberg_locations__5b92d35f7257967ed3d48bc223f7f03c
an der steinmauer,"An der Steinmauer in Nuremberg, Germany",49.3730979,11.0861878,1,,,,,,ForeignMinister,"An der Steinmauer in Nuremberg, Germany",,german_fires_nuremberg_locations,3b3ce1406e5ad7ca05b92571382da641,german_fires_nuremberg_locations__6a5bebf9abc6f21a6743a38ea77fdbf2
an der wind,"An der Wind in Nuremberg, Germany",49.5191622,11.0488697,1,,,,,,Exec,"An der Wind in Nuremberg, Germany",,german_fires_nuremberg_locations,5514aea07ec7cde9b732c378829b41c5,german_fires_nuremberg_locations__37c53d03fea532550fd498fc34947fa9
andernacher strasse,"Andernacher strasse in Nuremberg, Germany",49.4898988,11.1008242,1,,,,,,IndustryTerm,"Andernacher strasse in Nuremberg, Germany",,german_fires_nuremberg_locations,c97c26fbbb05d6176e146b8b0db1013c,german_fires_nuremberg_locations__0d9d87cab84672c232d699734654f6bb
andersenstrasse,"Andersenstrasse in Nuremberg, Germany",49.4673278,11.1781731,1,,,,,,DiplomaticFacilities,"Andersenstrasse in Nuremberg, Germany",,german_fires_nuremberg_locations,036d8aefa539c90c50a35074edfa524f,german_fires_nuremberg_locations__6ae37ded0cb6c20fcc5bdd24933d0ab2
andreas-hofer-strasse,"Andreas-Hofer-strasse in Nuremberg, Germany",49.4274034,11.0915329,1,,,,,,Pipeline,"Andreas-Hofer-strasse in Nuremberg, Germany",,german_fires_nuremberg_locations,0b562728fad0b2fa5ffb6c57f0732778,german_fires_nuremberg_locations__94ef6365a73d408da3e92d24781d8c86
anemonenstrasse,"Anemonenstrasse in Nuremberg, Germany",49.3491376,11.0597455,1,,,,,,Legislator,"Anemonenstrasse in Nuremberg, Germany",,german_fires_nuremberg_locations,0bda0903fe77beb61995c9ac52d5e482,german_fires_nuremberg_locations__0e23bcb864d0f2a23e11fbd11ec10c9e
angerburger strasse,"Angerburger strasse in Nuremberg, Germany",49.4863102,11.1064101,1,,,,,,CompanyKeyword,"Angerburger strasse in Nuremberg, Germany",,german_fires_nuremberg_locations,c85b80e22f316aa3f680d540e3f47ba5,german_fires_nuremberg_locations__1f2fc775c1331fc22bbabf0e2a151f24
angerstrasse,"Angerstrasse in Nuremberg, Germany",49.4409878,11.0693865,1,,,,,,FTO,"Angerstrasse in Nuremberg, Germany",,german_fires_nuremberg_locations,778606f7202a9d92dac58713fcf5f69a,german_fires_nuremberg_locations__59f65bd2f3d3e066af16ca2cf0b72231
anne-frank-strasse,"Anne-Frank-strasse in Nuremberg, Germany",49.4386951,11.0873562,1,,,,,,Pipeline,"Anne-Frank-strasse in Nuremberg, Germany",,german_fires_nuremberg_locations,4a53dda7f980f40953dedc18d9b5378c,german_fires_nuremberg_locations__e5d89ff39f2a17a0a82c6e85edb3db6c
annette-kolb-strasse,"Annette-Kolb-strasse in Nuremberg, Germany",49.4124573,11.1310253,1,,,,,,Legislator,"Annette-Kolb-strasse in Nuremberg, Germany",,german_fires_nuremberg_locations,a441d17d97baba4aa3bef1e565b587be,german_fires_nuremberg_locations__d00329aa154c5390b8357ccb4847fa16
annweilerstrasse,"Annweilerstrasse in Nuremberg, Germany",49.4045139,11.0947193,1,,,,,,Wells,"Annweilerstrasse in Nuremberg, Germany",,german_fires_nuremberg_locations,7aa7363574e42cb6cbe1d0c52bb6aab9,german_fires_nuremberg_locations__3ae2f0e2ea461dd39f77685ee00def68
ansbacher strasse,"Ansbacher strasse in Nuremberg, Germany",49.4206264,11.0284748,1,,,,,,AAEntity,"Ansbacher strasse in Nuremberg, Germany",,german_fires_nuremberg_locations,348d688533354ca8ad854d4e7a964bfd,german_fires_nuremberg_locations__3414bba75e65916b95f2e501feb8c8a5
ansgarstrasse,"Ansgarstrasse in Nuremberg, Germany",49.3951514,11.1758074,1,,,,,,Refinery,"Ansgarstrasse in Nuremberg, Germany",,german_fires_nuremberg_locations,13b550a6d470681a6f87279ef487b10f,german_fires_nuremberg_locations__cb8445fb4cf03bd768b4bd05bceb6def
antwerpener strasse,"Antwerpener strasse in Nuremberg, Germany",49.3897309,11.0603948,1,,,,,,Legislator,"Antwerpener strasse in Nuremberg, Germany",,german_fires_nuremberg_locations,193bd15ff686abf1873b6478d052ca69,german_fires_nuremberg_locations__1764126421e80ee5c6c9cd92f4c341b2
anwandener strasse,"Anwandener strasse in Nuremberg, Germany",49.4525883,11.0304402,1,,,,,,space,"Anwandener strasse in Nuremberg, Germany",,german_fires_nuremberg_locations,45ea86f75dbbe8c077fd81a7ccc2e493,german_fires_nuremberg_locations__818fae43cf5bc426f70ff6096ff6bf7a
anzengruberstrasse,"Anzengruberstrasse in Nuremberg, Germany",49.4196026,11.1846785,1,,,,,,AAEntity,"Anzengruberstrasse in Nuremberg, Germany",,german_fires_nuremberg_locations,6cb95693db3c0082167e9a89f55a1ff5,german_fires_nuremberg_locations__b33336e4a6688dfffb0dd21ad5258836
apenrader strasse,"Apenrader strasse in Nuremberg, Germany",49.4787523,11.0667714,1,,,,,,ForeignMinistry,"Apenrader strasse in Nuremberg, Germany",,german_fires_nuremberg_locations,5eac2e0f81c0b37a000c69b1b4443969,german_fires_nuremberg_locations__62584f846282eba011958c06428e3c3c
apinusstrasse,"Apinusstrasse in Nuremberg, Germany",49.4562153,11.113917,1,,,,,,FTO,"Apinusstrasse in Nuremberg, Germany",,german_fires_nuremberg_locations,13f948bc4ef57ac18da3e901ef77cf41,german_fires_nuremberg_locations__e150835e718d9292959f0bea93f5f2df
appelstrasse,"Appelstrasse in Nuremberg, Germany",49.3677692,11.0482992,1,,,,,,CompanyKeyword,"Appelstrasse in Nuremberg, Germany",,german_fires_nuremberg_locations,463bb4b2593da9e59cdee4a75722e439,german_fires_nuremberg_locations__9b178e78e31b08a30f7ae029551707b4
appoldstrasse,"Appoldstrasse in Nuremberg, Germany",49.4198123,11.0173547,1,,,,,,Refinery,"Appoldstrasse in Nuremberg, Germany",,german_fires_nuremberg_locations,1f7218f89f9bce4241d11728effc192d,german_fires_nuremberg_locations__183eb7e4696a40bfe07272dc2692c265
arendsstrasse,"Arendsstrasse in Nuremberg, Germany",49.4279522,11.0471762,1,,,,,,space,"Arendsstrasse in Nuremberg, Germany",,german_fires_nuremberg_locations,34f3a3ab673bd5bb241debfa3e1750db,german_fires_nuremberg_locations__b937a3d13ca4cbf8fca33b5abae7b423
arminiusstrasse,"Arminiusstrasse in Nuremberg, Germany",49.450758,11.1083043,1,,,,,,space,"Arminiusstrasse in Nuremberg, Germany",,german_fires_nuremberg_locations,e503e5913733ee70060a319cc881fc6a,german_fires_nuremberg_locations__a33f9d4a18071a0223f90218f109654d
armin-knab-strasse,"Armin-Knab-strasse in Nuremberg, Germany",49.4107672,11.0794872,1,,,,,,DiplomaticFacilities,"Armin-Knab-strasse in Nuremberg, Germany",,german_fires_nuremberg_locations,e03804e4f45d390b894e55cf1c69e402,german_fires_nuremberg_locations__b0b04a1f818eaa1dd9584b0128869cb0
arndtstrasse,"Arndtstrasse in Nuremberg, Germany",49.460319,11.0724609,1,,,,,,Consulates,"Arndtstrasse in Nuremberg, Germany",,german_fires_nuremberg_locations,f56bcee1e9e1a0b2c135853bbf7e4a8e,german_fires_nuremberg_locations__606ab9fce40fb7ba11ce8f9c44ad1571
arnoldstrasse,"Arnoldstrasse in Nuremberg, Germany",49.445099,11.1132301,1,,,,,,AAEntity,"Arnoldstrasse in Nuremberg, Germany",,german_fires_nuremberg_locations,c81a8411be2962fe4ae8e162ea0038ed,german_fires_nuremberg_locations__4ac94f338ba1db9fcd63ee403a2164e4
artelshofer strasse,"Artelshofer strasse in Nuremberg, Germany",49.4655861,11.1567148,1,,,,,,Exec,"Artelshofer strasse in Nuremberg, Germany",,german_fires_nuremberg_locations,a4028cbfce8cd3f25c3f0e8f3cf9a9a3,german_fires_nuremberg_locations__e220f7070d5b6ac72d44472489f6dd8d
arzbergweg,"Arzbergweg in Nuremberg, Germany",49.4650053,11.1608014,1,,,,,,Pipeline,"Arzbergweg in Nuremberg, Germany",,german_fires_nuremberg_locations,62a6c64e149390cd0d99c3dcf7dad743,german_fires_nuremberg_locations__182ab5b243cd388bea3f618b76b5243c
arzloher strasse,"Arzloher strasse in Nuremberg, Germany",49.4631212,11.1619637,1,,,,,,Keyphrase,"Arzloher strasse in Nuremberg, Germany",,german_fires_nuremberg_locations,dc480f9a598c0aae5a99a7167a8cce08,german_fires_nuremberg_locations__56bb3b22581fe44e13614cbaa0f66631
asbacher strasse,"Asbacher strasse in Nuremberg, Germany",49.4292273,11.0118392,1,,,,,,Exec,"Asbacher strasse in Nuremberg, Germany",,german_fires_nuremberg_locations,f9a4f95cd0232be1e6cbfe45398e1d9e,german_fires_nuremberg_locations__555a915f78010744a1b1ad9bc2a9a7f6
aschaffenburger strasse,"Aschaffenburger strasse in Nuremberg, Germany",49.5266863,11.0062691,1,,,,,,space,"Aschaffenburger strasse in Nuremberg, Germany",,german_fires_nuremberg_locations,4b02ef4b352b42677c709f5d0819d608,german_fires_nuremberg_locations__f45ac5f2ce19373cc4bf0c3924f4f4af
asternstrasse,"Asternstrasse in Nuremberg, Germany",49.400247,11.0312023,1,,,,,,Shipping,"Asternstrasse in Nuremberg, Germany",,german_fires_nuremberg_locations,ca2ecfa15c336086ab7166d57cf22382,german_fires_nuremberg_locations__b64e39c7cb9ab70c8cc0b14a6ecb22ac
atlantastrasse,"Atlantastrasse in Nuremberg, Germany",49.4680182,11.0768707,1,,,,,,ForeignMinistry,"Atlantastrasse in Nuremberg, Germany",,german_fires_nuremberg_locations,baa832439952b0ca8e48c86afd839d1f,german_fires_nuremberg_locations__4119333231b4c95fff94e94ce2334baf
auerbacher strasse,"Auerbacher strasse in Nuremberg, Germany",49.4618024,11.1624171,1,,,,,,Exec,"Auerbacher strasse in Nuremberg, Germany",,german_fires_nuremberg_locations,efdff8c0fbee0bb3b3604c9facd1465c,german_fires_nuremberg_locations__78803e4d538de8932ed42f62bb080cc8
auf der huth,"Auf der Huth in Nuremberg, Germany",49.3543098,11.0947182,1,,,,,,Media,"Auf der Huth in Nuremberg, Germany",,german_fires_nuremberg_locations,0c47aec5ee4327f769457f57dff81b35,german_fires_nuremberg_locations__ab881ed902ba7ba66290c697ec02bd39
auf der paint,"Auf der Paint in Nuremberg, Germany",49.3729436,11.0755569,1,,,,,,FTO,"Auf der Paint in Nuremberg, Germany",,german_fires_nuremberg_locations,ec6e3bddb1f3d3900e09348222d51f27,german_fires_nuremberg_locations__8b200d4d1ebbe46970ec20fc7372ac54
auf der schanz,"Auf der Schanz in Nuremberg, Germany",49.3749892,11.0226173,1,,,,,,Person,"Auf der Schanz in Nuremberg, Germany",,german_fires_nuremberg_locations,c242b1fd9c96395ca6368195f20d329e,german_fires_nuremberg_locations__bad8034878819d71730a1d8f625e2f0d
aufsessplatz,"Aufsessplatz in Nuremberg, Germany",49.441725,11.0801723,1,,,,,,Pipeline,"Aufsessplatz in Nuremberg, Germany",,german_fires_nuremberg_locations,edd34c4b12f79bccbd6db118d612236a,german_fires_nuremberg_locations__09da8f482da44fef6787afbe98648230
augraben,"Augraben in Nuremberg, Germany",49.4252472,11.1868509,1,,,,,,Organization,"Augraben in Nuremberg, Germany",,german_fires_nuremberg_locations,ed78f5483ff1cc4b95774234bcd9f5e8,german_fires_nuremberg_locations__01fa6d2aed88e9334c28576aee545e3f
augsburger strasse,"Augsburger strasse in Nuremberg, Germany",49.456017,11.035386,1,,,,,,Consulates,"Augsburger strasse in Nuremberg, Germany",,german_fires_nuremberg_locations,d9adf300ba9f121ebed019509b2f818b,german_fires_nuremberg_locations__781fe13b2ef1cff85380ac46a18ef444
augustenstrasse,"Augustenstrasse in Nuremberg, Germany",49.440237,11.0928182,1,,,,,,Keyphrase,"Augustenstrasse in Nuremberg, Germany",,german_fires_nuremberg_locations,17097adb421df8a469706daf07be1c68,german_fires_nuremberg_locations__f2007d38a1c1fdd31f1890a4acda7f2b
august-euler-weg,"August-Euler-Weg in Nuremberg, Germany",49.485312,11.0983938,1,,,,,,Refinery,"August-Euler-Weg in Nuremberg, Germany",,german_fires_nuremberg_locations,50b667d360056020f7a2151daf68a14f,german_fires_nuremberg_locations__451dcb8c07745ccbdca3d8a1987d6f5e
augustinerhof,"Augustinerhof in Nuremberg, Germany",49.4537715,11.0759059,1,,,,,,Legislator,"Augustinerhof in Nuremberg, Germany",,german_fires_nuremberg_locations,c50c68731fbc1d1a44da7e2574029609,german_fires_nuremberg_locations__900288835f8f940723fd39bb26eb9ea5
augustinerstrasse,"Augustinerstrasse in Nuremberg, Germany",49.454107,11.0748585,1,,,,,,Legislator,"Augustinerstrasse in Nuremberg, Germany",,german_fires_nuremberg_locations,8a91128c8dd2bb25032e942dc8ca02af,german_fires_nuremberg_locations__eafd4f5b9adfaa8db75183a1ea6367ee
august-sieghardt-strasse,"August-Sieghardt-strasse in Nuremberg, Germany",49.4130442,11.1342916,1,,,,,,ForeignMinister,"August-Sieghardt-strasse in Nuremberg, Germany",,german_fires_nuremberg_locations,940a6314301aa8eabb8c16bbbb1d6f56,german_fires_nuremberg_locations__ebdd18f7c7123423d53fb9d4e85c29a8
aurachweg,"Aurachweg in Nuremberg, Germany",49.4295566,11.0143659,1,,,,,,Exec,"Aurachweg in Nuremberg, Germany",,german_fires_nuremberg_locations,430b5b1e9473fc090e80e9fb362a6b33,german_fires_nuremberg_locations__578213e8b0710d8688547b348864b74e
auricher strasse,"Auricher strasse in Nuremberg, Germany",49.4793317,11.0639939,1,,,,,,Wells,"Auricher strasse in Nuremberg, Germany",,german_fires_nuremberg_locations,1904bc9adaf0e4e88df5f07c710c46f6,german_fires_nuremberg_locations__a93884f2f92d7ac7b023e5513c840712
aussenstrasse,"Aussenstrasse in Nuremberg, Germany",49.3782215,11.0385757,1,,,,,,Consulates,"Aussenstrasse in Nuremberg, Germany",,german_fires_nuremberg_locations,c1fcca294c32c376a09a17d933f1ef3a,german_fires_nuremberg_locations__a2a1623ac04d56d2300f4b39c0b9156c
aussere bucher strasse,"aussere Bucher strasse in Nuremberg, Germany",49.4739214,11.065872,1,,,,,,Shipping,"aussere Bucher strasse in Nuremberg, Germany",,german_fires_nuremberg_locations,b31b3e58221bd0135a6d66de81ba9e03,german_fires_nuremberg_locations__eacd7f6e1eb39baa979cc7f7ac164db9
aussere buttendorfer strasse,"aussere Buttendorfer strasse in Nuremberg, Germany",49.4422546,11.0069786,1,,,,,,ForeignMinistry,"aussere Buttendorfer strasse in Nuremberg, Germany",,german_fires_nuremberg_locations,65241d8212890129e2dc9d003562af4c,german_fires_nuremberg_locations__cd0afda2065fa214b4581e008a249cf0
aussere grossweidenmuhlstrasse,"aussere Grossweidenmuhlstrasse in Nuremberg, Germany",49.458346,11.0555322,1,,,,,,Shipping,"aussere Grossweidenmuhlstrasse in Nuremberg, Germany",,german_fires_nuremberg_locations,415df820c42d208627441dc912f63893,german_fires_nuremberg_locations__193ab9648ddbe566867e7702bc0627e8
aussere laufer gasse,"aussere Laufer Gasse in Nuremberg, Germany",49.4567988,11.0853969,1,,,,,,News,"aussere Laufer Gasse in Nuremberg, Germany",,german_fires_nuremberg_locations,aa15abfd0b60a60f3e76c717a327e9ef,german_fires_nuremberg_locations__4bb86e115d53bf3e955cbe4dae77ad1f
aussere sulzbacher strasse,"aussere Sulzbacher strasse in Nuremberg, Germany",49.4626358,11.1146429,1,,,,,,DiplomaticFacilities,"aussere Sulzbacher strasse in Nuremberg, Germany",,german_fires_nuremberg_locations,d04253edabdbff29ce1a7e831373bdcf,german_fires_nuremberg_locations__83bb5e187fabdd5df83415b4aa95e992
ausserer laufer platz,"ausserer Laufer Platz in Nuremberg, Germany",49.4573807,11.0872787,1,,,,,,Exec,"ausserer Laufer Platz in Nuremberg, Germany",,german_fires_nuremberg_locations,47ff2105d9252b17463c4c87fea577b1,german_fires_nuremberg_locations__5260997e79f3e2079b8b9a30ebb7ac20
aussiger platz,"Aussiger Platz in Nuremberg, Germany",49.4439515,11.1233805,1,,,,,,AAEntity,"Aussiger Platz in Nuremberg, Germany",,german_fires_nuremberg_locations,97afe39ce06ee0e68f163aeda3b323ba,german_fires_nuremberg_locations__1ee566828cd6737232d4072e6bc3fb82
austrasse,"Austrasse in Nuremberg, Germany",49.449534,11.0504664,1,,,,,,ForeignMinister,"Austrasse in Nuremberg, Germany",,german_fires_nuremberg_locations,5d3b8b49611962bfd2a5c4d6ee53c2f2,german_fires_nuremberg_locations__358c24b859fcfb1d8385273432054d2b
avenariusstrasse,"Avenariusstrasse in Nuremberg, Germany",49.4685398,11.0851809,1,,,,,,CompanyKeyword,"Avenariusstrasse in Nuremberg, Germany",,german_fires_nuremberg_locations,85c401355421578597eff5388b012bcc,german_fires_nuremberg_locations__dab4ce43e7aa45809efac550f7534de1
ayrerstrasse,"Ayrerstrasse in Nuremberg, Germany",49.439246,11.1256146,1,,,,,,Legislator,"Ayrerstrasse in Nuremberg, Germany",,german_fires_nuremberg_locations,56b8ac6bb76a2f0f07a676969243a49e,german_fires_nuremberg_locations__8621d59242ae3cb5e1dd6d83d5c48669
azaleenweg,"Azaleenweg in Nuremberg, Germany",49.4566896,11.1367797,1,,,,,,Organization,"Azaleenweg in Nuremberg, Germany",,german_fires_nuremberg_locations,3da547eb5f8205e663bf95715e460172,german_fires_nuremberg_locations__45caf308a74ed3c9aaa7d8a4f2d4db19
baaderstrasse,"Baaderstrasse in Nuremberg, Germany",49.4404063,11.1016832,1,,,,,,Refinery,"Baaderstrasse in Nuremberg, Germany",,german_fires_nuremberg_locations,63c4a1e76e0c4c613383403142135b48,german_fires_nuremberg_locations__26732737d91f4cbd5283fc1acf6d58e1
bad bernecker strasse,"Bad Bernecker strasse in Nuremberg, Germany",49.4687657,11.1174419,1,,,,,,Keyphrase,"Bad Bernecker strasse in Nuremberg, Germany",,german_fires_nuremberg_locations,531c66518519ea7345f26f329c9f67a9,german_fires_nuremberg_locations__ee90dd2cd0283c8d820d00a12d15f519
bad bruckenauer strasse,"Bad Bruckenauer strasse in Nuremberg, Germany",49.5326066,11.0186664,1,,,,,,Wells,"Bad Bruckenauer strasse in Nuremberg, Germany",,german_fires_nuremberg_locations,eddba107cae54d73a5f93783b025302b,german_fires_nuremberg_locations__2b40be383fdacf37f06850bdf72a6f55
bad kissinger strasse,"Bad Kissinger strasse in Nuremberg, Germany",49.5304488,11.019576,1,,,,,,ForeignMinistry,"Bad Kissinger strasse in Nuremberg, Germany",,german_fires_nuremberg_locations,34eb7fb26b6dc6111bf4d4636baac299,german_fires_nuremberg_locations__8509d269260f2b22f8f31eeb5c956cc8
bad worishofener strasse,"Bad Worishofener strasse in Nuremberg, Germany",49.3690035,11.0698728,1,,,,,,IndustryTerm,"Bad Worishofener strasse in Nuremberg, Germany",,german_fires_nuremberg_locations,025ed0fa9f13bc65dd040bb41b50de29,german_fires_nuremberg_locations__7a657ca3479e365d4ac5bcee36689978
baden-powell-strasse,"Baden-Powell-strasse in Nuremberg, Germany",49.358129,11.058372,1,,,,,,Person,"Baden-Powell-strasse in Nuremberg, Germany",,german_fires_nuremberg_locations,8c693e5b2a3079065c706e08e4a96a07,german_fires_nuremberg_locations__7f0ab353767805c3c733222f12302f45
badstrasse,"Badstrasse in Nuremberg, Germany",49.4489812,11.0870638,1,,,,,,DiplomaticFacilities,"Badstrasse in Nuremberg, Germany",,german_fires_nuremberg_locations,2ea20365fa9604098cf11e3f76f0afc4,german_fires_nuremberg_locations__7a5fafdc47f13d3000901b9a8a273f0b
bahnhofsplatz,"Bahnhofsplatz in Nuremberg, Germany",49.4468542,11.0819038,1,,,,,,Consulates,"Bahnhofsplatz in Nuremberg, Germany",,german_fires_nuremberg_locations,1ba355fba5b15690dfa855d2e9641ffa,german_fires_nuremberg_locations__0c282df86a7986662838ad1ef0f799ca
baierlacherstrasse,"Baierlacherstrasse in Nuremberg, Germany",49.4053165,11.032503,1,,,,,,Person,"Baierlacherstrasse in Nuremberg, Germany",,german_fires_nuremberg_locations,0ab8736e6aea007753e46cf7f64e7cf1,german_fires_nuremberg_locations__06dc0b68db7588d88cb1d05762b68da4
baiersdorfer strasse,"Baiersdorfer strasse in Nuremberg, Germany",49.504177,11.1060061,1,,,,,,DiplomaticFacilities,"Baiersdorfer strasse in Nuremberg, Germany",,german_fires_nuremberg_locations,8b4a7605513afb65e378f2cbdf8b781a,german_fires_nuremberg_locations__4373b477af1409a5b997e367e2befb4c
baldurstrasse,"Baldurstrasse in Nuremberg, Germany",49.4378295,11.0977983,1,,,,,,ForeignMinistry,"Baldurstrasse in Nuremberg, Germany",,german_fires_nuremberg_locations,d9b44718835e84b3287743e633064085,german_fires_nuremberg_locations__3c01680c50e9aec22c16cd9876d02851
balthasar-neumann-strasse,"Balthasar-Neumann-strasse in Nuremberg, Germany",49.4581304,11.138182,1,,,,,,Media,"Balthasar-Neumann-strasse in Nuremberg, Germany",,german_fires_nuremberg_locations,31897bd0819acf157f59eb156b1a5d13,german_fires_nuremberg_locations__0c66ea5535d7f1847f2db06ddd9357ea
baltrumer strasse,"Baltrumer strasse in Nuremberg, Germany",49.4790904,11.0625779,1,,,,,,Wells,"Baltrumer strasse in Nuremberg, Germany",,german_fires_nuremberg_locations,a2e46e71c8fb300cff8b4bc0f01dac9c,german_fires_nuremberg_locations__88fc4a9d93c22e36b572cbf25e8ad628
bamberger strasse,"Bamberger strasse in Nuremberg, Germany",49.4821235,11.0478295,1,,,,,,ForeignMinister,"Bamberger strasse in Nuremberg, Germany",,german_fires_nuremberg_locations,2c9aec0311dc2b82ceddfbf48becbd35,german_fires_nuremberg_locations__5b57bbbc4559235ed25b369857e5849b
barbiergasse,"Barbiergasse in Nuremberg, Germany",49.4465141,11.0658024,1,,,,,,Diplomat,"Barbiergasse in Nuremberg, Germany",,german_fires_nuremberg_locations,600559f44dd1a2ba5c3fbeee40ff644c,german_fires_nuremberg_locations__414beb07852a2434a3ad6e0288c32cae
barenbuhlgraben,"Barenbuhlgraben in Nuremberg, Germany",49.4261702,11.1858642,1,,,,,,Exec,"Barenbuhlgraben in Nuremberg, Germany",,german_fires_nuremberg_locations,1dbfff7d36bc1d66e76b1a5a3a1faee0,german_fires_nuremberg_locations__da87e36c5c198199418bc27039c657fd
barenschanzstrasse,"Barenschanzstrasse in Nuremberg, Germany",49.45223,11.0549367,1,,,,,,Exec,"Barenschanzstrasse in Nuremberg, Germany",,german_fires_nuremberg_locations,06e0542cb4164a58b098a33e00691337,german_fires_nuremberg_locations__d2f56beda65971d1da9874d32964edd5
barlachstrasse,"Barlachstrasse in Nuremberg, Germany",49.3749588,11.0810162,1,,,,,,FTO,"Barlachstrasse in Nuremberg, Germany",,german_fires_nuremberg_locations,0f3d35ad6362e9ad88e1152789bcd9ab,german_fires_nuremberg_locations__998dadc3632c1a1b20abf91a06f90055
bartholomausstrasse,"Bartholomausstrasse in Nuremberg, Germany",49.4568309,11.1017179,1,,,,,,Exec,"Bartholomausstrasse in Nuremberg, Germany",,german_fires_nuremberg_locations,6ada651e2ac35410ff8b0adbe0c98a0a,german_fires_nuremberg_locations__bfdd52e1aa90ab05957f70d0eb53492a
bartokstrasse,"Bartokstrasse in Nuremberg, Germany",49.3501073,11.0624611,1,,,,,,Keyphrase,"Bartokstrasse in Nuremberg, Germany",,german_fires_nuremberg_locations,8921eab36f3f9f586f9b6f5b873cf82c,german_fires_nuremberg_locations__6975ff595a0f3293d11d66ef78fff84b
baststrasse,"Baststrasse in Nuremberg, Germany",49.4992477,11.0461861,1,,,,,,ForeignMinistry,"Baststrasse in Nuremberg, Germany",,german_fires_nuremberg_locations,7cd72134d8b0edb9288f1689e0a58112,german_fires_nuremberg_locations__fbb233154760f7d44534db8902c395fa
bauernfeindstrasse,"Bauernfeindstrasse in Nuremberg, Germany",49.4147548,11.1035884,1,,,,,,IndustryTerm,"Bauernfeindstrasse in Nuremberg, Germany",,german_fires_nuremberg_locations,09b0a0b9d4cfe5b9fa9c557f72e0385e,german_fires_nuremberg_locations__65b2da916c0d71b30b7df6f8bfc40023
bauernfeldstrasse,"Bauernfeldstrasse in Nuremberg, Germany",49.4228198,11.1912941,1,,,,,,Person,"Bauernfeldstrasse in Nuremberg, Germany",,german_fires_nuremberg_locations,eb67311a794d0d036ce72a6decf1e92f,german_fires_nuremberg_locations__fed5d8439a40e3028c36f7a08ec39270
bauerngasse,"Bauerngasse in Nuremberg, Germany",49.4456241,11.0608801,1,,,,,,Consulates,"Bauerngasse in Nuremberg, Germany",,german_fires_nuremberg_locations,767e61cb7aef0df396c517d1387807c4,german_fires_nuremberg_locations__748f9144d86e2e9507061d1730eac9b4
bauhof,"Bauhof in Nuremberg, Germany",49.4493341,11.0818189,1,,,,,,Person,"Bauhof in Nuremberg, Germany",,german_fires_nuremberg_locations,b28695b5a9024bcf71748c4c649ff5cf,german_fires_nuremberg_locations__d9c9414e3d730f4c8ba8146fbebec3ba
bauhuttenstrasse,"Bauhuttenstrasse in Nuremberg, Germany",49.4328535,11.0597866,1,,,,,,DiplomaticFacilities,"Bauhuttenstrasse in Nuremberg, Germany",,german_fires_nuremberg_locations,d70742f4fe22873b60b558beeeed0c67,german_fires_nuremberg_locations__4f035cb2815790fd78daa5974dab6ac4
bauvereinstrasse,"Bauvereinstrasse in Nuremberg, Germany",49.4565233,11.0979593,1,,,,,,DiplomaticFacilities,"Bauvereinstrasse in Nuremberg, Germany",,german_fires_nuremberg_locations,4c215381012fd29956265ed2af59dfdc,german_fires_nuremberg_locations__1d819581339ccc4ab0e7873dbfb4b525
bayernstrasse,"Bayernstrasse in Nuremberg, Germany",49.4337313,11.1103632,1,,,,,,News,"Bayernstrasse in Nuremberg, Germany",,german_fires_nuremberg_locations,7d93950a4961dd69767b9506b26edb66,german_fires_nuremberg_locations__076ff1dd4489ca7cf58556ff78280333
bebelstrasse,"Bebelstrasse in Nuremberg, Germany",49.3629896,11.0481813,1,,,,,,Exec,"Bebelstrasse in Nuremberg, Germany",,german_fires_nuremberg_locations,74647cc2706023bee0b75461722b24ee,german_fires_nuremberg_locations__e05f7b832245f942bc4ecedda6e7acaa
bechhofer strasse,"Bechhofer strasse in Nuremberg, Germany",49.3768212,11.0212901,1,,,,,,DiplomaticFacilities,"Bechhofer strasse in Nuremberg, Germany",,german_fires_nuremberg_locations,a2785f3096311ddb7280f8dee456406a,german_fires_nuremberg_locations__976f4b96e80cefbb1bafa26d9d20b0e3
beckmannstrasse,"Beckmannstrasse in Nuremberg, Germany",49.371909,11.0857172,1,,,,,,Wells,"Beckmannstrasse in Nuremberg, Germany",,german_fires_nuremberg_locations,e8f219302e1ad60f486a4ec32e21cfd6,german_fires_nuremberg_locations__25a612c53779ac288d3e800acde0800e
beckschlagergasse,"Beckschlagergasse in Nuremberg, Germany",49.4556533,11.0853701,1,,,,,,AAEntity,"Beckschlagergasse in Nuremberg, Germany",,german_fires_nuremberg_locations,7a217ae4f9ee21e21003bc4a0b2f4a07,german_fires_nuremberg_locations__e7d7bc17889b1e0c6fabebc9bbe1ff12
beckstrasse,"Beckstrasse in Nuremberg, Germany",49.4542467,11.0427835,1,,,,,,FTO,"Beckstrasse in Nuremberg, Germany",,german_fires_nuremberg_locations,ce2f80b8d8653a4a7112b9bbfe74c525,german_fires_nuremberg_locations__d3be64de80c74793e4755ba42823ff48
beerbacher weg,"Beerbacher Weg in Nuremberg, Germany",49.4654464,11.149792,1,,,,,,Refinery,"Beerbacher Weg in Nuremberg, Germany",,german_fires_nuremberg_locations,d8d37fa1c1c56d55f9f0a153a8152f6b,german_fires_nuremberg_locations__7c19b001e9e557469ade01a3e8351177
beethovenstrasse,"Beethovenstrasse in Nuremberg, Germany",49.4698816,11.1231209,1,,,,,,Consulates,"Beethovenstrasse in Nuremberg, Germany",,german_fires_nuremberg_locations,202484047c98737908b72cb8d8a65cc3,german_fires_nuremberg_locations__7ea809fe6cacf544413e7de2400fa472
bei der gerasmuhle,"Bei der Gerasmuhle in Nuremberg, Germany",49.3937243,11.0250328,1,,,,,,News,"Bei der Gerasmuhle in Nuremberg, Germany",,german_fires_nuremberg_locations,cf0667f0effd13a3d5675510595e406b,german_fires_nuremberg_locations__bbb9ca6529dfced89bcace31392766d5
beilngrieser strasse,"Beilngrieser strasse in Nuremberg, Germany",49.3837382,11.0381471,1,,,,,,DiplomaticFacilities,"Beilngrieser strasse in Nuremberg, Germany",,german_fires_nuremberg_locations,95120a01e486625b45ba5b6591195b8d,german_fires_nuremberg_locations__348384c73e914823b9e50a4c912a5e8a
beim eibisch,"Beim Eibisch in Nuremberg, Germany",49.4100657,11.0268126,1,,,,,,DiplomaticFacilities,"Beim Eibisch in Nuremberg, Germany",,german_fires_nuremberg_locations,54aace8d572c55eb01574e6fed5f9a53,german_fires_nuremberg_locations__828a820a6a08e5ea88363bb189ac9cf0
beim galgensee,"Beim Galgensee in Nuremberg, Germany",49.5333544,11.0271749,1,,,,,,Consulates,"Beim Galgensee in Nuremberg, Germany",,german_fires_nuremberg_locations,7441807a0e93c106095a4a66ff624c94,german_fires_nuremberg_locations__cec7455e4b8bd0704e575c1d33e49657
beim gronacker,"Beim Gronacker in Nuremberg, Germany",49.4470068,11.1248307,1,,,,,,Diplomat,"Beim Gronacker in Nuremberg, Germany",,german_fires_nuremberg_locations,42213eaa9abb6bc91358e376b13415b9,german_fires_nuremberg_locations__3b74dc60152b55af28fb11ee5e24583a
beim hammerwerk,"Beim Hammerwerk in Nuremberg, Germany",49.46946,11.1674325,1,,,,,,Diplomat,"Beim Hammerwerk in Nuremberg, Germany",,german_fires_nuremberg_locations,fe94822a7f4113e68b01c2d2c67ffdc2,german_fires_nuremberg_locations__c1054340368af349769b86eac8ee33e7
beim rochuskirchhof,"Beim Rochuskirchhof in Nuremberg, Germany",49.4480215,11.0606161,1,,,,,,FTO,"Beim Rochuskirchhof in Nuremberg, Germany",,german_fires_nuremberg_locations,831f4810555ce63ddcf25f160f9a8b9b,german_fires_nuremberg_locations__28b80ea91ee4d046816dbc4d95d8596d
beim tiergartnertor,"Beim Tiergartnertor in Nuremberg, Germany",49.4573645,11.0743073,1,,,,,,Organization,"Beim Tiergartnertor in Nuremberg, Germany",,german_fires_nuremberg_locations,1a2c3579a5ef531703be5021bb9ba4e0,german_fires_nuremberg_locations__dc3fa0eaf1ef2cef07a42ac4dccd5791
beim wahlbaum,"Beim Wahlbaum in Nuremberg, Germany",49.3809363,11.0326631,1,,,,,,ForeignMinister,"Beim Wahlbaum in Nuremberg, Germany",,german_fires_nuremberg_locations,7c4b592736a1062c3f35f95d764ccadf,german_fires_nuremberg_locations__7d1845a3454cc098b69c4cbd1cd69391
belgarder strasse,"Belgarder strasse in Nuremberg, Germany",49.4131136,11.0351295,1,,,,,,CompanyKeyword,"Belgarder strasse in Nuremberg, Germany",,german_fires_nuremberg_locations,2cdadb4b2af32e73847e4126dacb4a86,german_fires_nuremberg_locations__7b336c2ac65342773aa3daafad9d7917
belznerweg,"Belznerweg in Nuremberg, Germany",49.4783011,11.1029909,1,,,,,,Shipping,"Belznerweg in Nuremberg, Germany",,german_fires_nuremberg_locations,e59c8723d538ec28c3d04bca28396433,german_fires_nuremberg_locations__676fa1aa68fac9c9344f125707393245
benekestrasse,"Benekestrasse in Nuremberg, Germany",49.4667351,11.0847232,1,,,,,,Organization,"Benekestrasse in Nuremberg, Germany",,german_fires_nuremberg_locations,6690780d5a7e5e61397f1933226216df,german_fires_nuremberg_locations__27b02ad0de4c6dfb2f0a89821bcf4893
bennostrasse,"Bennostrasse in Nuremberg, Germany",49.4783028,11.1172187,1,,,,,,Diplomat,"Bennostrasse in Nuremberg, Germany",,german_fires_nuremberg_locations,9db5344bb137d375a09869f1a719039e,german_fires_nuremberg_locations__8ddf10e528c9da406fc40e8ba6c0d269
berchinger strasse,"Berchinger strasse in Nuremberg, Germany",49.4087064,11.0452029,1,,,,,,Keyphrase,"Berchinger strasse in Nuremberg, Germany",,german_fires_nuremberg_locations,31382dab484b6f2fcf14db1e120d115f,german_fires_nuremberg_locations__5ab201c5f5028a1d29ee3a4069f6a777
berckhauserstrasse,"Berckhauserstrasse in Nuremberg, Germany",49.4644006,11.088297,1,,,,,,Exec,"Berckhauserstrasse in Nuremberg, Germany",,german_fires_nuremberg_locations,27f22fdaf5c4e5efe0d7c8a8cdf6dde0,german_fires_nuremberg_locations__5e75185e1a50a2be14fda9b48bd1ad65
bergackerstrasse,"Bergackerstrasse in Nuremberg, Germany",49.4323818,11.1125338,1,,,,,,Consulates,"Bergackerstrasse in Nuremberg, Germany",,german_fires_nuremberg_locations,33d854fb652c91264f3569a35b87e39a,german_fires_nuremberg_locations__df6ecdc9e3ab19116ec17c860a824a4a
bergstrasse,"Bergstrasse in Nuremberg, Germany",49.4569208,11.0751897,1,,,,,,Exec,"Bergstrasse in Nuremberg, Germany",,german_fires_nuremberg_locations,8519996f4177c80be3da3ff2374b451b,german_fires_nuremberg_locations__8a569e00feec3c131f91a5de346141ea
berliner platz,"Berliner Platz in Nuremberg, Germany",49.4633638,11.095835,1,,,,,,Shipping,"Berliner Platz in Nuremberg, Germany",,german_fires_nuremberg_locations,4c191796d7d3a50ac5a68c65aea58101,german_fires_nuremberg_locations__a00af35766a13da867fdcb47a8af4f42
bernadottestrasse,"Bernadottestrasse in Nuremberg, Germany",49.4428421,11.0385128,1,,,,,,Wells,"Bernadottestrasse in Nuremberg, Germany",,german_fires_nuremberg_locations,a143420629dc48c2a01d61c5ce938c9e,german_fires_nuremberg_locations__13f4b7f687f2db53e905475fc0c78954
bernhardstrasse,"Bernhardstrasse in Nuremberg, Germany",49.45539,11.0116941,1,,,,,,Exec,"Bernhardstrasse in Nuremberg, Germany",,german_fires_nuremberg_locations,17376b86760bb46d006a3df2435776f9,german_fires_nuremberg_locations__e73a52f6facf758320fcd00d478f3576
bernstadter strasse,"Bernstadter strasse in Nuremberg, Germany",49.3986326,11.1365958,1,,,,,,Keyphrase,"Bernstadter strasse in Nuremberg, Germany",,german_fires_nuremberg_locations,1b001c27a08827da191a0bec7ea237cb,german_fires_nuremberg_locations__5a6cfb1b22e0896e4ba2a6927a3629ed
berolzheimer strasse,"Berolzheimer strasse in Nuremberg, Germany",49.4193898,11.0354332,1,,,,,,CompanyKeyword,"Berolzheimer strasse in Nuremberg, Germany",,german_fires_nuremberg_locations,3643a2aeec6917176fe59693c16a1e23,german_fires_nuremberg_locations__34d4d3b84d3ca0509d66dc1fd97453e5
bertastrasse,"Bertastrasse in Nuremberg, Germany",49.4450264,11.1137431,1,,,,,,Organization,"Bertastrasse in Nuremberg, Germany",,german_fires_nuremberg_locations,f687263a6386f0f526ca94d4229b83e6,german_fires_nuremberg_locations__8fc3d020efb2aa39ecb260f7bc2716df
bertha-von-suttner-strasse,"Bertha-von-Suttner-strasse in Nuremberg, Germany",49.4445804,11.0454809,1,,,,,,ForeignMinister,"Bertha-von-Suttner-strasse in Nuremberg, Germany",,german_fires_nuremberg_locations,ca483cd8f687612e8ba4cd850bbb3bcb,german_fires_nuremberg_locations__8da38549d1d9819d06915a910a0ba75e
bertolt-brecht-strasse,"Bertolt-Brecht-strasse in Nuremberg, Germany",49.4151718,11.1232345,1,,,,,,Pipeline,"Bertolt-Brecht-strasse in Nuremberg, Germany",,german_fires_nuremberg_locations,8aab648efc61d878412415bc7caec7ea,german_fires_nuremberg_locations__08daec160b98a13efa98e8b87648b364
beslerstrasse,"Beslerstrasse in Nuremberg, Germany",49.4098672,11.0328244,1,,,,,,Shipping,"Beslerstrasse in Nuremberg, Germany",,german_fires_nuremberg_locations,7276a59210d2fa9ba34a1a21f1d85820,german_fires_nuremberg_locations__b6a935b93746e202239584496b7d7284
bessemerstrasse,"Bessemerstrasse in Nuremberg, Germany",49.4757834,11.1065107,1,,,,,,News,"Bessemerstrasse in Nuremberg, Germany",,german_fires_nuremberg_locations,258d63a81233880c2cf5ba6c6a21445e,german_fires_nuremberg_locations__9588633d6bfaa87c8cf2777ce6631ce5
bestelmeyerstrasse,"Bestelmeyerstrasse in Nuremberg, Germany",49.4440738,11.1079701,1,,,,,,Consulates,"Bestelmeyerstrasse in Nuremberg, Germany",,german_fires_nuremberg_locations,26a5f962fbc26f7d8369e37b75ca136e,german_fires_nuremberg_locations__6506e37f3f78431a7e8481c02b97a26c
betzengasschen,"Betzengasschen in Nuremberg, Germany",49.450718,11.068205,1,,,,,,IndustryTerm,"Betzengasschen in Nuremberg, Germany",,german_fires_nuremberg_locations,f901e9b3a642cac4134d8d913b87951c,german_fires_nuremberg_locations__fb716c12b1b23a326f34a42c97bb7a64
betzensteiner strasse,"Betzensteiner strasse in Nuremberg, Germany",49.4832437,11.1166649,1,,,,,,ForeignMinister,"Betzensteiner strasse in Nuremberg, Germany",,german_fires_nuremberg_locations,ffd4e1498221b91878bf4876547e8182,german_fires_nuremberg_locations__dd21271b16af35e419b07d9f362261f2
bibertstrasse,"Bibertstrasse in Nuremberg, Germany",49.4309655,11.0053867,1,,,,,,AAEntity,"Bibertstrasse in Nuremberg, Germany",,german_fires_nuremberg_locations,94ee15b952c361ef028d1111fcea63b4,german_fires_nuremberg_locations__bd45d65f293b1ed23e7380564db3ffee
bibraweg,"Bibraweg in Nuremberg, Germany",49.407072,11.0331362,1,,,,,,DiplomaticFacilities,"Bibraweg in Nuremberg, Germany",,german_fires_nuremberg_locations,7bdf01883314f47647ef24afc76ebb72,german_fires_nuremberg_locations__bdb89afe38afe02d25a571ebd1871c31
bielefelder strasse,"Bielefelder strasse in Nuremberg, Germany",49.4670602,11.0502297,1,,,,,,News,"Bielefelder strasse in Nuremberg, Germany",,german_fires_nuremberg_locations,de8693700932cfa1feb4e93584acd1f0,german_fires_nuremberg_locations__956b45b116588d055bd9f3345eeb6227
bielingplatz,"Bielingplatz in Nuremberg, Germany",49.4643373,11.062851,1,,,,,,Consulates,"Bielingplatz in Nuremberg, Germany",,german_fires_nuremberg_locations,ad122bffa90a8b034258008abae7a1e7,german_fires_nuremberg_locations__0ce993291cc88529568af9ca38fd8ad1
bielingstrasse,"Bielingstrasse in Nuremberg, Germany",49.4619342,11.0668157,1,,,,,,Person,"Bielingstrasse in Nuremberg, Germany",,german_fires_nuremberg_locations,7820d8da22ae7ab60495295d4efd69fc,german_fires_nuremberg_locations__eac11ad83ae6cb878fee8975e4d01d7e
bienweg,"Bienweg in Nuremberg, Germany",49.4666437,11.0451118,1,,,,,,space,"Bienweg in Nuremberg, Germany",,german_fires_nuremberg_locations,8462cb0134dc5440e5f7c965fe51bdd3,german_fires_nuremberg_locations__d30f4ffd3c463f76ebd51e23cf99f38a
bierleite,"Bierleite in Nuremberg, Germany",49.3591583,11.058776,1,,,,,,Consulates,"Bierleite in Nuremberg, Germany",,german_fires_nuremberg_locations,949ea4ba5458d6202d8526948198c896,german_fires_nuremberg_locations__21b5bcfe07120e4cf0900fe9e73eed73
bierweg,"Bierweg in Nuremberg, Germany",49.4881796,11.1143685,1,,,,,,Refinery,"Bierweg in Nuremberg, Germany",,german_fires_nuremberg_locations,cb2623b0b4db1f9d685c6a5bfdb2361e,german_fires_nuremberg_locations__8c65a5a05086cd2e8cc13e72ceddaf16
billrothstrasse,"Billrothstrasse in Nuremberg, Germany",49.4635954,11.1394541,1,,,,,,Diplomat,"Billrothstrasse in Nuremberg, Germany",,german_fires_nuremberg_locations,71b114cbdc366400b2dbfbed592ac440,german_fires_nuremberg_locations__01f5658b92f8e4f228506e4a96fead1e
bindergasse,"Bindergasse in Nuremberg, Germany",49.4554185,11.0791974,1,,,,,,IndustryTerm,"Bindergasse in Nuremberg, Germany",,german_fires_nuremberg_locations,2040935034da743a7511048dd0c0333e,german_fires_nuremberg_locations__467b875b0ee1f208b062270648ac6175
bingstrasse,"Bingstrasse in Nuremberg, Germany",49.4461667,11.1331786,1,,,,,,ForeignMinistry,"Bingstrasse in Nuremberg, Germany",,german_fires_nuremberg_locations,be0319c7fa3d1992fb5d1ed816f813a0,german_fires_nuremberg_locations__8ae061469b50cd7ed2f9c13fe65a955b
binzenweg,"Binzenweg in Nuremberg, Germany",49.5185588,11.0482263,1,,,,,,Shipping,"Binzenweg in Nuremberg, Germany",,german_fires_nuremberg_locations,2ba12c50a97e7452a14f60efef38b38b,german_fires_nuremberg_locations__2847b38976cc3ec65d26f20df913da86
birkacher strasse,"Birkacher strasse in Nuremberg, Germany",49.3719966,11.0377809,1,,,,,,AAEntity,"Birkacher strasse in Nuremberg, Germany",,german_fires_nuremberg_locations,27e9121a6051a89523c239478addd39d,german_fires_nuremberg_locations__64fdc6e4d7f59d7a9ee8ede177a9cf7b
birkenhof,"Birkenhof in Nuremberg, Germany",49.4397211,11.1099576,1,,,,,,CompanyKeyword,"Birkenhof in Nuremberg, Germany",,german_fires_nuremberg_locations,ef545c6625906b712709a5a5d01374d1,german_fires_nuremberg_locations__68af9a71adb8f108143a23b278bdea09
birkenstrasse,"Birkenstrasse in Nuremberg, Germany",49.4421975,11.0734329,1,,,,,,Organization,"Birkenstrasse in Nuremberg, Germany",,german_fires_nuremberg_locations,0d1ec862afc25c419f93292fbff70188,german_fires_nuremberg_locations__a5cd53a4e9fb54912df9e7f2b2d3a608
birkhahnweg,"Birkhahnweg in Nuremberg, Germany",49.3774234,11.0703588,1,,,,,,Exec,"Birkhahnweg in Nuremberg, Germany",,german_fires_nuremberg_locations,2c21036d510953c39baa206891b16566,german_fires_nuremberg_locations__8e52ee9f69844a847b08d69388628166
birnthon,"Birnthon in Nuremberg, Germany",49.414249,11.2609739,1,,,,,,AAEntity,"Birnthon in Nuremberg, Germany",,german_fires_nuremberg_locations,566393d6f232cd1ee3daaa7cc77a3c7b,german_fires_nuremberg_locations__d6ed092bc10c5925aee96d42a12631b7
bismarckstrasse,"Bismarckstrasse in Nuremberg, Germany",49.4652735,11.1090138,1,,,,,,Media,"Bismarckstrasse in Nuremberg, Germany",,german_fires_nuremberg_locations,93e8e7774deb3dc3492f4730b0f13209,german_fires_nuremberg_locations__0fab5824120546cda3aee2fc04e5d206
bleichstrasse,"Bleichstrasse in Nuremberg, Germany",49.451443,11.0628172,1,,,,,,Consulates,"Bleichstrasse in Nuremberg, Germany",,german_fires_nuremberg_locations,b46f3ea5e826c325e62660877feadf7f,german_fires_nuremberg_locations__a6957f37c1b90369473ea34d5a131285
bliesstrasse,"Bliesstrasse in Nuremberg, Germany",49.3984643,11.0873753,1,,,,,,ForeignMinister,"Bliesstrasse in Nuremberg, Germany",,german_fires_nuremberg_locations,a1010ac2b1aecfd099fe8f02e9c8eb6a,german_fires_nuremberg_locations__a5cb869341ef7ebda46fd725baca0837
blucherstrasse,"Blucherstrasse in Nuremberg, Germany",49.4382391,11.0442078,1,,,,,,Person,"Blucherstrasse in Nuremberg, Germany",,german_fires_nuremberg_locations,7891dd9ba08623576dc26ba8d4ab11c5,german_fires_nuremberg_locations__c33eb5ce3c1399ad0e5379e43cc402c1
blumenstrasse,"Blumenstrasse in Nuremberg, Germany",49.4501945,11.0858626,1,,,,,,CompanyKeyword,"Blumenstrasse in Nuremberg, Germany",,german_fires_nuremberg_locations,f3ab8fe1d137b3a83a39a777f59d6dd7,german_fires_nuremberg_locations__f00fef3d3bf7dc2fd50a3f0fa2b37add
blumenthalstrasse,"Blumenthalstrasse in Nuremberg, Germany",49.4542719,11.0603625,1,,,,,,Media,"Blumenthalstrasse in Nuremberg, Germany",,german_fires_nuremberg_locations,08c325e6a7de5b1396ca65ee4e023c5a,german_fires_nuremberg_locations__d001573ea5b14836f353ca6cc0223f73
blumroderstrasse,"Blumroderstrasse in Nuremberg, Germany",49.4673193,11.1354081,1,,,,,,DiplomaticFacilities,"Blumroderstrasse in Nuremberg, Germany",,german_fires_nuremberg_locations,c21254058a79ad7d8901f7ac4d24c092,german_fires_nuremberg_locations__dcfcab5587ee584ce398495451055107
blutenstrasse,"Blutenstrasse in Nuremberg, Germany",49.4578574,11.1306104,1,,,,,,Media,"Blutenstrasse in Nuremberg, Germany",,german_fires_nuremberg_locations,c87a86b5e4611cca60dd11a750a53eb0,german_fires_nuremberg_locations__ed206e6a3875f4d76284726a85808c16
bochumer strasse,"Bochumer strasse in Nuremberg, Germany",49.3951981,11.0489121,1,,,,,,LegislativeCommittee,"Bochumer strasse in Nuremberg, Germany",,german_fires_nuremberg_locations,14d6144e28e1bdf81aa0328478a09f65,german_fires_nuremberg_locations__34ffd0198f89ac8c2f425bba56039ff6
bodelschwinghstrasse,"Bodelschwinghstrasse in Nuremberg, Germany",49.4094348,11.1655401,1,,,,,,ForeignMinister,"Bodelschwinghstrasse in Nuremberg, Germany",,german_fires_nuremberg_locations,4abf7d139c45c7ef2781d55583e825a3,german_fires_nuremberg_locations__af596fc5e59b92dfd4ae07b9f3c9327d
boelckestrasse,"Boelckestrasse in Nuremberg, Germany",49.4397211,11.1099576,1,,,,,,Exec,"Boelckestrasse in Nuremberg, Germany",,german_fires_nuremberg_locations,6791df4643b0ab4973597018b4a96b6e,german_fires_nuremberg_locations__cfbaca780a0f8aeab2a402b2286df8b7
bogenstrasse,"Bogenstrasse in Nuremberg, Germany",49.4427734,11.0786623,1,,,,,,Diplomat,"Bogenstrasse in Nuremberg, Germany",,german_fires_nuremberg_locations,b8600728834c0878c8679fbd538433d3,german_fires_nuremberg_locations__bdeffad89bfe366bbf901b1fdb9420ea
bolscheweg,"Bolscheweg in Nuremberg, Germany",49.4072731,11.0322548,1,,,,,,Consulates,"Bolscheweg in Nuremberg, Germany",,german_fires_nuremberg_locations,c98912e202e031c583f5303929a960e4,german_fires_nuremberg_locations__8f2bde6d99e1c727ed8a93bf327977be
bonerstrasse,"Bonerstrasse in Nuremberg, Germany",49.4391077,11.0777571,1,,,,,,ForeignMinister,"Bonerstrasse in Nuremberg, Germany",,german_fires_nuremberg_locations,f82b1d5a23e1080c12fa140dcc2306cb,german_fires_nuremberg_locations__3dd336821856f4c8ce630d0c53933c34
bonhoefferstrasse,"Bonhoefferstrasse in Nuremberg, Germany",49.3956874,11.1384591,1,,,,,,IndustryTerm,"Bonhoefferstrasse in Nuremberg, Germany",,german_fires_nuremberg_locations,68c70fc7f6170a8e8f868d8752731ed0,german_fires_nuremberg_locations__137789f4175a3cd340fe106c413f7fe2
bonifatiusstrasse,"Bonifatiusstrasse in Nuremberg, Germany",49.3964715,11.1751981,1,,,,,,Diplomat,"Bonifatiusstrasse in Nuremberg, Germany",,german_fires_nuremberg_locations,696fa24e2e8e84ce19997245b0cce955,german_fires_nuremberg_locations__fb8160e03a84b20e1faf71dd46423229
bopfinger strasse,"Bopfinger strasse in Nuremberg, Germany",49.4233508,11.0390458,1,,,,,,Wells,"Bopfinger strasse in Nuremberg, Germany",,german_fires_nuremberg_locations,d1db06cc677adfb272b6384486318f32,german_fires_nuremberg_locations__1b50605ffb142d82f14b4d4f383b58af
borchertstrasse,"Borchertstrasse in Nuremberg, Germany",49.3532952,11.0956588,1,,,,,,FTO,"Borchertstrasse in Nuremberg, Germany",,german_fires_nuremberg_locations,351a6be9db481ca38e29678a62362875,german_fires_nuremberg_locations__881fe359225b51b8f8a9588f2108f359
borkumer strasse,"Borkumer strasse in Nuremberg, Germany",49.4779939,11.0636215,1,,,,,,Shipping,"Borkumer strasse in Nuremberg, Germany",,german_fires_nuremberg_locations,a9388839814bf13417cbe0e7dead9092,german_fires_nuremberg_locations__cc9b218366a5dce4d63eb51868e17ed8
bornestrasse,"Bornestrasse in Nuremberg, Germany",49.4227529,11.1935109,1,,,,,,FTO,"Bornestrasse in Nuremberg, Germany",,german_fires_nuremberg_locations,a86882b98b5def6aea2b44be0bec9b9f,german_fires_nuremberg_locations__93dd4d8c1c1a4f4326e51005c862e66f
borsigstrasse,"Borsigstrasse in Nuremberg, Germany",49.4466859,11.1061489,1,,,,,,Refinery,"Borsigstrasse in Nuremberg, Germany",,german_fires_nuremberg_locations,560cc62004d3d1fa0841247f6ac98462,german_fires_nuremberg_locations__83357a26981eeb508dceacb5e8d1866b
bothmerstrasse,"Bothmerstrasse in Nuremberg, Germany",49.4582102,11.1355294,1,,,,,,Organization,"Bothmerstrasse in Nuremberg, Germany",,german_fires_nuremberg_locations,d10d5cf8cc5518b33db6163a3509a04f,german_fires_nuremberg_locations__25f80de44bf8861761f1c86661a24693
bothostrasse,"Bothostrasse in Nuremberg, Germany",49.4309588,11.0922033,1,,,,,,Refinery,"Bothostrasse in Nuremberg, Germany",,german_fires_nuremberg_locations,805d5cea42ad0611a70287660903c9f0,german_fires_nuremberg_locations__53a5488b8d7bbc02c9fce4ced7027130
boxdorfer hauptstrasse,"Boxdorfer Hauptstrasse in Nuremberg, Germany",49.5156045,11.0297684,1,,,,,,ForeignMinistry,"Boxdorfer Hauptstrasse in Nuremberg, Germany",,german_fires_nuremberg_locations,34bc3b971846ba62e6a4a17ce1c64c20,german_fires_nuremberg_locations__921049d99a52fa93a02b8b1a3771b334
bozener strasse,"Bozener strasse in Nuremberg, Germany",49.4276237,11.0899399,1,,,,,,Person,"Bozener strasse in Nuremberg, Germany",,german_fires_nuremberg_locations,22b412ceb8066f58442c62473c2aa97a,german_fires_nuremberg_locations__19e4fc67aa13612a40433598264f7ad2
braillestrasse,"Braillestrasse in Nuremberg, Germany",49.4769634,11.0886511,1,,,,,,space,"Braillestrasse in Nuremberg, Germany",,german_fires_nuremberg_locations,30c4382a79fac97a4531b2d42391716b,german_fires_nuremberg_locations__d126b417be7bacbbb0f4ad8c913199b8
brandenburger strasse,"Brandenburger strasse in Nuremberg, Germany",49.4066166,11.0285822,1,,,,,,space,"Brandenburger strasse in Nuremberg, Germany",,german_fires_nuremberg_locations,48d2d714b4262ff47ca5662744c0532b,german_fires_nuremberg_locations__ea456cea5b23ec2959caabe85e3a7cd6
brandstrasse,"Brandstrasse in Nuremberg, Germany",49.4663361,11.1628732,1,,,,,,IndustryTerm,"Brandstrasse in Nuremberg, Germany",,german_fires_nuremberg_locations,0869997567fe2506d82942ca3c2bed1e,german_fires_nuremberg_locations__68f8357f3d8d4286ebb1fcb1c46125e0
brauhausstrasse,"Brauhausstrasse in Nuremberg, Germany",49.4656504,11.0857088,1,,,,,,DiplomaticFacilities,"Brauhausstrasse in Nuremberg, Germany",,german_fires_nuremberg_locations,2a11b6befcfaf33432b41ba4a0740887,german_fires_nuremberg_locations__40ed0dcde7167b23eaec73e17541a035
brauneckweg,"Brauneckweg in Nuremberg, Germany",49.4075108,11.1214491,1,,,,,,Refinery,"Brauneckweg in Nuremberg, Germany",,german_fires_nuremberg_locations,3672696cb5785b12bd06280d4f5c013b,german_fires_nuremberg_locations__ed9d157b22061477eabaefa9fdb849c8
