german_text,caption_text,lat,lon,ranking,default location,default_lat,default_lon,ENTITY_LABEL,name,description,source,source_identifier,global_identifier
allendorf/lahn,"Allendorf/Lahn in Giessen, Germany",50.5531618,8.6219464,2,"Giessen, Germany",50.58556495,8.67817117,IndustryTerm,"Allendorf/Lahn in Giessen, Germany",,german_fires_giessen_locations,19868ed8ff9646ecbb7ffde6b0908e59,german_fires_giessen_locations__19868ed8ff9646ecbb7ffde6b0908e59
kleinlinden,"Kleinlinden in Giessen, Germany",50.5573712,8.6442204,2,,,,CompanyKeyword,"Kleinlinden in Giessen, Germany",,german_fires_giessen_locations,6b2c6c403d8cc88dd4962034533e4f4d,german_fires_giessen_locations__6b2c6c403d8cc88dd4962034533e4f4d
wieseck,"Wieseck in Giessen, Germany",50.6085432,8.7059246,2,,,,Legislator,"Wieseck in Giessen, Germany",,german_fires_giessen_locations,5c4452f25cb2bd3637b2b0a6ea57cf1e,german_fires_giessen_locations__5c4452f25cb2bd3637b2b0a6ea57cf1e
siedlung petersweiher,"Siedlung Petersweiher in Giessen, Germany",50.5483453,8.7211682,2,,,,CompanyKeyword,"Siedlung Petersweiher in Giessen, Germany",,german_fires_giessen_locations,0e95fe6621e32b6916cf5ce9623affdd,german_fires_giessen_locations__0e95fe6621e32b6916cf5ce9623affdd
lutzellinden,"Lutzellinden in Giessen, Germany",50.5381989,8.6215148,2,,,,Consulates,"Lutzellinden in Giessen, Germany",,german_fires_giessen_locations,796987189417e7861eaba8d20396e465,german_fires_giessen_locations__796987189417e7861eaba8d20396e465
rodgen,"Rodgen in Giessen, Germany",50.5991643,8.7480155,2,,,,AAEntity,"Rodgen in Giessen, Germany",,german_fires_giessen_locations,d38e64980c2e3ac154dd3221ee1fc1e6,german_fires_giessen_locations__d38e64980c2e3ac154dd3221ee1fc1e6
achstattring,"Achstattring in Giessen, Germany",50.6024023,8.6742593,1,,,,Refinery,"Achstattring in Giessen, Germany",,german_fires_giessen_locations,8166f03860c90b8e420333db4badd97a,german_fires_giessen_locations__8166f03860c90b8e420333db4badd97a
adalbert-stifter-str.,"Adalbert-Stifter-Strasse in Giessen, Germany",50.58022,8.6909956,1,,,,Refinery,"Adalbert-Stifter-Strasse in Giessen, Germany",,german_fires_giessen_locations,8b042c6053171dafda5e1a8f5aa49a42,german_fires_giessen_locations__8b042c6053171dafda5e1a8f5aa49a42
adolph-kolping-str.,"Adolph-Kolping-Strasse in Giessen, Germany",50.564784,8.6606343,1,,,,News,"Adolph-Kolping-Strasse in Giessen, Germany",,german_fires_giessen_locations,26768c0aed5b14b90c458ecabd8d0fe6,german_fires_giessen_locations__26768c0aed5b14b90c458ecabd8d0fe6
ahornweg,"Ahornweg in Giessen, Germany",50.5888185,8.6965777,1,,,,FTO,"Ahornweg in Giessen, Germany",,german_fires_giessen_locations,16ee043dc5270199b2d4b82f6b0ba297,german_fires_giessen_locations__16ee043dc5270199b2d4b82f6b0ba297
albert-bossler-str.,"Albert-Bossler-Strasse in Giessen, Germany",50.5570877,8.6457571,1,,,,ForeignMinistry,"Albert-Bossler-Strasse in Giessen, Germany",,german_fires_giessen_locations,11306bb4f8e25cb0e36edfdca1d63e11,german_fires_giessen_locations__11306bb4f8e25cb0e36edfdca1d63e11
albert-schweitzer-str.,"Albert-Schweitzer-Strasse in Giessen, Germany",50.5866194,8.6694306,1,,,,Diplomat,"Albert-Schweitzer-Strasse in Giessen, Germany",,german_fires_giessen_locations,f402897a23df6316c09c1ee69df57ca6,german_fires_giessen_locations__f402897a23df6316c09c1ee69df57ca6
alfred-bock-str.,"Alfred-Bock-Strasse in Giessen, Germany",50.5788861,8.6873164,1,,,,Diplomat,"Alfred-Bock-Strasse in Giessen, Germany",,german_fires_giessen_locations,44bc5be40a7f0e7a0ec1e906b14e9b16,german_fires_giessen_locations__44bc5be40a7f0e7a0ec1e906b14e9b16
alicenstr.,"Alicenstrasse in Giessen, Germany",50.5806577,8.6703036,1,,,,LegislativeCommittee,"Alicenstrasse in Giessen, Germany",,german_fires_giessen_locations,70f780ad438072b7853bca357ca70e2a,german_fires_giessen_locations__70f780ad438072b7853bca357ca70e2a
allendorfer str.,"Allendorfer Strasse in Giessen, Germany",50.5529895,8.6401626,1,,,,IndustryTerm,"Allendorfer Strasse in Giessen, Germany",,german_fires_giessen_locations,bdcd2436e6b090763326f4dc0c3252a0,german_fires_giessen_locations__bdcd2436e6b090763326f4dc0c3252a0
altarastr.,"Altarastrasse in Giessen, Germany",50.5804674,8.6771403,1,,,,Pipeline,"Altarastrasse in Giessen, Germany",,german_fires_giessen_locations,232aba618ba99b8b33007ed7e9b273ed,german_fires_giessen_locations__232aba618ba99b8b33007ed7e9b273ed
alte gerberei,"Alte Gerberei in Giessen, Germany",50.5928452,8.6667354,1,,,,AAEntity,"Alte Gerberei in Giessen, Germany",,german_fires_giessen_locations,870c6a8e7d13ee8331b48dfe5897dd00,german_fires_giessen_locations__870c6a8e7d13ee8331b48dfe5897dd00
alte giessener str.,"Alte Giessener Strasse in Giessen, Germany",50.5458088,8.732556,1,,,,Organization,"Alte Giessener Strasse in Giessen, Germany",,german_fires_giessen_locations,8d8827dc281b5238fb1f9dc8b7e3f772,german_fires_giessen_locations__8d8827dc281b5238fb1f9dc8b7e3f772
alte schulstr.,"Alte Schulstrasse in Giessen, Germany",50.6037383,8.7041901,1,,,,Wells,"Alte Schulstrasse in Giessen, Germany",,german_fires_giessen_locations,d2ee112f30c2b28d3b077c95557d9e59,german_fires_giessen_locations__d2ee112f30c2b28d3b077c95557d9e59
alten-busecker str.,"Alten-Busecker Strasse in Giessen, Germany",50.6078021,8.7105447,1,,,,Keyphrase,"Alten-Busecker Strasse in Giessen, Germany",,german_fires_giessen_locations,f8de85bc93fe57bc23d13bf09a62d86b,german_fires_giessen_locations__f8de85bc93fe57bc23d13bf09a62d86b
altenbergweg,"Altenbergweg in Giessen, Germany",50.5925668,8.6649739,1,,,,ForeignMinister,"Altenbergweg in Giessen, Germany",,german_fires_giessen_locations,e192a7ef164791cb87581ed9b3204b78,german_fires_giessen_locations__e192a7ef164791cb87581ed9b3204b78
altenburger str.,"Altenburger Strasse in Giessen, Germany",50.6110336,8.7147846,1,,,,Consulates,"Altenburger Strasse in Giessen, Germany",,german_fires_giessen_locations,10276da484bae0cfd49f0d18fb4f2ee0,german_fires_giessen_locations__10276da484bae0cfd49f0d18fb4f2ee0
altenfeldsweg,"Altenfeldsweg in Giessen, Germany",50.5783662,8.6859026,1,,,,LegislativeCommittee,"Altenfeldsweg in Giessen, Germany",,german_fires_giessen_locations,6c1a2fca95ef9f5c4bfd6bb7be8d60ee,german_fires_giessen_locations__6c1a2fca95ef9f5c4bfd6bb7be8d60ee
alter krofdorfer weg,"Alter Krofdorfer Weg in Giessen, Germany",50.5970101,8.6649227,1,,,,IndustryTerm,"Alter Krofdorfer Weg in Giessen, Germany",,german_fires_giessen_locations,1e8e912803131ab3960875b69969afcc,german_fires_giessen_locations__1e8e912803131ab3960875b69969afcc
alter steinbacher weg,"Alter Steinbacher Weg in Giessen, Germany",50.5771396,8.696971,1,,,,Organization,"Alter Steinbacher Weg in Giessen, Germany",,german_fires_giessen_locations,61ffb42ba8407c89d2f54fc2459390d9,german_fires_giessen_locations__61ffb42ba8407c89d2f54fc2459390d9
alter wetzlarer weg,"Alter Wetzlarer Weg in Giessen, Germany",50.5776631,8.6610847,1,,,,Legislator,"Alter Wetzlarer Weg in Giessen, Germany",,german_fires_giessen_locations,9d7d3cf5d4137f1ac467ac9dafc63978,german_fires_giessen_locations__9d7d3cf5d4137f1ac467ac9dafc63978
altes gericht,"Altes Gericht in Giessen, Germany",50.5563207,8.6299118,1,,,,Pipeline,"Altes Gericht in Giessen, Germany",,german_fires_giessen_locations,e6facbd7968436f8084f536f24fbaa0e,german_fires_giessen_locations__e6facbd7968436f8084f536f24fbaa0e
am alten flughafen,"Am Alten Flughafen in Giessen, Germany",50.5932855,8.7278745,1,,,,IndustryTerm,"Am Alten Flughafen in Giessen, Germany",,german_fires_giessen_locations,bde4c95234b4c5443c9fc4378fc3156e,german_fires_giessen_locations__bde4c95234b4c5443c9fc4378fc3156e
am alten friedhof,"Am Alten Friedhof in Giessen, Germany",50.5811224,8.6871332,1,,,,Keyphrase,"Am Alten Friedhof in Giessen, Germany",,german_fires_giessen_locations,ecc8029dcb414994dd0b39eb518b4f1c,german_fires_giessen_locations__ecc8029dcb414994dd0b39eb518b4f1c
am alten gaswerk,"Am Alten Gaswerk in Giessen, Germany",50.5848,8.6805819,1,,,,IndustryTerm,"Am Alten Gaswerk in Giessen, Germany",,german_fires_giessen_locations,0dee172b26a28485aee667635831fb10,german_fires_giessen_locations__0dee172b26a28485aee667635831fb10
am alten steinbruch,"Am Alten Steinbruch in Giessen, Germany",50.5531173,8.6222152,1,,,,Legislator,"Am Alten Steinbruch in Giessen, Germany",,german_fires_giessen_locations,011e47ed2eed14276ca3f525e3ab44c0,german_fires_giessen_locations__011e47ed2eed14276ca3f525e3ab44c0
am backhaus,"Am Backhaus in Giessen, Germany",50.5381261,8.6214143,1,,,,Keyphrase,"Am Backhaus in Giessen, Germany",,german_fires_giessen_locations,bd3d1c810c0a9a1c480c535653cc76e3,german_fires_giessen_locations__bd3d1c810c0a9a1c480c535653cc76e3
am bergwerkswald,"Am Bergwerkswald in Giessen, Germany",50.5634208,8.6757722,1,,,,Consulates,"Am Bergwerkswald in Giessen, Germany",,german_fires_giessen_locations,6cce17b55b0f615c4b0ce1f6caa1c385,german_fires_giessen_locations__6cce17b55b0f615c4b0ce1f6caa1c385
am brennofen,"Am Brennofen in Giessen, Germany",50.5836377,8.6839491,1,,,,ForeignMinister,"Am Brennofen in Giessen, Germany",,german_fires_giessen_locations,d687cd26648317fffe06780617383150,german_fires_giessen_locations__d687cd26648317fffe06780617383150
am eichelbaum,"Am Eichelbaum in Giessen, Germany",50.6060627,8.7003605,1,,,,Pipeline,"Am Eichelbaum in Giessen, Germany",,german_fires_giessen_locations,a3072b21d1764070776df30641228d93,german_fires_giessen_locations__a3072b21d1764070776df30641228d93
am erlenberg,"Am Erlenberg in Giessen, Germany",50.6062892,8.7117808,1,,,,Refinery,"Am Erlenberg in Giessen, Germany",,german_fires_giessen_locations,b370587e3429a3aa16be37fc4c4eb649,german_fires_giessen_locations__b370587e3429a3aa16be37fc4c4eb649
am faltergarten,"Am Faltergarten in Giessen, Germany",50.5377355,8.6252498,1,,,,Organization,"Am Faltergarten in Giessen, Germany",,german_fires_giessen_locations,fe5a5d4d5a6243e928fcfb50bca75594,german_fires_giessen_locations__fe5a5d4d5a6243e928fcfb50bca75594
am gallichten,"Am Gallichten in Giessen, Germany",50.5542871,8.627829,1,,,,IndustryTerm,"Am Gallichten in Giessen, Germany",,german_fires_giessen_locations,f6084a1d61d3c01d538509bbb5cf132c,german_fires_giessen_locations__f6084a1d61d3c01d538509bbb5cf132c
am guterbahnhof,"Am Guterbahnhof in Giessen, Germany",50.5814047,8.6631623,1,,,,Wells,"Am Guterbahnhof in Giessen, Germany",,german_fires_giessen_locations,2bf0b466e0de4e1ae7a41cfa8190b796,german_fires_giessen_locations__2bf0b466e0de4e1ae7a41cfa8190b796
am hellerpfad,"Am Hellerpfad in Giessen, Germany",50.5360699,8.6228418,1,,,,Pipeline,"Am Hellerpfad in Giessen, Germany",,german_fires_giessen_locations,8a0f44f329103ff22bd3fe37b6cc8e22,german_fires_giessen_locations__8a0f44f329103ff22bd3fe37b6cc8e22
am hugel,"Am Hugel in Giessen, Germany",50.5401058,8.6262939,1,,,,Organization,"Am Hugel in Giessen, Germany",,german_fires_giessen_locations,de8b35f7ed069ffe92854775c9e4e623,german_fires_giessen_locations__de8b35f7ed069ffe92854775c9e4e623
am kaiserberg,"Am Kaiserberg in Giessen, Germany",50.614637,8.7025988,1,,,,ForeignMinister,"Am Kaiserberg in Giessen, Germany",,german_fires_giessen_locations,9ff45488fe9b6e37b5a2b4b337fde126,german_fires_giessen_locations__9ff45488fe9b6e37b5a2b4b337fde126
am kasimir,"Am Kasimir in Giessen, Germany",50.5554089,8.6223068,1,,,,Keyphrase,"Am Kasimir in Giessen, Germany",,german_fires_giessen_locations,04c386b91a1df076b918f02e72b7b31c,german_fires_giessen_locations__04c386b91a1df076b918f02e72b7b31c
am kirschenberg,"Am Kirschenberg in Giessen, Germany",50.5934913,8.74831,1,,,,Refinery,"Am Kirschenberg in Giessen, Germany",,german_fires_giessen_locations,151f0160f28376f4506695ee8401f33a,german_fires_giessen_locations__151f0160f28376f4506695ee8401f33a
am sportplatz,"Am Sportplatz in Giessen, Germany",50.5554074,8.6186867,1,,,,Person,"Am Sportplatz in Giessen, Germany",,german_fires_giessen_locations,cc14b5c7ef91f726fac98eb7ca62874c,german_fires_giessen_locations__cc14b5c7ef91f726fac98eb7ca62874c
am steckelchen,"Am Steckelchen in Giessen, Germany",50.5351476,8.6171088,1,,,,Exec,"Am Steckelchen in Giessen, Germany",,german_fires_giessen_locations,0189782897b877f691ce8b5e48cf1515,german_fires_giessen_locations__0189782897b877f691ce8b5e48cf1515
am steg,"Am Steg in Giessen, Germany",50.5736285,8.6617318,1,,,,LegislativeCommittee,"Am Steg in Giessen, Germany",,german_fires_giessen_locations,79585784f21bb5535252eed893de7190,german_fires_giessen_locations__79585784f21bb5535252eed893de7190
am steinkreuz,"Am Steinkreuz in Giessen, Germany",50.6029525,8.6991052,1,,,,Wells,"Am Steinkreuz in Giessen, Germany",,german_fires_giessen_locations,b6fefda4c4cb22359edfcca7a623df27,german_fires_giessen_locations__b6fefda4c4cb22359edfcca7a623df27
am steinruck,"Am Steinruck in Giessen, Germany",50.5478258,8.6341896,1,,,,FTO,"Am Steinruck in Giessen, Germany",,german_fires_giessen_locations,c5363186e1c5cedb925f76430db530ba,german_fires_giessen_locations__c5363186e1c5cedb925f76430db530ba
am stockhaus,"Am Stockhaus in Giessen, Germany",50.5878241,8.6731889,1,,,,Person,"Am Stockhaus in Giessen, Germany",,german_fires_giessen_locations,6216dbb8c1bd4c0373f76a97799047b5,german_fires_giessen_locations__6216dbb8c1bd4c0373f76a97799047b5
am throms garten,"Am Throms Garten in Giessen, Germany",50.565521,8.664927,1,,,,Pipeline,"Am Throms Garten in Giessen, Germany",,german_fires_giessen_locations,dbe8911f33c22c27bdff75216727c7f8,german_fires_giessen_locations__dbe8911f33c22c27bdff75216727c7f8
am unteren rain,"Am Unteren Rain in Giessen, Germany",50.5757045,8.6851466,1,,,,Exec,"Am Unteren Rain in Giessen, Germany",,german_fires_giessen_locations,eada3989fd35b0a75baa39bbe3cc1fbc,german_fires_giessen_locations__eada3989fd35b0a75baa39bbe3cc1fbc
am urnenfeld,"Am Urnenfeld in Giessen, Germany",50.6121923,8.7103431,1,,,,Pipeline,"Am Urnenfeld in Giessen, Germany",,german_fires_giessen_locations,5a1915e7e52e48ccdaf046a12a9cf2d7,german_fires_giessen_locations__5a1915e7e52e48ccdaf046a12a9cf2d7
am wallborn,"Am Wallborn in Giessen, Germany",50.5994619,8.6984985,1,,,,AAEntity,"Am Wallborn in Giessen, Germany",,german_fires_giessen_locations,15392db248d3821638d69f9941decc7f,german_fires_giessen_locations__15392db248d3821638d69f9941decc7f
am weiher,"Am Weiher in Giessen, Germany",50.5398108,8.6216412,1,,,,DiplomaticFacilities,"Am Weiher in Giessen, Germany",,german_fires_giessen_locations,bfa36801cdcc77bfb330c4d125357a63,german_fires_giessen_locations__bfa36801cdcc77bfb330c4d125357a63
am weinberg,"Am Weinberg in Giessen, Germany",50.5536551,8.6214886,1,,,,Legislator,"Am Weinberg in Giessen, Germany",,german_fires_giessen_locations,5acd28ad5ade2706c86974849f3ab743,german_fires_giessen_locations__5acd28ad5ade2706c86974849f3ab743
am zehntfrei,"Am Zehntfrei in Giessen, Germany",50.553559,8.6254213,1,,,,LegislativeCommittee,"Am Zehntfrei in Giessen, Germany",,german_fires_giessen_locations,e676ce302ddad417954b48591efca707,german_fires_giessen_locations__e676ce302ddad417954b48591efca707
am zollstock,"Am Zollstock in Giessen, Germany",50.5695375,8.6598018,1,,,,Pipeline,"Am Zollstock in Giessen, Germany",,german_fires_giessen_locations,b0b5dc2a2d1a3d9470b275be2e61f7c6,german_fires_giessen_locations__b0b5dc2a2d1a3d9470b275be2e61f7c6
amselweg,"Amselweg in Giessen, Germany",50.5969511,8.6930956,1,,,,Wells,"Amselweg in Giessen, Germany",,german_fires_giessen_locations,01374ac8db4fec43814160eb1e7ff9a8,german_fires_giessen_locations__01374ac8db4fec43814160eb1e7ff9a8
an den birken,"An den Birken in Giessen, Germany",50.5551363,8.6425497,1,,,,Refinery,"An den Birken in Giessen, Germany",,german_fires_giessen_locations,7ff81047d1131e983370db1e24253437,german_fires_giessen_locations__7ff81047d1131e983370db1e24253437
an den schulgarten,"An den Schulgarten in Giessen, Germany",50.5580344,8.6475436,1,,,,DiplomaticFacilities,"An den Schulgarten in Giessen, Germany",,german_fires_giessen_locations,6ddd0b2aa490b262d75e8bc9b779c9aa,german_fires_giessen_locations__6ddd0b2aa490b262d75e8bc9b779c9aa
an der alten post,"An der alten Post in Giessen, Germany",50.5801403,8.6651002,1,,,,ForeignMinistry,"An der alten Post in Giessen, Germany",,german_fires_giessen_locations,7a0f3754e4da7e06f7915a343195dc44,german_fires_giessen_locations__7a0f3754e4da7e06f7915a343195dc44
an der automeile,"An der Automeile in Giessen, Germany",50.5735577,8.7084624,1,,,,Diplomat,"An der Automeile in Giessen, Germany",,german_fires_giessen_locations,93da7ad007c58178facb12c55540ad52,german_fires_giessen_locations__93da7ad007c58178facb12c55540ad52
an der hessenhalle,"An der Hessenhalle in Giessen, Germany",50.585712,8.6582887,1,,,,ForeignMinister,"An der Hessenhalle in Giessen, Germany",,german_fires_giessen_locations,b547c74cb6210144b45edcb38a20e66e,german_fires_giessen_locations__b547c74cb6210144b45edcb38a20e66e
an der johanneskirche,"An der Johanneskirche in Giessen, Germany",50.5824791,8.6729728,1,,,,space,"An der Johanneskirche in Giessen, Germany",,german_fires_giessen_locations,d1ff561d7521bb93042566385b23917a,german_fires_giessen_locations__d1ff561d7521bb93042566385b23917a
an der kaserne,"An der Kaserne in Giessen, Germany",50.5831776,8.6932592,1,,,,Wells,"An der Kaserne in Giessen, Germany",,german_fires_giessen_locations,7ceb039490f9b4d751a0055f4e8947c9,german_fires_giessen_locations__7ceb039490f9b4d751a0055f4e8947c9
an der liebigshohe,"An der Liebigshohe in Giessen, Germany",50.5883876,8.6960661,1,,,,Refinery,"An der Liebigshohe in Giessen, Germany",,german_fires_giessen_locations,eddfebc7a7bb74bcf779929f4e34d582,german_fires_giessen_locations__eddfebc7a7bb74bcf779929f4e34d582
an der schillerlinde,"An der Schillerlinde in Giessen, Germany",50.5951624,8.7484853,1,,,,CompanyKeyword,"An der Schillerlinde in Giessen, Germany",,german_fires_giessen_locations,5435a6aeed7211f89f6a91bc7bfc5c6c,german_fires_giessen_locations__5435a6aeed7211f89f6a91bc7bfc5c6c
an der schule,"An der Schule in Giessen, Germany",50.5371284,8.6215298,1,,,,Diplomat,"An der Schule in Giessen, Germany",,german_fires_giessen_locations,0116c95ad37b94103906771ae713b51f,german_fires_giessen_locations__0116c95ad37b94103906771ae713b51f
an der volkshalle,"An der Volkshalle in Giessen, Germany",50.5868485,8.6979982,1,,,,FTO,"An der Volkshalle in Giessen, Germany",,german_fires_giessen_locations,2f480e3f7508b78ec797b3f964131688,german_fires_giessen_locations__2f480e3f7508b78ec797b3f964131688
an steins garten,"An Steins Garten in Giessen, Germany",50.5794143,8.6845209,1,,,,Organization,"An Steins Garten in Giessen, Germany",,german_fires_giessen_locations,18a8122e4c850a46dc200fbdb5465875,german_fires_giessen_locations__18a8122e4c850a46dc200fbdb5465875
andreasteich,"Andreasteich in Giessen, Germany",50.555445,8.6420899,1,,,,ForeignMinistry,"Andreasteich in Giessen, Germany",,german_fires_giessen_locations,03368391b1ec5ad54224f86c0caa509b,german_fires_giessen_locations__03368391b1ec5ad54224f86c0caa509b
anger,"Anger in Giessen, Germany",50.5817398,8.7031493,1,,,,Organization,"Anger in Giessen, Germany",,german_fires_giessen_locations,0dd387a3f23d23293cca477506b04c19,german_fires_giessen_locations__0dd387a3f23d23293cca477506b04c19
anne-frank-str.,"Anne-Frank-Strasse in Giessen, Germany",50.597545,8.6630184,1,,,,ForeignMinistry,"Anne-Frank-Strasse in Giessen, Germany",,german_fires_giessen_locations,4c432a5146099773bc97b6b007a9e188,german_fires_giessen_locations__4c432a5146099773bc97b6b007a9e188
anneroder weg,"Anneroder Weg in Giessen, Germany",50.5816653,8.7020279,1,,,,Diplomat,"Anneroder Weg in Giessen, Germany",,german_fires_giessen_locations,b9c5b03ce95672d41b3c507ea3995f59,german_fires_giessen_locations__b9c5b03ce95672d41b3c507ea3995f59
annette-kolb-weg,"Annette-Kolb-Weg in Giessen, Germany",50.6041457,8.6737691,1,,,,CompanyKeyword,"Annette-Kolb-Weg in Giessen, Germany",,german_fires_giessen_locations,06e3a8bfca2257a436020e71f02c3082,german_fires_giessen_locations__06e3a8bfca2257a436020e71f02c3082
arndtstr.,"Arndtstrasse in Giessen, Germany",50.573454,8.6709033,1,,,,News,"Arndtstrasse in Giessen, Germany",,german_fires_giessen_locations,ede00ac3e06e1058c8af16facb30aa4c,german_fires_giessen_locations__ede00ac3e06e1058c8af16facb30aa4c
asterweg,"Asterweg in Giessen, Germany",50.5915323,8.6754287,1,,,,FTO,"Asterweg in Giessen, Germany",,german_fires_giessen_locations,55d21b0a05be95164cee3fb995579b08,german_fires_giessen_locations__55d21b0a05be95164cee3fb995579b08
aubach,"Aubach in Giessen, Germany",50.5506922,8.6204319,1,,,,space,"Aubach in Giessen, Germany",,german_fires_giessen_locations,6c51fb162cdc223e7459b2284df87c36,german_fires_giessen_locations__6c51fb162cdc223e7459b2284df87c36
auf der bach,"Auf der Bach in Giessen, Germany",50.5877043,8.6737472,1,,,,IndustryTerm,"Auf der Bach in Giessen, Germany",,german_fires_giessen_locations,780174f208de1e83b2bfd1dc433d58a6,german_fires_giessen_locations__780174f208de1e83b2bfd1dc433d58a6
auf der wann,"Auf der Wann in Giessen, Germany",50.5599815,8.6499621,1,,,,CompanyKeyword,"Auf der Wann in Giessen, Germany",,german_fires_giessen_locations,e0a31e293e52d3c5b5ceef9a368a7040,german_fires_giessen_locations__e0a31e293e52d3c5b5ceef9a368a7040
august-balzer-weg,"August-Balzer-Weg in Giessen, Germany",50.5876071,8.6616348,1,,,,Legislator,"August-Balzer-Weg in Giessen, Germany",,german_fires_giessen_locations,cd919432ec8ead9306beb829c91d4eb4,german_fires_giessen_locations__cd919432ec8ead9306beb829c91d4eb4
august-bramm-weg,"August-Bramm-Weg in Giessen, Germany",50.6082195,8.7150464,1,,,,Person,"August-Bramm-Weg in Giessen, Germany",,german_fires_giessen_locations,6cf4eacbbda87fa2d174c08f28f7b18a,german_fires_giessen_locations__6cf4eacbbda87fa2d174c08f28f7b18a
august-hermann-francke-weg,"August-Hermann-Francke-Weg in Giessen, Germany",50.5930467,8.7068175,1,,,,AAEntity,"August-Hermann-Francke-Weg in Giessen, Germany",,german_fires_giessen_locations,3101286c89c5e01aca818177ef45ea1c,german_fires_giessen_locations__3101286c89c5e01aca818177ef45ea1c
august-messer-str.,"August-Messer-Strasse in Giessen, Germany",50.5904502,8.692982,1,,,,space,"August-Messer-Strasse in Giessen, Germany",,german_fires_giessen_locations,4a316a0706a80d4480a7a5fa05f75e8d,german_fires_giessen_locations__4a316a0706a80d4480a7a5fa05f75e8d
aulweg,"Aulweg in Giessen, Germany",50.5731347,8.6733334,1,,,,Diplomat,"Aulweg in Giessen, Germany",,german_fires_giessen_locations,824c24a76888b13c6ef209d4a9e886bc,german_fires_giessen_locations__824c24a76888b13c6ef209d4a9e886bc
bachweg,"Bachweg in Giessen, Germany",50.5685367,8.6476848,1,,,,Pipeline,"Bachweg in Giessen, Germany",,german_fires_giessen_locations,721afa8452d60f05d7ac23ad4ae67cee,german_fires_giessen_locations__721afa8452d60f05d7ac23ad4ae67cee
backhausstr.,"Backhausstrasse in Giessen, Germany",50.6049068,8.7095554,1,,,,Consulates,"Backhausstrasse in Giessen, Germany",,german_fires_giessen_locations,5f33f0f8d6b93c30507f75d8520d3085,german_fires_giessen_locations__5f33f0f8d6b93c30507f75d8520d3085
badenburger hohl,"Badenburger Hohl in Giessen, Germany",50.6064877,8.706716,1,,,,Legislator,"Badenburger Hohl in Giessen, Germany",,german_fires_giessen_locations,db2d75e93f4e94ba34c655204bc4687b,german_fires_giessen_locations__db2d75e93f4e94ba34c655204bc4687b
bahnhofstr.,"Bahnhofstrasse in Giessen, Germany",50.5830294,8.6676479,1,,,,Media,"Bahnhofstrasse in Giessen, Germany",,german_fires_giessen_locations,1df0c83f3200f63d686acc81bcab0a7c,german_fires_giessen_locations__1df0c83f3200f63d686acc81bcab0a7c
bantzerweg,"Bantzerweg in Giessen, Germany",50.5962708,8.6880416,1,,,,IndustryTerm,"Bantzerweg in Giessen, Germany",,german_fires_giessen_locations,61845809b5249204c6b49fa020d3e8b1,german_fires_giessen_locations__61845809b5249204c6b49fa020d3e8b1
barresgraben,"Barresgraben in Giessen, Germany",50.5657619,8.6634602,1,,,,Wells,"Barresgraben in Giessen, Germany",,german_fires_giessen_locations,01c2c1565c3608e6bd2b810a2d421823,german_fires_giessen_locations__01c2c1565c3608e6bd2b810a2d421823
baumgarten,"Baumgarten in Giessen, Germany",50.54908,8.7218394,1,,,,IndustryTerm,"Baumgarten in Giessen, Germany",,german_fires_giessen_locations,0a79dc95bf3e4b45920da24815282c5e,german_fires_giessen_locations__0a79dc95bf3e4b45920da24815282c5e
bechsteinweg,"Bechsteinweg in Giessen, Germany",50.5567338,8.6516246,1,,,,Person,"Bechsteinweg in Giessen, Germany",,german_fires_giessen_locations,2b9376236fa006eeda6d346acdcb7cb4,german_fires_giessen_locations__2b9376236fa006eeda6d346acdcb7cb4
beethovenstr.,"Beethovenstrasse in Giessen, Germany",50.5714251,8.6604522,1,,,,DiplomaticFacilities,"Beethovenstrasse in Giessen, Germany",,german_fires_giessen_locations,3d4e53dbf02c2480e60ae0f722af4eae,german_fires_giessen_locations__3d4e53dbf02c2480e60ae0f722af4eae
bergstr.,"Bergstrasse in Giessen, Germany",50.5535306,8.6202883,1,,,,Shipping,"Bergstrasse in Giessen, Germany",,german_fires_giessen_locations,cb7990c326f65cbb53eb1fbad2194cae,german_fires_giessen_locations__cb7990c326f65cbb53eb1fbad2194cae
bergwaldstr.,"Bergwaldstrasse in Giessen, Germany",50.5583201,8.6505873,1,,,,Exec,"Bergwaldstrasse in Giessen, Germany",,german_fires_giessen_locations,cd2d1c69766eaebc94e5265d77a8ad68,german_fires_giessen_locations__cd2d1c69766eaebc94e5265d77a8ad68
bergwerk,"Bergwerk in Giessen, Germany",50.5662886,8.6713355,1,,,,Keyphrase,"Bergwerk in Giessen, Germany",,german_fires_giessen_locations,026950bbf87b2019e23450bbb04a397b,german_fires_giessen_locations__026950bbf87b2019e23450bbb04a397b
berliner platz,"Berliner Platz in Giessen, Germany",50.5833795,8.6791844,1,,,,Pipeline,"Berliner Platz in Giessen, Germany",,german_fires_giessen_locations,25b4a757340275724901391fd64333fb,german_fires_giessen_locations__25b4a757340275724901391fd64333fb
berliner str.,"Berliner Strasse in Giessen, Germany",50.5327775,8.6208193,1,,,,Diplomat,"Berliner Strasse in Giessen, Germany",,german_fires_giessen_locations,a1724ba459d9e2bdf26b2ad94aec8d38,german_fires_giessen_locations__a1724ba459d9e2bdf26b2ad94aec8d38
bernhard-itzel-str.,"Bernhard-Itzel-Strasse in Giessen, Germany",50.5663736,8.6607995,1,,,,ForeignMinister,"Bernhard-Itzel-Strasse in Giessen, Germany",,german_fires_giessen_locations,5497741a78e7426e16c43301384a3c76,german_fires_giessen_locations__5497741a78e7426e16c43301384a3c76
bernhardtstr.,"Bernhardtstrasse in Giessen, Germany",50.5647996,8.6508734,1,,,,Diplomat,"Bernhardtstrasse in Giessen, Germany",,german_fires_giessen_locations,d8bf82bf68842fedc0485e5b355bc975,german_fires_giessen_locations__d8bf82bf68842fedc0485e5b355bc975
bertha-von-suttner-weg,"Bertha-von-Suttner-Weg in Giessen, Germany",50.6044239,8.6776348,1,,,,Media,"Bertha-von-Suttner-Weg in Giessen, Germany",,german_fires_giessen_locations,3dfbdab1c3b7d98c66941df4830dd6c2,german_fires_giessen_locations__3dfbdab1c3b7d98c66941df4830dd6c2
beskidenstr.,"Beskidenstrasse in Giessen, Germany",50.542449,8.6254832,1,,,,LegislativeCommittee,"Beskidenstrasse in Giessen, Germany",,german_fires_giessen_locations,86bd2cdcccc3a730a13a82a19331bbd8,german_fires_giessen_locations__86bd2cdcccc3a730a13a82a19331bbd8
bettina-von-arnim-str.,"Bettina-von-Arnim-Strasse in Giessen, Germany",50.5562239,8.6339327,1,,,,Pipeline,"Bettina-von-Arnim-Strasse in Giessen, Germany",,german_fires_giessen_locations,ba5c43b0a999f3eaa5a95a2ffbf6cde7,german_fires_giessen_locations__ba5c43b0a999f3eaa5a95a2ffbf6cde7
birkenweg,"Birkenweg in Giessen, Germany",50.5430616,8.6254822,1,,,,LegislativeCommittee,"Birkenweg in Giessen, Germany",,german_fires_giessen_locations,09bdd9f1ddf93891007914bb9f185426,german_fires_giessen_locations__09bdd9f1ddf93891007914bb9f185426
bismarckstr.,"Bismarckstrasse in Giessen, Germany",50.5807641,8.6793309,1,,,,Legislator,"Bismarckstrasse in Giessen, Germany",,german_fires_giessen_locations,b6ef71ef12217197f0c881a69facc020,german_fires_giessen_locations__b6ef71ef12217197f0c881a69facc020
bitzenstr.,"Bitzenstrasse in Giessen, Germany",50.5402806,8.6245153,1,,,,Shipping,"Bitzenstrasse in Giessen, Germany",,german_fires_giessen_locations,67c295971910ff50307c876a9be2f8e9,german_fires_giessen_locations__67c295971910ff50307c876a9be2f8e9
bleichstr.,"Bleichstrasse in Giessen, Germany",50.5802089,8.673578,1,,,,Person,"Bleichstrasse in Giessen, Germany",,german_fires_giessen_locations,6d5cbb321c49a9345e267feeb79fe4b5,german_fires_giessen_locations__6d5cbb321c49a9345e267feeb79fe4b5
bodelschwinghweg,"Bodelschwinghweg in Giessen, Germany",50.5930219,8.7028785,1,,,,Consulates,"Bodelschwinghweg in Giessen, Germany",,german_fires_giessen_locations,ad4bcd16ba7873663a3594ed4af270e5,german_fires_giessen_locations__ad4bcd16ba7873663a3594ed4af270e5
bonifatiusweg,"Bonifatiusweg in Giessen, Germany",50.5786237,8.6694305,1,,,,AAEntity,"Bonifatiusweg in Giessen, Germany",,german_fires_giessen_locations,ee386932bf7b84b116cadd4b9ff4731e,german_fires_giessen_locations__ee386932bf7b84b116cadd4b9ff4731e
bootshausstr.,"Bootshausstrasse in Giessen, Germany",50.5916507,8.6709334,1,,,,ForeignMinister,"Bootshausstrasse in Giessen, Germany",,german_fires_giessen_locations,b6d8f924f5508b7cee6d2a531915dd2f,german_fires_giessen_locations__b6d8f924f5508b7cee6d2a531915dd2f
brahmsstr.,"Brahmsstrasse in Giessen, Germany",50.5681193,8.659186,1,,,,CompanyKeyword,"Brahmsstrasse in Giessen, Germany",,german_fires_giessen_locations,9fbc80bec01fa2f5c2596c2d025be51f,german_fires_giessen_locations__9fbc80bec01fa2f5c2596c2d025be51f
brandgasse,"Brandgasse in Giessen, Germany",50.588137,8.6764542,1,,,,DiplomaticFacilities,"Brandgasse in Giessen, Germany",,german_fires_giessen_locations,57dea173c5aefb8bc5a70bb914c4824d,german_fires_giessen_locations__57dea173c5aefb8bc5a70bb914c4824d
brandplatz,"Brandplatz in Giessen, Germany",50.5871864,8.6765994,1,,,,FTO,"Brandplatz in Giessen, Germany",,german_fires_giessen_locations,a290b5318e5477c935e1ec7f436761cd,german_fires_giessen_locations__a290b5318e5477c935e1ec7f436761cd
brandweg,"Brandweg in Giessen, Germany",50.5619497,8.6507236,1,,,,Refinery,"Brandweg in Giessen, Germany",,german_fires_giessen_locations,fb731f11c00aaa6eea08d513c097390f,german_fires_giessen_locations__fb731f11c00aaa6eea08d513c097390f
braugasse,"Braugasse in Giessen, Germany",50.5889941,8.6779161,1,,,,FTO,"Braugasse in Giessen, Germany",,german_fires_giessen_locations,1cdfd85d3a09c929ba8d08cceb2f8bdf,german_fires_giessen_locations__1cdfd85d3a09c929ba8d08cceb2f8bdf
breslauer str.,"Breslauer Strasse in Giessen, Germany",50.5342582,8.6213688,1,,,,AAEntity,"Breslauer Strasse in Giessen, Germany",,german_fires_giessen_locations,2a37476230c67f7d5730dcaad841d066,german_fires_giessen_locations__2a37476230c67f7d5730dcaad841d066
bromberger str.,"Bromberger Strasse in Giessen, Germany",50.578704,8.6966523,1,,,,News,"Bromberger Strasse in Giessen, Germany",,german_fires_giessen_locations,1475d17b845107be8632633745a2f6b8,german_fires_giessen_locations__1475d17b845107be8632633745a2f6b8
bruchstr.,"Bruchstrasse in Giessen, Germany",50.5794202,8.6760186,1,,,,FTO,"Bruchstrasse in Giessen, Germany",,german_fires_giessen_locations,b79baac8b33084ae5930ca81124d4ee3,german_fires_giessen_locations__b79baac8b33084ae5930ca81124d4ee3
brumlikweg,"Brumlikweg in Giessen, Germany",50.5846428,8.6976707,1,,,,Diplomat,"Brumlikweg in Giessen, Germany",,german_fires_giessen_locations,7afcb84ae28711f78a90b92e330aa1de,german_fires_giessen_locations__7afcb84ae28711f78a90b92e330aa1de
brunnengasse,"Brunnengasse in Giessen, Germany",50.6040469,8.7068386,1,,,,Wells,"Brunnengasse in Giessen, Germany",,german_fires_giessen_locations,b5b14c3b22f8f9579db39a7fdf1e3041,german_fires_giessen_locations__b5b14c3b22f8f9579db39a7fdf1e3041
brunnenweg,"Brunnenweg in Giessen, Germany",50.5971319,8.7478049,1,,,,IndustryTerm,"Brunnenweg in Giessen, Germany",,german_fires_giessen_locations,919beb2f354b3b4dc1eeedd3c99d09e4,german_fires_giessen_locations__919beb2f354b3b4dc1eeedd3c99d09e4
bruder-grimm-str.,"Bruder-Grimm-Strasse in Giessen, Germany",50.5585319,8.6514583,1,,,,space,"Bruder-Grimm-Strasse in Giessen, Germany",,german_fires_giessen_locations,0f5020b9fe666e3ee3c4e1f15d879ab1,german_fires_giessen_locations__0f5020b9fe666e3ee3c4e1f15d879ab1
buchenweg,"Buchenweg in Giessen, Germany",50.5886939,8.6954102,1,,,,Pipeline,"Buchenweg in Giessen, Germany",,german_fires_giessen_locations,de9ac54f3aee156fc0770f1a515897a8,german_fires_giessen_locations__de9ac54f3aee156fc0770f1a515897a8
buchnerstr.,"Buchnerstrasse in Giessen, Germany",50.5752674,8.6598189,1,,,,Shipping,"Buchnerstrasse in Giessen, Germany",,german_fires_giessen_locations,60ee84a21700f6a742f4081d24bcaa85,german_fires_giessen_locations__60ee84a21700f6a742f4081d24bcaa85
buddestr.,"Buddestrasse in Giessen, Germany",50.5726394,8.6568924,1,,,,News,"Buddestrasse in Giessen, Germany",,german_fires_giessen_locations,2e384196d0cfdd92f2fb6748bdc5b146,german_fires_giessen_locations__2e384196d0cfdd92f2fb6748bdc5b146
burgenring,"Burgenring in Giessen, Germany",50.6136656,8.6971285,1,,,,Organization,"Burgenring in Giessen, Germany",,german_fires_giessen_locations,df6aa490bbbb89340c22bf24fa396902,german_fires_giessen_locations__df6aa490bbbb89340c22bf24fa396902
burggartenstr.,"Burggartenstrasse in Giessen, Germany",50.5578692,8.6424737,1,,,,Shipping,"Burggartenstrasse in Giessen, Germany",,german_fires_giessen_locations,cb700717d1d55a07efed372a73ae88ce,german_fires_giessen_locations__cb700717d1d55a07efed372a73ae88ce
burggraben,"Burggraben in Giessen, Germany",50.5866315,8.6736932,1,,,,Diplomat,"Burggraben in Giessen, Germany",,german_fires_giessen_locations,5643fbc9071f0367858d3a83e490b5d4,german_fires_giessen_locations__5643fbc9071f0367858d3a83e490b5d4
burgwiesenweg,"Burgwiesenweg in Giessen, Germany",50.601711,8.7458504,1,,,,News,"Burgwiesenweg in Giessen, Germany",,german_fires_giessen_locations,e1d2e0df716c945d5421890ed5b4bad8,german_fires_giessen_locations__e1d2e0df716c945d5421890ed5b4bad8
banningerstr.,"Banningerstrasse in Giessen, Germany",50.5725885,8.6842904,1,,,,Shipping,"Banningerstrasse in Giessen, Germany",,german_fires_giessen_locations,c77e27d1059eabb471a329591a9733c5,german_fires_giessen_locations__c77e27d1059eabb471a329591a9733c5
barner str.,"Barner Strasse in Giessen, Germany",50.5968129,8.7486737,1,,,,ForeignMinister,"Barner Strasse in Giessen, Germany",,german_fires_giessen_locations,dcb56a3a6666720afc04b84f89085d16,german_fires_giessen_locations__dcb56a3a6666720afc04b84f89085d16
bocklinstr.,"Bocklinstrasse in Giessen, Germany",50.5804674,8.6771403,1,,,,Keyphrase,"Bocklinstrasse in Giessen, Germany",,german_fires_giessen_locations,b68f6b0a22932521f6b91876696ac9a8,german_fires_giessen_locations__b68f6b0a22932521f6b91876696ac9a8
borneweg,"Borneweg in Giessen, Germany",50.5847512,8.6950569,1,,,,FTO,"Borneweg in Giessen, Germany",,german_fires_giessen_locations,cc2ce5bcf8df849146f38848c803d25d,german_fires_giessen_locations__cc2ce5bcf8df849146f38848c803d25d
buckingstr.,"Buckingstrasse in Giessen, Germany",50.5933412,8.6812621,1,,,,Keyphrase,"Buckingstrasse in Giessen, Germany",,german_fires_giessen_locations,a2bcc10a08c5133949622709da18f959,german_fires_giessen_locations__a2bcc10a08c5133949622709da18f959
burgerhausstr.,"Burgerhausstrasse in Giessen, Germany",50.6004832,8.7507949,1,,,,Wells,"Burgerhausstrasse in Giessen, Germany",,german_fires_giessen_locations,aba50aebfcea67ac9e5eca198b5b0c4d,german_fires_giessen_locations__aba50aebfcea67ac9e5eca198b5b0c4d
burgermeister-jung-weg,"Burgermeister-Jung-Weg in Giessen, Germany",50.5532009,8.641402,1,,,,Legislator,"Burgermeister-Jung-Weg in Giessen, Germany",,german_fires_giessen_locations,412d2c85467d08048afce00f1da4ff06,german_fires_giessen_locations__412d2c85467d08048afce00f1da4ff06
canonstr.,"Canonstrasse in Giessen, Germany",50.5936184,8.7387231,1,,,,News,"Canonstrasse in Giessen, Germany",,german_fires_giessen_locations,06fea618eb6f83827a69f91a9633817a,german_fires_giessen_locations__06fea618eb6f83827a69f91a9633817a
carl-franz-str.,"Carl-Franz-Strasse in Giessen, Germany",50.5678689,8.6614698,1,,,,Shipping,"Carl-Franz-Strasse in Giessen, Germany",,german_fires_giessen_locations,d49e152229a5061376fd88e422fa16ed,german_fires_giessen_locations__d49e152229a5061376fd88e422fa16ed
carl-maria-von-weber-str.,"Carl-Maria-von-Weber-Strasse in Giessen, Germany",50.5679397,8.6580908,1,,,,IndustryTerm,"Carl-Maria-von-Weber-Strasse in Giessen, Germany",,german_fires_giessen_locations,37359f9d74aeca57a911d2b6f4893edf,german_fires_giessen_locations__37359f9d74aeca57a911d2b6f4893edf
carl-ulrich-str.,"Carl-Ulrich-Strasse in Giessen, Germany",50.6019805,8.704445,1,,,,IndustryTerm,"Carl-Ulrich-Strasse in Giessen, Germany",,german_fires_giessen_locations,eecce5e6f6c72df122c7f1a4ced131dc,german_fires_giessen_locations__eecce5e6f6c72df122c7f1a4ced131dc
carl-vogt-str.,"Carl-Vogt-Strasse in Giessen, Germany",50.5840313,8.690649,1,,,,Refinery,"Carl-Vogt-Strasse in Giessen, Germany",,german_fires_giessen_locations,5410cc2d67a292c7271954a29aa4f6d5,german_fires_giessen_locations__5410cc2d67a292c7271954a29aa4f6d5
carlo-mierendorff-str.,"Carlo-Mierendorff-Strasse in Giessen, Germany",50.5986718,8.6606637,1,,,,Diplomat,"Carlo-Mierendorff-Strasse in Giessen, Germany",,german_fires_giessen_locations,a1d30a2bd73db06fe3daa58640cc6b65,german_fires_giessen_locations__a1d30a2bd73db06fe3daa58640cc6b65
chamissoweg,"Chamissoweg in Giessen, Germany",50.6079774,8.7082919,1,,,,Wells,"Chamissoweg in Giessen, Germany",,german_fires_giessen_locations,615d9d0cfe054fddf789afdbdc3e3596,german_fires_giessen_locations__615d9d0cfe054fddf789afdbdc3e3596
christian-rinck-str.,"Christian-Rinck-Strasse in Giessen, Germany",50.5663987,8.6573358,1,,,,Pipeline,"Christian-Rinck-Strasse in Giessen, Germany",,german_fires_giessen_locations,f47087f2e66273e5ea6e62e746c2fd83,german_fires_giessen_locations__f47087f2e66273e5ea6e62e746c2fd83
clementiastr.,"Clementiastrasse in Giessen, Germany",50.5909192,8.6585347,1,,,,ForeignMinister,"Clementiastrasse in Giessen, Germany",,german_fires_giessen_locations,71a4e8083dbad6bcb3fef649e0962ac7,german_fires_giessen_locations__71a4e8083dbad6bcb3fef649e0962ac7
clevelandstr.,"Clevelandstrasse in Giessen, Germany",50.5882549,8.715022,1,,,,space,"Clevelandstrasse in Giessen, Germany",,german_fires_giessen_locations,ed71fbf4d90047425982aee5854373db,german_fires_giessen_locations__ed71fbf4d90047425982aee5854373db
cranachstr.,"Cranachstrasse in Giessen, Germany",50.5975596,8.6865954,1,,,,Keyphrase,"Cranachstrasse in Giessen, Germany",,german_fires_giessen_locations,03d8c8d4a9b9f7967ee0d0915281a95e,german_fires_giessen_locations__03d8c8d4a9b9f7967ee0d0915281a95e
crednerstr.,"Crednerstrasse in Giessen, Germany",50.5769194,8.6614733,1,,,,Media,"Crednerstrasse in Giessen, Germany",,german_fires_giessen_locations,79765e72801e454633e69ae958dc4fdd,german_fires_giessen_locations__79765e72801e454633e69ae958dc4fdd
curtmannstr.,"Curtmannstrasse in Giessen, Germany",50.5867015,8.6900156,1,,,,ForeignMinister,"Curtmannstrasse in Giessen, Germany",,german_fires_giessen_locations,7ebadf54a963e76e6b63eb5f24d91470,german_fires_giessen_locations__7ebadf54a963e76e6b63eb5f24d91470
dahlienweg,"Dahlienweg in Giessen, Germany",50.6005957,8.682855,1,,,,FTO,"Dahlienweg in Giessen, Germany",,german_fires_giessen_locations,be639362c763987271c8c846a7455dc0,german_fires_giessen_locations__be639362c763987271c8c846a7455dc0
dammstr.,"Dammstrasse in Giessen, Germany",50.5891315,8.6727547,1,,,,LegislativeCommittee,"Dammstrasse in Giessen, Germany",,german_fires_giessen_locations,5c73db039b7ba27084b9775a7ca7abd2,german_fires_giessen_locations__5c73db039b7ba27084b9775a7ca7abd2
danziger str.,"Danziger Strasse in Giessen, Germany",50.5800543,8.6948407,1,,,,Diplomat,"Danziger Strasse in Giessen, Germany",,german_fires_giessen_locations,8df369bbbc19708cc8771e3e944ff347,german_fires_giessen_locations__8df369bbbc19708cc8771e3e944ff347
diebweg,"Diebweg in Giessen, Germany",50.6027134,8.6959674,1,,,,Media,"Diebweg in Giessen, Germany",,german_fires_giessen_locations,74a66394eedac2c47c0c84d1a85eb87e,german_fires_giessen_locations__74a66394eedac2c47c0c84d1a85eb87e
dietrich-bonhoeffer-str.,"Dietrich-Bonhoeffer-Strasse in Giessen, Germany",50.5970626,8.6625974,1,,,,Diplomat,"Dietrich-Bonhoeffer-Strasse in Giessen, Germany",,german_fires_giessen_locations,b0e5c3f481327bb8fe03e85a3b6a84ee,german_fires_giessen_locations__b0e5c3f481327bb8fe03e85a3b6a84ee
diezstr.,"Diezstrasse in Giessen, Germany",50.5852919,8.678164,1,,,,Media,"Diezstrasse in Giessen, Germany",,german_fires_giessen_locations,f629e153ffe90c8291ea5fce806f8f5f,german_fires_giessen_locations__f629e153ffe90c8291ea5fce806f8f5f
doeringstr.,"Doeringstrasse in Giessen, Germany",50.5811893,8.6988333,1,,,,Consulates,"Doeringstrasse in Giessen, Germany",,german_fires_giessen_locations,5671776741fbac548d56a1d781f68914,german_fires_giessen_locations__5671776741fbac548d56a1d781f68914
dreieck,"Dreieck in Giessen, Germany",50.5994581,8.750016,1,,,,ForeignMinister,"Dreieck in Giessen, Germany",,german_fires_giessen_locations,1af8eb01633dec28e03b4dcb3d2cf85b,german_fires_giessen_locations__1af8eb01633dec28e03b4dcb3d2cf85b
drosselweg,"Drosselweg in Giessen, Germany",50.5972571,8.6941586,1,,,,Person,"Drosselweg in Giessen, Germany",,german_fires_giessen_locations,c59be6724248816b3931d2906b5c4b64,german_fires_giessen_locations__c59be6724248816b3931d2906b5c4b64
dutenhofener str.,"Dutenhofener Strasse in Giessen, Germany",50.5398731,8.6181216,1,,,,Person,"Dutenhofener Strasse in Giessen, Germany",,german_fires_giessen_locations,662ff83d32fb0c987a8e8e07bcfd7fbb,german_fires_giessen_locations__662ff83d32fb0c987a8e8e07bcfd7fbb
dunsbergring,"Dunsbergring in Giessen, Germany",50.6126663,8.6994593,1,,,,Pipeline,"Dunsbergring in Giessen, Germany",,german_fires_giessen_locations,d2f1ab4b435f7b4837070a8e62f893b0,german_fires_giessen_locations__d2f1ab4b435f7b4837070a8e62f893b0
dunsbergstr.,"Dunsbergstrasse in Giessen, Germany",50.5926507,8.6639563,1,,,,FTO,"Dunsbergstrasse in Giessen, Germany",,german_fires_giessen_locations,3a6788af2c89673e142e9be71e96275f,german_fires_giessen_locations__3a6788af2c89673e142e9be71e96275f
durerstr.,"Durerstrasse in Giessen, Germany",50.5992421,8.6889246,1,,,,IndustryTerm,"Durerstrasse in Giessen, Germany",,german_fires_giessen_locations,38de9c6bc87908857b2ee12e519d6ff2,german_fires_giessen_locations__38de9c6bc87908857b2ee12e519d6ff2
ebelstr.,"Ebelstrasse in Giessen, Germany",50.5763583,8.672921,1,,,,FTO,"Ebelstrasse in Giessen, Germany",,german_fires_giessen_locations,ca1ec772f1ff2754a33fbbf949742b47,german_fires_giessen_locations__ca1ec772f1ff2754a33fbbf949742b47
ecke,"Ecke in Giessen, Germany",50.6055288,8.7107217,1,,,,ForeignMinistry,"Ecke in Giessen, Germany",,german_fires_giessen_locations,fbce20f0716deb2d24dc43024ed1d6e6,german_fires_giessen_locations__fbce20f0716deb2d24dc43024ed1d6e6
ederstr.,"Ederstrasse in Giessen, Germany",50.5932774,8.6740568,1,,,,Organization,"Ederstrasse in Giessen, Germany",,german_fires_giessen_locations,d8cc52668a99feed123326639d311b77,german_fires_giessen_locations__d8cc52668a99feed123326639d311b77
editha-klipstein-weg,"Editha-Klipstein-Weg in Giessen, Germany",50.6022947,8.6759549,1,,,,Legislator,"Editha-Klipstein-Weg in Giessen, Germany",,german_fires_giessen_locations,de00c16d3e18d00de5dfa736a4530a27,german_fires_giessen_locations__de00c16d3e18d00de5dfa736a4530a27
edlef-koppen-weg,"Edlef-Koppen-Weg in Giessen, Germany",50.5879126,8.7049346,1,,,,space,"Edlef-Koppen-Weg in Giessen, Germany",,german_fires_giessen_locations,a66d933023028d4db4b57340c2c272a8,german_fires_giessen_locations__a66d933023028d4db4b57340c2c272a8
eduard-david-str.,"Eduard-David-Strasse in Giessen, Germany",50.6003365,8.6994024,1,,,,Shipping,"Eduard-David-Strasse in Giessen, Germany",,german_fires_giessen_locations,1b4ec48504654190ded8eb7fcc1ff835,german_fires_giessen_locations__1b4ec48504654190ded8eb7fcc1ff835
egerlander str.,"Egerlander Strasse in Giessen, Germany",50.5957881,8.6769844,1,,,,News,"Egerlander Strasse in Giessen, Germany",,german_fires_giessen_locations,f8e7e41331f5c607ca8da08b66735d26,german_fires_giessen_locations__f8e7e41331f5c607ca8da08b66735d26
ehrsamer weg,"Ehrsamer Weg in Giessen, Germany",50.5540926,8.6249541,1,,,,ForeignMinistry,"Ehrsamer Weg in Giessen, Germany",,german_fires_giessen_locations,71a334e36508796ca1a12a7feb28ff31,german_fires_giessen_locations__71a334e36508796ca1a12a7feb28ff31
eichendorffring,"Eichendorffring in Giessen, Germany",50.5808513,8.7082749,1,,,,AAEntity,"Eichendorffring in Giessen, Germany",,german_fires_giessen_locations,343607cfbe951306c0d4d5b341f5b6bd,german_fires_giessen_locations__343607cfbe951306c0d4d5b341f5b6bd
eichenroder weg,"Eichenroder Weg in Giessen, Germany",50.6036256,8.6972689,1,,,,Wells,"Eichenroder Weg in Giessen, Germany",,german_fires_giessen_locations,39181e0555758c49bf874d0dec81701d,german_fires_giessen_locations__39181e0555758c49bf874d0dec81701d
eichgasse,"Eichgasse in Giessen, Germany",50.6048952,8.7058772,1,,,,Pipeline,"Eichgasse in Giessen, Germany",,german_fires_giessen_locations,6484df8ed538c24abc4c3496e2fb5724,german_fires_giessen_locations__6484df8ed538c24abc4c3496e2fb5724
eichgarten,"Eichgarten in Giessen, Germany",50.5851369,8.685639,1,,,,AAEntity,"Eichgarten in Giessen, Germany",,german_fires_giessen_locations,0f80d1cb2436b2ad2f3078d08b3ed299,german_fires_giessen_locations__0f80d1cb2436b2ad2f3078d08b3ed299
eichgartenallee,"Eichgartenallee in Giessen, Germany",50.5914094,8.6955009,1,,,,ForeignMinistry,"Eichgartenallee in Giessen, Germany",,german_fires_giessen_locations,4f9bb4540fa33e3e125f95d39594de9c,german_fires_giessen_locations__4f9bb4540fa33e3e125f95d39594de9c
eisenacher str.,"Eisenacher Strasse in Giessen, Germany",50.6100584,8.7119559,1,,,,CompanyKeyword,"Eisenacher Strasse in Giessen, Germany",,german_fires_giessen_locations,aa3360106d7b728f212dd43bffe1c5fc,german_fires_giessen_locations__aa3360106d7b728f212dd43bffe1c5fc
eisenstein,"Eisenstein in Giessen, Germany",50.6075232,8.699694,1,,,,ForeignMinister,"Eisenstein in Giessen, Germany",,german_fires_giessen_locations,505f73abe4ece5b4df6b2053a632fb4d,german_fires_giessen_locations__505f73abe4ece5b4df6b2053a632fb4d
elly-heuss-knapp-weg,"Elly-Heuss-Knapp-Weg in Giessen, Germany",50.6051621,8.6772695,1,,,,IndustryTerm,"Elly-Heuss-Knapp-Weg in Giessen, Germany",,german_fires_giessen_locations,5decc52daab690e863ac7b90d9b663f0,german_fires_giessen_locations__5decc52daab690e863ac7b90d9b663f0
elsa-brandstrom-str.,"Elsa-Brandstrom-Strasse in Giessen, Germany",50.5740662,8.6738384,1,,,,Legislator,"Elsa-Brandstrom-Strasse in Giessen, Germany",,german_fires_giessen_locations,adb7811ee2abd342ed94cfb0e15c4953,german_fires_giessen_locations__adb7811ee2abd342ed94cfb0e15c4953
erdkauter weg,"Erdkauter Weg in Giessen, Germany",50.5703921,8.6841526,1,,,,IndustryTerm,"Erdkauter Weg in Giessen, Germany",,german_fires_giessen_locations,c3b0942a83f1ed7092cf3ad408795b5b,german_fires_giessen_locations__c3b0942a83f1ed7092cf3ad408795b5b
erfurter str.,"Erfurter Strasse in Giessen, Germany",50.609436,8.7113912,1,,,,AAEntity,"Erfurter Strasse in Giessen, Germany",,german_fires_giessen_locations,93b826eb19e0be8f48bd6fdc67c581b9,german_fires_giessen_locations__93b826eb19e0be8f48bd6fdc67c581b9
erlengasse,"Erlengasse in Giessen, Germany",50.5853758,8.6753025,1,,,,Legislator,"Erlengasse in Giessen, Germany",,german_fires_giessen_locations,b5771d11d8b8d4abc6c54eba1d7e7ee8,german_fires_giessen_locations__b5771d11d8b8d4abc6c54eba1d7e7ee8
ermelgasse,"Ermelgasse in Giessen, Germany",50.6053341,8.7101974,1,,,,Keyphrase,"Ermelgasse in Giessen, Germany",,german_fires_giessen_locations,6b2a0da6839768eadb0db63577687b86,german_fires_giessen_locations__6b2a0da6839768eadb0db63577687b86
ernst-eckstein-str.,"Ernst-Eckstein-Strasse in Giessen, Germany",50.5809027,8.6901919,1,,,,News,"Ernst-Eckstein-Strasse in Giessen, Germany",,german_fires_giessen_locations,23e7cb885a9489d5c2d349cd57a30e76,german_fires_giessen_locations__23e7cb885a9489d5c2d349cd57a30e76
ernst-leitz-str.,"Ernst-Leitz-Strasse in Giessen, Germany",50.5704758,8.6873245,1,,,,Shipping,"Ernst-Leitz-Strasse in Giessen, Germany",,german_fires_giessen_locations,2e7905d6f57d4dc7beae65a082876704,german_fires_giessen_locations__2e7905d6f57d4dc7beae65a082876704
ernst-toller-weg,"Ernst-Toller-Weg in Giessen, Germany",50.5887438,8.7063467,1,,,,LegislativeCommittee,"Ernst-Toller-Weg in Giessen, Germany",,german_fires_giessen_locations,a9720001a894cf7d3f86a2b982bd5600,german_fires_giessen_locations__a9720001a894cf7d3f86a2b982bd5600
eulenkopf,"Eulenkopf in Giessen, Germany",50.5898242,8.7117875,1,,,,space,"Eulenkopf in Giessen, Germany",,german_fires_giessen_locations,ba18e256c832d012c2a68b9f8834f20d,german_fires_giessen_locations__ba18e256c832d012c2a68b9f8834f20d
europastr.,"Europastrasse in Giessen, Germany",50.5771648,8.7310541,1,,,,Organization,"Europastrasse in Giessen, Germany",,german_fires_giessen_locations,94bd42f7ecf8f364818f07c8ab8964e7,german_fires_giessen_locations__94bd42f7ecf8f364818f07c8ab8964e7
falkweg,"Falkweg in Giessen, Germany",50.5920701,8.7050894,1,,,,ForeignMinistry,"Falkweg in Giessen, Germany",,german_fires_giessen_locations,1c035d37c34054af2bd78435c9196aa7,german_fires_giessen_locations__1c035d37c34054af2bd78435c9196aa7
falltorstr.,"Falltorstrasse in Giessen, Germany",50.5356533,8.6165582,1,,,,space,"Falltorstrasse in Giessen, Germany",,german_fires_giessen_locations,9b0b14add72d0b73e56b88d50e472b11,german_fires_giessen_locations__9b0b14add72d0b73e56b88d50e472b11
fasanenweg,"Fasanenweg in Giessen, Germany",50.5808212,8.705865,1,,,,Organization,"Fasanenweg in Giessen, Germany",,german_fires_giessen_locations,5f5fbbe2b6e300ad69ca6fa02749f525,german_fires_giessen_locations__5f5fbbe2b6e300ad69ca6fa02749f525
ferniestr.,"Ferniestrasse in Giessen, Germany",50.5701798,8.6885924,1,,,,Refinery,"Ferniestrasse in Giessen, Germany",,german_fires_giessen_locations,5fa7dd4d3a7ddb4d485228e82b09a190,german_fires_giessen_locations__5fa7dd4d3a7ddb4d485228e82b09a190
feuerbachstr.,"Feuerbachstrasse in Giessen, Germany",50.5980831,8.6880933,1,,,,Consulates,"Feuerbachstrasse in Giessen, Germany",,german_fires_giessen_locations,a87b0df32059eab2f50ca65e05e2e144,german_fires_giessen_locations__a87b0df32059eab2f50ca65e05e2e144
feulgenstr.,"Feulgenstrasse in Giessen, Germany",50.5763158,8.667092,1,,,,Media,"Feulgenstrasse in Giessen, Germany",,german_fires_giessen_locations,2dc3d98d8d8cb9a8ae30343798fac315,german_fires_giessen_locations__2dc3d98d8d8cb9a8ae30343798fac315
fichtestr.,"Fichtestrasse in Giessen, Germany",50.5733479,8.6700887,1,,,,Consulates,"Fichtestrasse in Giessen, Germany",,german_fires_giessen_locations,99edfe34ed3a8e23a8e9cee183e970c0,german_fires_giessen_locations__99edfe34ed3a8e23a8e9cee183e970c0
finkenweg,"Finkenweg in Giessen, Germany",50.5979639,8.6945531,1,,,,Organization,"Finkenweg in Giessen, Germany",,german_fires_giessen_locations,d7782bd37abe27362c8dad77a3aa444f,german_fires_giessen_locations__d7782bd37abe27362c8dad77a3aa444f
fliednerweg,"Fliednerweg in Giessen, Germany",50.5926793,8.7033146,1,,,,Organization,"Fliednerweg in Giessen, Germany",,german_fires_giessen_locations,f60e76668fc31720b11efbc637ec3108,german_fires_giessen_locations__f60e76668fc31720b11efbc637ec3108
flutgraben,"Flutgraben in Giessen, Germany",50.5835069,8.6666926,1,,,,DiplomaticFacilities,"Flutgraben in Giessen, Germany",,german_fires_giessen_locations,4612c19337872e56f552e2f362cf972a,german_fires_giessen_locations__4612c19337872e56f552e2f362cf972a
fontaneweg,"Fontaneweg in Giessen, Germany",50.5563966,8.6377403,1,,,,Organization,"Fontaneweg in Giessen, Germany",,german_fires_giessen_locations,e1fa8ee722399765d3ecf040449b63c0,german_fires_giessen_locations__e1fa8ee722399765d3ecf040449b63c0
forsthausweg,"Forsthausweg in Giessen, Germany",50.5505428,8.7208637,1,,,,AAEntity,"Forsthausweg in Giessen, Germany",,german_fires_giessen_locations,5d7de9a6a4df452acf6f8ecfca7cfec3,german_fires_giessen_locations__5d7de9a6a4df452acf6f8ecfca7cfec3
frankfurter str.,"Frankfurter Strasse in Giessen, Germany",50.5669932,8.6541729,1,,,,CompanyKeyword,"Frankfurter Strasse in Giessen, Germany",,german_fires_giessen_locations,e222c3b84ad6f26384fd0522ef35faec,german_fires_giessen_locations__e222c3b84ad6f26384fd0522ef35faec
franzen garten,"Franzen Garten in Giessen, Germany",50.5360188,8.6240979,1,,,,ForeignMinistry,"Franzen Garten in Giessen, Germany",,german_fires_giessen_locations,1b759ede7326277719d3be35653c04d1,german_fires_giessen_locations__1b759ede7326277719d3be35653c04d1
franzensbader str.,"Franzensbader Strasse in Giessen, Germany",50.5982932,8.6812647,1,,,,Refinery,"Franzensbader Strasse in Giessen, Germany",,german_fires_giessen_locations,7b518ee65a7a21f710d1ea62c77cbce6,german_fires_giessen_locations__7b518ee65a7a21f710d1ea62c77cbce6
freiligrathstr.,"Freiligrathstrasse in Giessen, Germany",50.5730217,8.6679216,1,,,,Wells,"Freiligrathstrasse in Giessen, Germany",,german_fires_giessen_locations,20db8d649e990a320ca3c551c891afba,german_fires_giessen_locations__20db8d649e990a320ca3c551c891afba
friedensstr.,"Friedensstrasse in Giessen, Germany",50.5823921,8.6973122,1,,,,Consulates,"Friedensstrasse in Giessen, Germany",,german_fires_giessen_locations,d5d768c5c0d78aa46298e68fc3a9f4e8,german_fires_giessen_locations__d5d768c5c0d78aa46298e68fc3a9f4e8
friedhofsallee,"Friedhofsallee in Giessen, Germany",50.5996569,8.6848586,1,,,,ForeignMinistry,"Friedhofsallee in Giessen, Germany",,german_fires_giessen_locations,8f0325875530f7276152b9cd99d18556,german_fires_giessen_locations__8f0325875530f7276152b9cd99d18556
friedhofstr.,"Friedhofstrasse in Giessen, Germany",50.5498471,8.6125422,1,,,,Exec,"Friedhofstrasse in Giessen, Germany",,german_fires_giessen_locations,38cc4f21294540b167674950733e0c40,german_fires_giessen_locations__38cc4f21294540b167674950733e0c40
friedhofsweg,"Friedhofsweg in Giessen, Germany",50.556324,8.6508484,1,,,,Legislator,"Friedhofsweg in Giessen, Germany",,german_fires_giessen_locations,1c1bbea896769e06af51f8287111e102,german_fires_giessen_locations__1c1bbea896769e06af51f8287111e102
friedrich-ebert-str.,"Friedrich-Ebert-Strasse in Giessen, Germany",50.601195,8.7467496,1,,,,Keyphrase,"Friedrich-Ebert-Strasse in Giessen, Germany",,german_fires_giessen_locations,bfe3bcaf6bd8e47ace21972667ee410d,german_fires_giessen_locations__bfe3bcaf6bd8e47ace21972667ee410d
friedrich-list-str.,"Friedrich-List-Strasse in Giessen, Germany",50.5834458,8.6448909,1,,,,LegislativeCommittee,"Friedrich-List-Strasse in Giessen, Germany",,german_fires_giessen_locations,b45c8592faacbb557eb73fab183ec6d7,german_fires_giessen_locations__b45c8592faacbb557eb73fab183ec6d7
friedrich-naumann-str.,"Friedrich-Naumann-Strasse in Giessen, Germany",50.5956051,8.6645449,1,,,,Exec,"Friedrich-Naumann-Strasse in Giessen, Germany",,german_fires_giessen_locations,99ca0b8bdb1c4c90356bd9bd3a89206f,german_fires_giessen_locations__99ca0b8bdb1c4c90356bd9bd3a89206f
friedrich-schwarz-str.,"Friedrich-Schwarz-Strasse in Giessen, Germany",50.5786954,8.6896242,1,,,,Exec,"Friedrich-Schwarz-Strasse in Giessen, Germany",,german_fires_giessen_locations,2b39d1dec324a92629af9c52577eaf52,german_fires_giessen_locations__2b39d1dec324a92629af9c52577eaf52
friedrichstr.,"Friedrichstrasse in Giessen, Germany",50.5766339,8.6680182,1,,,,IndustryTerm,"Friedrichstrasse in Giessen, Germany",,german_fires_giessen_locations,4bd41ccb6fdd46b13402ee241638adfd,german_fires_giessen_locations__4bd41ccb6fdd46b13402ee241638adfd
frobelstr.,"Frobelstrasse in Giessen, Germany",50.5867251,8.6955202,1,,,,Person,"Frobelstrasse in Giessen, Germany",,german_fires_giessen_locations,02400e240ede7375c5dd4bcf1f38cf66,german_fires_giessen_locations__02400e240ede7375c5dd4bcf1f38cf66
froschen weiher,"Froschen Weiher in Giessen, Germany",50.5423462,8.6244011,1,,,,Diplomat,"Froschen Weiher in Giessen, Germany",,german_fires_giessen_locations,c99eccf9e4fc315ede4d2273fb0f3049,german_fires_giessen_locations__c99eccf9e4fc315ede4d2273fb0f3049
fuchsgraben,"Fuchsgraben in Giessen, Germany",50.582284,8.7010169,1,,,,Shipping,"Fuchsgraben in Giessen, Germany",,german_fires_giessen_locations,497ed82f796434cba43219f2d815a16c,german_fires_giessen_locations__497ed82f796434cba43219f2d815a16c
fuldastr.,"Fuldastrasse in Giessen, Germany",50.5946272,8.6739893,1,,,,FTO,"Fuldastrasse in Giessen, Germany",,german_fires_giessen_locations,652c13126c47d6925757cd0aebcb34af,german_fires_giessen_locations__652c13126c47d6925757cd0aebcb34af
gabelsbergerstr.,"Gabelsbergerstrasse in Giessen, Germany",50.5850722,8.6661862,1,,,,Keyphrase,"Gabelsbergerstrasse in Giessen, Germany",,german_fires_giessen_locations,f47cbf8b404d97550664c80836605653,german_fires_giessen_locations__f47cbf8b404d97550664c80836605653
gaffkystr.,"Gaffkystrasse in Giessen, Germany",50.5730501,8.6643972,1,,,,IndustryTerm,"Gaffkystrasse in Giessen, Germany",,german_fires_giessen_locations,9cc211742e2fd2d662261f379414f19a,german_fires_giessen_locations__9cc211742e2fd2d662261f379414f19a
gartenstr.,"Gartenstrasse in Giessen, Germany",50.5813323,8.6816635,1,,,,IndustryTerm,"Gartenstrasse in Giessen, Germany",,german_fires_giessen_locations,7bca628ce3b302c06596ef05fce79793,german_fires_giessen_locations__7bca628ce3b302c06596ef05fce79793
gartfeld,"Gartfeld in Giessen, Germany",50.5912773,8.6713637,1,,,,LegislativeCommittee,"Gartfeld in Giessen, Germany",,german_fires_giessen_locations,00e202f2b170ae00e0ec99f6e6a5fa5f,german_fires_giessen_locations__00e202f2b170ae00e0ec99f6e6a5fa5f
gellertweg,"Gellertweg in Giessen, Germany",50.6090728,8.7085096,1,,,,Wells,"Gellertweg in Giessen, Germany",,german_fires_giessen_locations,6d81e865c4146a6bc8ae6cf914547962,german_fires_giessen_locations__6d81e865c4146a6bc8ae6cf914547962
georg-buchner-str.,"Georg-Buchner-Strasse in Giessen, Germany",50.5676654,8.6699034,1,,,,Legislator,"Georg-Buchner-Strasse in Giessen, Germany",,german_fires_giessen_locations,36ad37ef78ed09cd02f75487291f95c8,german_fires_giessen_locations__36ad37ef78ed09cd02f75487291f95c8
georg-edward-str.,"Georg-Edward-Strasse in Giessen, Germany",50.5559113,8.6346293,1,,,,Keyphrase,"Georg-Edward-Strasse in Giessen, Germany",,german_fires_giessen_locations,e881a8af145b7f5b1b7d7abb9960310c,german_fires_giessen_locations__e881a8af145b7f5b1b7d7abb9960310c
georg-elser-str.,"Georg-Elser-Strasse in Giessen, Germany",50.5888139,8.7089927,1,,,,AAEntity,"Georg-Elser-Strasse in Giessen, Germany",,german_fires_giessen_locations,e9e9d1a956f59d9fc929d061376f5b1e,german_fires_giessen_locations__e9e9d1a956f59d9fc929d061376f5b1e
georg-haas-str.,"Georg-Haas-Strasse in Giessen, Germany",50.56702,8.6685972,1,,,,Pipeline,"Georg-Haas-Strasse in Giessen, Germany",,german_fires_giessen_locations,b934a41fcb8aa64ce428c5a1cdf0093a,german_fires_giessen_locations__b934a41fcb8aa64ce428c5a1cdf0093a
georg-philipp-gail-str.,"Georg-Philipp-Gail-Strasse in Giessen, Germany",50.5839533,8.6916711,1,,,,Pipeline,"Georg-Philipp-Gail-Strasse in Giessen, Germany",,german_fires_giessen_locations,4e043db2594dcb2af080577a32d9dcbe,german_fires_giessen_locations__4e043db2594dcb2af080577a32d9dcbe
georg-schlosser-str.,"Georg-Schlosser-Strasse in Giessen, Germany",50.5876206,8.6729276,1,,,,Pipeline,"Georg-Schlosser-Strasse in Giessen, Germany",,german_fires_giessen_locations,6f18b3eb0a7ba7fdf72e8511dbc51b1e,german_fires_giessen_locations__6f18b3eb0a7ba7fdf72e8511dbc51b1e
geraer str.,"Geraer Strasse in Giessen, Germany",50.6113685,8.7125667,1,,,,Exec,"Geraer Strasse in Giessen, Germany",,german_fires_giessen_locations,77ec32da1894c08785af789d3b66d4c9,german_fires_giessen_locations__77ec32da1894c08785af789d3b66d4c9
geranienweg,"Geranienweg in Giessen, Germany",50.6006046,8.6812544,1,,,,Diplomat,"Geranienweg in Giessen, Germany",,german_fires_giessen_locations,ba69fdc94b704801b1b658a0c3ecdd9f,german_fires_giessen_locations__ba69fdc94b704801b1b658a0c3ecdd9f
gerichtsspitz,"Gerichtsspitz in Giessen, Germany",50.556027,8.6291777,1,,,,Refinery,"Gerichtsspitz in Giessen, Germany",,german_fires_giessen_locations,b1a0b14a006e9854007da43a8af77e75,german_fires_giessen_locations__b1a0b14a006e9854007da43a8af77e75
giessener str.,"Giessener Strasse in Giessen, Germany",50.6023592,8.7025867,1,,,,Diplomat,"Giessener Strasse in Giessen, Germany",,german_fires_giessen_locations,4e3a1d0ff712a1ca31594f9c2fab09d3,german_fires_giessen_locations__4e3a1d0ff712a1ca31594f9c2fab09d3
ginsterbusch,"Ginsterbusch in Giessen, Germany",50.5544776,8.6419674,1,,,,IndustryTerm,"Ginsterbusch in Giessen, Germany",,german_fires_giessen_locations,a03e5c2c1e58f413c4a045431c35c733,german_fires_giessen_locations__a03e5c2c1e58f413c4a045431c35c733
glaubrechtstr.,"Glaubrechtstrasse in Giessen, Germany",50.5750464,8.6601408,1,,,,Legislator,"Glaubrechtstrasse in Giessen, Germany",,german_fires_giessen_locations,8e284390e59ab513685d828181f2e861,german_fires_giessen_locations__8e284390e59ab513685d828181f2e861
gleiberger weg,"Gleiberger Weg in Giessen, Germany",50.5936915,8.6586421,1,,,,Exec,"Gleiberger Weg in Giessen, Germany",,german_fires_giessen_locations,c5f8bf094fac414b25e57ef29d57c2ca,german_fires_giessen_locations__c5f8bf094fac414b25e57ef29d57c2ca
gleibergring,"Gleibergring in Giessen, Germany",50.6130355,8.697761,1,,,,LegislativeCommittee,"Gleibergring in Giessen, Germany",,german_fires_giessen_locations,f9c0e390591b235d4caa1abb8ba5407e,german_fires_giessen_locations__f9c0e390591b235d4caa1abb8ba5407e
gnauthstr.,"Gnauthstrasse in Giessen, Germany",50.5779811,8.6776362,1,,,,Legislator,"Gnauthstrasse in Giessen, Germany",,german_fires_giessen_locations,f93c5b9cdcf611e0b77b23170c0c3845,german_fires_giessen_locations__f93c5b9cdcf611e0b77b23170c0c3845
goethestr.,"Goethestrasse in Giessen, Germany",50.5806518,8.6761867,1,,,,Refinery,"Goethestrasse in Giessen, Germany",,german_fires_giessen_locations,a7bb2808cb0b34bf67130863dc52360f,german_fires_giessen_locations__a7bb2808cb0b34bf67130863dc52360f
gothaer str.,"Gothaer Strasse in Giessen, Germany",50.6113726,8.7138717,1,,,,DiplomaticFacilities,"Gothaer Strasse in Giessen, Germany",,german_fires_giessen_locations,2a3d98c295dc9c5fe24d31c0bdcdf27a,german_fires_giessen_locations__2a3d98c295dc9c5fe24d31c0bdcdf27a
gottfried-arnold-str.,"Gottfried-Arnold-Strasse in Giessen, Germany",50.5882722,8.6632884,1,,,,Pipeline,"Gottfried-Arnold-Strasse in Giessen, Germany",,german_fires_giessen_locations,5f76af02769d2b84e5e7416e14d2f6eb,german_fires_giessen_locations__5f76af02769d2b84e5e7416e14d2f6eb
gottlieb-daimler-str.,"Gottlieb-Daimler-Strasse in Giessen, Germany",50.5835061,8.6491577,1,,,,Consulates,"Gottlieb-Daimler-Strasse in Giessen, Germany",,german_fires_giessen_locations,d69b7e67717616b9304e1da4210db1ec,german_fires_giessen_locations__d69b7e67717616b9304e1da4210db1ec
grabenstr.,"Grabenstrasse in Giessen, Germany",50.6032908,8.6974763,1,,,,ForeignMinistry,"Grabenstrasse in Giessen, Germany",,german_fires_giessen_locations,a04af91a934f91b46e71dce48fedcd94,german_fires_giessen_locations__a04af91a934f91b46e71dce48fedcd94
graudenzer str.,"Graudenzer Strasse in Giessen, Germany",50.5792355,8.697999,1,,,,News,"Graudenzer Strasse in Giessen, Germany",,german_fires_giessen_locations,0e27eabc06b78479f4727b14c7e54b15,german_fires_giessen_locations__0e27eabc06b78479f4727b14c7e54b15
gregor-mendel-str.,"Gregor-Mendel-Strasse in Giessen, Germany",50.5536771,8.6482564,1,,,,Pipeline,"Gregor-Mendel-Strasse in Giessen, Germany",,german_fires_giessen_locations,58fb61df3c6952c19d774a10d8c6626c,german_fires_giessen_locations__58fb61df3c6952c19d774a10d8c6626c
greizer str.,"Greizer Strasse in Giessen, Germany",50.6101484,8.7133311,1,,,,Wells,"Greizer Strasse in Giessen, Germany",,german_fires_giessen_locations,09ac782d2f03c3fe0a143e83f1c4a97a,german_fires_giessen_locations__09ac782d2f03c3fe0a143e83f1c4a97a
grenzborn,"Grenzborn in Giessen, Germany",50.564862,8.6572661,1,,,,LegislativeCommittee,"Grenzborn in Giessen, Germany",,german_fires_giessen_locations,087146c2094efa7e15d6fd65a34668a4,german_fires_giessen_locations__087146c2094efa7e15d6fd65a34668a4
grethenstr.,"Grethenstrasse in Giessen, Germany",50.5390211,8.6203939,1,,,,AAEntity,"Grethenstrasse in Giessen, Germany",,german_fires_giessen_locations,6104546242835dafcd7bef0d722326f2,german_fires_giessen_locations__6104546242835dafcd7bef0d722326f2
grossen-busecker str.,"Grossen-Busecker Strasse in Giessen, Germany",50.6029437,8.7572844,1,,,,ForeignMinistry,"Grossen-Busecker Strasse in Giessen, Germany",,german_fires_giessen_locations,808f2d44c40d4adc016bbeb98fba30f2,german_fires_giessen_locations__808f2d44c40d4adc016bbeb98fba30f2
grosser morgen,"Grosser Morgen in Giessen, Germany",50.5762075,8.6816588,1,,,,FTO,"Grosser Morgen in Giessen, Germany",,german_fires_giessen_locations,25995e7cb355208ff667daecbe53a22b,german_fires_giessen_locations__25995e7cb355208ff667daecbe53a22b
grosser steinweg,"Grosser Steinweg in Giessen, Germany",50.5840387,8.6821156,1,,,,FTO,"Grosser Steinweg in Giessen, Germany",,german_fires_giessen_locations,600a1f4f09ae7261be2828a0f210afef,german_fires_giessen_locations__600a1f4f09ae7261be2828a0f210afef
grunberger str.,"Grunberger Strasse in Giessen, Germany",50.5862695,8.7133585,1,,,,News,"Grunberger Strasse in Giessen, Germany",,german_fires_giessen_locations,38851d941c376da93b2e98f3899e59b4,german_fires_giessen_locations__38851d941c376da93b2e98f3899e59b4
gruner weg,"Gruner Weg in Giessen, Germany",50.5915663,8.6608027,1,,,,FTO,"Gruner Weg in Giessen, Germany",,german_fires_giessen_locations,4092c24dacd15896bbe61c1f2c9ba4a0,german_fires_giessen_locations__4092c24dacd15896bbe61c1f2c9ba4a0
gustav-kruger-str.,"Gustav-Kruger-Strasse in Giessen, Germany",50.5671277,8.6702527,1,,,,IndustryTerm,"Gustav-Kruger-Strasse in Giessen, Germany",,german_fires_giessen_locations,b58edf720af291dbc515518a9cffec73,german_fires_giessen_locations__b58edf720af291dbc515518a9cffec73
gustav-stresemann-ring,"Gustav-Stresemann-Ring in Giessen, Germany",50.6074618,8.7144273,1,,,,Exec,"Gustav-Stresemann-Ring in Giessen, Germany",,german_fires_giessen_locations,3d691046242f3add803551085fe6ce56,german_fires_giessen_locations__3d691046242f3add803551085fe6ce56
gutenbergstr.,"Gutenbergstrasse in Giessen, Germany",50.5827426,8.6824872,1,,,,ForeignMinistry,"Gutenbergstrasse in Giessen, Germany",,german_fires_giessen_locations,9fb3c7e4e031a87d5c58352d27db1acc,german_fires_giessen_locations__9fb3c7e4e031a87d5c58352d27db1acc
gutfleischstr.,"Gutfleischstrasse in Giessen, Germany",50.5893588,8.6809455,1,,,,Legislator,"Gutfleischstrasse in Giessen, Germany",,german_fires_giessen_locations,669a5b2c98d58144f9c66215b70c3361,german_fires_giessen_locations__669a5b2c98d58144f9c66215b70c3361
gunthersgraben,"Gunthersgraben in Giessen, Germany",50.5747247,8.6744099,1,,,,DiplomaticFacilities,"Gunthersgraben in Giessen, Germany",,german_fires_giessen_locations,ced0bc5914781dd4b431945c7a294436,german_fires_giessen_locations__ced0bc5914781dd4b431945c7a294436
hagstr.,"Hagstrasse in Giessen, Germany",50.6087097,8.7033064,1,,,,Organization,"Hagstrasse in Giessen, Germany",,german_fires_giessen_locations,99fc8991d29f419839604ccdf5cc9625,german_fires_giessen_locations__99fc8991d29f419839604ccdf5cc9625
hammstr.,"Hammstrasse in Giessen, Germany",50.5867498,8.6677989,1,,,,Wells,"Hammstrasse in Giessen, Germany",,german_fires_giessen_locations,5de1047e72b6b1a091cb3ca20a8a35f5,german_fires_giessen_locations__5de1047e72b6b1a091cb3ca20a8a35f5
hangelsteinring,"Hangelsteinring in Giessen, Germany",50.6151219,8.7006159,1,,,,AAEntity,"Hangelsteinring in Giessen, Germany",,german_fires_giessen_locations,efdb79996e191ad1cee0bb89c59eaf54,german_fires_giessen_locations__efdb79996e191ad1cee0bb89c59eaf54
hangelsteinstr.,"Hangelsteinstrasse in Giessen, Germany",50.6120379,8.7167418,1,,,,Legislator,"Hangelsteinstrasse in Giessen, Germany",,german_fires_giessen_locations,08b4357677e5b7602fa829345e19dd7d,german_fires_giessen_locations__08b4357677e5b7602fa829345e19dd7d
hannah-arendt-str.,"Hannah-Arendt-Strasse in Giessen, Germany",50.5886143,8.7046242,1,,,,FTO,"Hannah-Arendt-Strasse in Giessen, Germany",,german_fires_giessen_locations,c77185151807f4231a0d28518bad5d6a,german_fires_giessen_locations__c77185151807f4231a0d28518bad5d6a
hardtallee,"Hardtallee in Giessen, Germany",50.5893484,8.6546686,1,,,,ForeignMinistry,"Hardtallee in Giessen, Germany",,german_fires_giessen_locations,e3ca251426c5ddbe361e158d037c837d,german_fires_giessen_locations__e3ca251426c5ddbe361e158d037c837d
hasenkoppel,"Hasenkoppel in Giessen, Germany",50.5654947,8.6728264,1,,,,Refinery,"Hasenkoppel in Giessen, Germany",,german_fires_giessen_locations,c88ea65b4c7a5ee5a8653f2e5abae76d,german_fires_giessen_locations__c88ea65b4c7a5ee5a8653f2e5abae76d
hasenpfad,"Hasenpfad in Giessen, Germany",50.5819898,8.7039316,1,,,,AAEntity,"Hasenpfad in Giessen, Germany",,german_fires_giessen_locations,852d7360190709462aaafa3157fe31eb,german_fires_giessen_locations__852d7360190709462aaafa3157fe31eb
hauffstr.,"Hauffstrasse in Giessen, Germany",50.5578246,8.6528571,1,,,,ForeignMinistry,"Hauffstrasse in Giessen, Germany",,german_fires_giessen_locations,766857df4c29761bbd89e794cdbdb325,german_fires_giessen_locations__766857df4c29761bbd89e794cdbdb325
haydnstr.,"Haydnstrasse in Giessen, Germany",50.5697594,8.6621476,1,,,,Shipping,"Haydnstrasse in Giessen, Germany",,german_fires_giessen_locations,3cfa8a5b45680c2935ba8776789c44dc,german_fires_giessen_locations__3cfa8a5b45680c2935ba8776789c44dc
hedwig-burgheim-ring,"Hedwig-Burgheim-Ring in Giessen, Germany",50.6056086,8.6780272,1,,,,ForeignMinister,"Hedwig-Burgheim-Ring in Giessen, Germany",,german_fires_giessen_locations,878050c55a3975d9697cd4f8f854dc25,german_fires_giessen_locations__878050c55a3975d9697cd4f8f854dc25
heegstrauchweg,"Heegstrauchweg in Giessen, Germany",50.5755776,8.688955,1,,,,Refinery,"Heegstrauchweg in Giessen, Germany",,german_fires_giessen_locations,1b32ac991ca4d0649acd04be1aa36e4a,german_fires_giessen_locations__1b32ac991ca4d0649acd04be1aa36e4a
heerweg,"Heerweg in Giessen, Germany",50.553156,8.6364136,1,,,,FTO,"Heerweg in Giessen, Germany",,german_fires_giessen_locations,89030470ac125439ec75994a7c38ee5b,german_fires_giessen_locations__89030470ac125439ec75994a7c38ee5b
hegweg,"Hegweg in Giessen, Germany",50.5609866,8.650593,1,,,,Organization,"Hegweg in Giessen, Germany",,german_fires_giessen_locations,766226e49a2dc54393892faf32989423,german_fires_giessen_locations__766226e49a2dc54393892faf32989423
heide,"Heide in Giessen, Germany",50.5549948,8.6442294,1,,,,Organization,"Heide in Giessen, Germany",,german_fires_giessen_locations,5ce0795c541f1d2f48872548350e7baa,german_fires_giessen_locations__5ce0795c541f1d2f48872548350e7baa
hein-heckroth-str.,"Hein-Heckroth-Strasse in Giessen, Germany",50.5813915,8.6838576,1,,,,Legislator,"Hein-Heckroth-Strasse in Giessen, Germany",,german_fires_giessen_locations,040e05cd71cc499078f2a02cea78f85e,german_fires_giessen_locations__040e05cd71cc499078f2a02cea78f85e
heinrich-buff-ring,"Heinrich-Buff-Ring in Giessen, Germany",50.5696198,8.6731508,1,,,,ForeignMinistry,"Heinrich-Buff-Ring in Giessen, Germany",,german_fires_giessen_locations,23e38353f8d4d7d1cc1ea7f0d0ac8c4f,german_fires_giessen_locations__23e38353f8d4d7d1cc1ea7f0d0ac8c4f
heinrich-fourier-str.,"Heinrich-Fourier-Strasse in Giessen, Germany",50.5811339,8.6997044,1,,,,FTO,"Heinrich-Fourier-Strasse in Giessen, Germany",,german_fires_giessen_locations,aee2106cbb26258231a929ae893d57d4,german_fires_giessen_locations__aee2106cbb26258231a929ae893d57d4
heinrich-ritzel-str.,"Heinrich-Ritzel-Strasse in Giessen, Germany",50.5988192,8.6981507,1,,,,Refinery,"Heinrich-Ritzel-Strasse in Giessen, Germany",,german_fires_giessen_locations,cb5c12021425bb5645ef0f572942a2bc,german_fires_giessen_locations__cb5c12021425bb5645ef0f572942a2bc
heinrich-will-str.,"Heinrich-Will-Strasse in Giessen, Germany",50.6005384,8.6857789,1,,,,Shipping,"Heinrich-Will-Strasse in Giessen, Germany",,german_fires_giessen_locations,979ba65bec4d9b34e512c60037e0d6bf,german_fires_giessen_locations__979ba65bec4d9b34e512c60037e0d6bf
helene-weber-weg,"Helene-Weber-Weg in Giessen, Germany",50.6060926,8.6748452,1,,,,Legislator,"Helene-Weber-Weg in Giessen, Germany",,german_fires_giessen_locations,4de3ec1c53e03d60b7a67797ec0becf3,german_fires_giessen_locations__4de3ec1c53e03d60b7a67797ec0becf3
helgenstockstr.,"Helgenstockstrasse in Giessen, Germany",50.5977363,8.7466431,1,,,,FTO,"Helgenstockstrasse in Giessen, Germany",,german_fires_giessen_locations,fc711b2134dc6f17a7313eec89601bc4,german_fires_giessen_locations__fc711b2134dc6f17a7313eec89601bc4
henriette-furth-str.,"Henriette-Furth-Strasse in Giessen, Germany",50.5762341,8.6548463,1,,,,Pipeline,"Henriette-Furth-Strasse in Giessen, Germany",,german_fires_giessen_locations,ebfde1533ec9e0af414c912143d39654,german_fires_giessen_locations__ebfde1533ec9e0af414c912143d39654
henriette-hezel-str.,"Henriette-Hezel-Strasse in Giessen, Germany",50.5876832,8.6633345,1,,,,IndustryTerm,"Henriette-Hezel-Strasse in Giessen, Germany",,german_fires_giessen_locations,e9530edfe5add78fc2007c9bb4001694,german_fires_giessen_locations__e9530edfe5add78fc2007c9bb4001694
henselstr.,"Henselstrasse in Giessen, Germany",50.5793281,8.6793386,1,,,,Exec,"Henselstrasse in Giessen, Germany",,german_fires_giessen_locations,a767be14f3414cb75d571bea846adfb2,german_fires_giessen_locations__a767be14f3414cb75d571bea846adfb2
herderweg,"Herderweg in Giessen, Germany",50.5895724,8.6591314,1,,,,AAEntity,"Herderweg in Giessen, Germany",,german_fires_giessen_locations,8b8cff774f869c83a417f0f4734673db,german_fires_giessen_locations__8b8cff774f869c83a417f0f4734673db
hermann-levi-str.,"Hermann-Levi-Strasse in Giessen, Germany",50.568295,8.6588443,1,,,,Organization,"Hermann-Levi-Strasse in Giessen, Germany",,german_fires_giessen_locations,031b86750570fe04b0e3514f8dcaf819,german_fires_giessen_locations__031b86750570fe04b0e3514f8dcaf819
hermann-lons-str.,"Hermann-Lons-Strasse in Giessen, Germany",50.5575014,8.638456,1,,,,IndustryTerm,"Hermann-Lons-Strasse in Giessen, Germany",,german_fires_giessen_locations,bc556a51ff660827a6598baf522ad0b4,german_fires_giessen_locations__bc556a51ff660827a6598baf522ad0b4
hermann-rau-str.,"Hermann-Rau-Strasse in Giessen, Germany",50.5597886,8.6478019,1,,,,Legislator,"Hermann-Rau-Strasse in Giessen, Germany",,german_fires_giessen_locations,60ec31d0b97c669f4247b072bd3f0572,german_fires_giessen_locations__60ec31d0b97c669f4247b072bd3f0572
hessenstr.,"Hessenstrasse in Giessen, Germany",50.5805543,8.6839591,1,,,,LegislativeCommittee,"Hessenstrasse in Giessen, Germany",,german_fires_giessen_locations,9efe9d2a18e5175da7f531e8c6a9dae7,german_fires_giessen_locations__9efe9d2a18e5175da7f531e8c6a9dae7
heuchelheimer str.,"Heuchelheimer Strasse in Giessen, Germany",50.5858053,8.6534389,1,,,,AAEntity,"Heuchelheimer Strasse in Giessen, Germany",,german_fires_giessen_locations,b6c13eefb991af525e8243822686f5a1,german_fires_giessen_locations__b6c13eefb991af525e8243822686f5a1
heyerweg,"Heyerweg in Giessen, Germany",50.5900751,8.7134323,1,,,,LegislativeCommittee,"Heyerweg in Giessen, Germany",,german_fires_giessen_locations,3d9d0dcb777d97af634bbbfb41bf9035,german_fires_giessen_locations__3d9d0dcb777d97af634bbbfb41bf9035
hillebrandstr.,"Hillebrandstrasse in Giessen, Germany",50.5759692,8.6618892,1,,,,ForeignMinistry,"Hillebrandstrasse in Giessen, Germany",,german_fires_giessen_locations,87fce34eea9c8e52f6c77d6e73b8eaf9,german_fires_giessen_locations__87fce34eea9c8e52f6c77d6e73b8eaf9
hindemithstr.,"Hindemithstrasse in Giessen, Germany",50.5681324,8.6560136,1,,,,Refinery,"Hindemithstrasse in Giessen, Germany",,german_fires_giessen_locations,99c597d7cf90db8e04345709ec90224e,german_fires_giessen_locations__99c597d7cf90db8e04345709ec90224e
hinter der ostanlage,"Hinter der Ostanlage in Giessen, Germany",50.5879775,8.6818667,1,,,,Shipping,"Hinter der Ostanlage in Giessen, Germany",,german_fires_giessen_locations,157c1352a858f2ec831ac0fc22f5dfc5,german_fires_giessen_locations__157c1352a858f2ec831ac0fc22f5dfc5
hinter der westanlage,"Hinter der Westanlage in Giessen, Germany",50.5838715,8.6677531,1,,,,IndustryTerm,"Hinter der Westanlage in Giessen, Germany",,german_fires_giessen_locations,019257303401f1743993f29726c5dc5e,german_fires_giessen_locations__019257303401f1743993f29726c5dc5e
hintergasse,"Hintergasse in Giessen, Germany",50.5505288,8.6156482,1,,,,ForeignMinistry,"Hintergasse in Giessen, Germany",,german_fires_giessen_locations,29f22bfe5c2c01e7bc9fedcea8983fd5,german_fires_giessen_locations__29f22bfe5c2c01e7bc9fedcea8983fd5
hochelheimer weg,"Hochelheimer Weg in Giessen, Germany",50.533354,8.6190653,1,,,,AAEntity,"Hochelheimer Weg in Giessen, Germany",,german_fires_giessen_locations,3a0ba05844fe4471293243d8131115e4,german_fires_giessen_locations__3a0ba05844fe4471293243d8131115e4
hochstr.,"Hochstrasse in Giessen, Germany",50.5547149,8.621661,1,,,,CompanyKeyword,"Hochstrasse in Giessen, Germany",,german_fires_giessen_locations,f3e3a22ca24f4827ad25e0d6f8bec0c5,german_fires_giessen_locations__f3e3a22ca24f4827ad25e0d6f8bec0c5
hofacker,"Hofacker in Giessen, Germany",50.5460933,8.7220352,1,,,,DiplomaticFacilities,"Hofacker in Giessen, Germany",,german_fires_giessen_locations,0481b6025aa87676ff71af73faee196c,german_fires_giessen_locations__0481b6025aa87676ff71af73faee196c
hofmannstr.,"Hofmannstrasse in Giessen, Germany",50.5774555,8.6641498,1,,,,Wells,"Hofmannstrasse in Giessen, Germany",,german_fires_giessen_locations,0285d0246b8c7384f30a0c51daa2bbe7,german_fires_giessen_locations__0285d0246b8c7384f30a0c51daa2bbe7
hohensteinring,"Hohensteinring in Giessen, Germany",50.607131,8.7154289,1,,,,LegislativeCommittee,"Hohensteinring in Giessen, Germany",,german_fires_giessen_locations,272f083aa181e706a9052ee7af60c190,german_fires_giessen_locations__272f083aa181e706a9052ee7af60c190
hoher rain,"Hoher Rain in Giessen, Germany",50.5761447,8.6799962,1,,,,space,"Hoher Rain in Giessen, Germany",,german_fires_giessen_locations,876b1b083bfe66da79f705a3f5bd49e5,german_fires_giessen_locations__876b1b083bfe66da79f705a3f5bd49e5
hohl,"Hohl in Giessen, Germany",50.5581858,8.6437009,1,,,,DiplomaticFacilities,"Hohl in Giessen, Germany",,german_fires_giessen_locations,b4d192fd821e7a2e5ea8d17cf7e79e89,german_fires_giessen_locations__b4d192fd821e7a2e5ea8d17cf7e79e89
holbeinring,"Holbeinring in Giessen, Germany",50.6021259,8.6924425,1,,,,IndustryTerm,"Holbeinring in Giessen, Germany",,german_fires_giessen_locations,192d403dd1b66d1e929daa66ee4f1870,german_fires_giessen_locations__192d403dd1b66d1e929daa66ee4f1870
hollerweg,"Hollerweg in Giessen, Germany",50.5736512,8.6570717,1,,,,Exec,"Hollerweg in Giessen, Germany",,german_fires_giessen_locations,996a0ecb6fd4d99b1ff7cfc790a57158,german_fires_giessen_locations__996a0ecb6fd4d99b1ff7cfc790a57158
holunderweg,"Holunderweg in Giessen, Germany",50.5580241,8.6405315,1,,,,Exec,"Holunderweg in Giessen, Germany",,german_fires_giessen_locations,e6c8c5e7df9961ee91a4c1bc59a04ce8,german_fires_giessen_locations__e6c8c5e7df9961ee91a4c1bc59a04ce8
holzweg,"Holzweg in Giessen, Germany",50.5896092,8.6623323,1,,,,Refinery,"Holzweg in Giessen, Germany",,german_fires_giessen_locations,7fa974264c91a456f73ce8d78ebeb893,german_fires_giessen_locations__7fa974264c91a456f73ce8d78ebeb893
hoppensteinstr.,"Hoppensteinstrasse in Giessen, Germany",50.561472,8.6219564,1,,,,ForeignMinister,"Hoppensteinstrasse in Giessen, Germany",,german_fires_giessen_locations,295b51b8e48e3d81a40a8b665d35351e,german_fires_giessen_locations__295b51b8e48e3d81a40a8b665d35351e
hornackerring,"Hornackerring in Giessen, Germany",50.5647794,8.6623065,1,,,,Pipeline,"Hornackerring in Giessen, Germany",,german_fires_giessen_locations,c457c67f8df3cca1d4f8220e36ebbc52,german_fires_giessen_locations__c457c67f8df3cca1d4f8220e36ebbc52
hugo-von-ritgen-str.,"Hugo-von-Ritgen-Strasse in Giessen, Germany",50.60054,8.6472832,1,,,,Shipping,"Hugo-von-Ritgen-Strasse in Giessen, Germany",,german_fires_giessen_locations,7f9c382751102a373f48137c6c9f4bce,german_fires_giessen_locations__7f9c382751102a373f48137c6c9f4bce
hultschiner str.,"Hultschiner Strasse in Giessen, Germany",50.5794526,8.6975321,1,,,,CompanyKeyword,"Hultschiner Strasse in Giessen, Germany",,german_fires_giessen_locations,a2e72e57e10857d7d70605e68b0efd8e,german_fires_giessen_locations__a2e72e57e10857d7d70605e68b0efd8e
humboldtstr.,"Humboldtstrasse in Giessen, Germany",50.5914094,8.6955009,1,,,,Diplomat,"Humboldtstrasse in Giessen, Germany",,german_fires_giessen_locations,adda69e15176fda8b6901274b0a25e2b,german_fires_giessen_locations__adda69e15176fda8b6901274b0a25e2b
hunfeld,"Hunfeld in Giessen, Germany",50.6054334,8.6944672,1,,,,ForeignMinister,"Hunfeld in Giessen, Germany",,german_fires_giessen_locations,edb59659df8b7b831fe6fa6be3235f58,german_fires_giessen_locations__edb59659df8b7b831fe6fa6be3235f58
handelstr.,"Handelstrasse in Giessen, Germany",50.5715071,8.6593917,1,,,,Person,"Handelstrasse in Giessen, Germany",,german_fires_giessen_locations,036a2ce53bfbc977674b4e803fa64ce5,german_fires_giessen_locations__036a2ce53bfbc977674b4e803fa64ce5
hauser born,"Hauser Born in Giessen, Germany",50.5466071,8.7226797,1,,,,News,"Hauser Born in Giessen, Germany",,german_fires_giessen_locations,dd9979b94f35b10506f0e585559e3149,german_fires_giessen_locations__dd9979b94f35b10506f0e585559e3149
hohenweg,"Hohenweg in Giessen, Germany",50.6041136,8.6946541,1,,,,Media,"Hohenweg in Giessen, Germany",,german_fires_giessen_locations,15e3a52fc4371bc77d44368a9d2699ed,german_fires_giessen_locations__15e3a52fc4371bc77d44368a9d2699ed
holderlinweg,"Holderlinweg in Giessen, Germany",50.6093276,8.7081027,1,,,,FTO,"Holderlinweg in Giessen, Germany",,german_fires_giessen_locations,79057103d4d2e6f707c45bcf295c0360,german_fires_giessen_locations__79057103d4d2e6f707c45bcf295c0360
hornsheimer str.,"Hornsheimer Strasse in Giessen, Germany",50.5357328,8.6230593,1,,,,Shipping,"Hornsheimer Strasse in Giessen, Germany",,german_fires_giessen_locations,e0fe82df7d1eda0b06792334aa69e102,german_fires_giessen_locations__e0fe82df7d1eda0b06792334aa69e102
hugelstr.,"Hugelstrasse in Giessen, Germany",50.5575943,8.6467453,1,,,,Organization,"Hugelstrasse in Giessen, Germany",,german_fires_giessen_locations,7553c707c593e1265d1cc97c093d1ec6,german_fires_giessen_locations__7553c707c593e1265d1cc97c093d1ec6
huttenbergstr.,"Huttenbergstrasse in Giessen, Germany",50.548858,8.6180932,1,,,,CompanyKeyword,"Huttenbergstrasse in Giessen, Germany",,german_fires_giessen_locations,6c2b2b84420481dea503753f4decff1b,german_fires_giessen_locations__6c2b2b84420481dea503753f4decff1b
huttenweg,"Huttenweg in Giessen, Germany",50.574989,8.6540615,1,,,,News,"Huttenweg in Giessen, Germany",,german_fires_giessen_locations,394176cccb9dcb9084a78b635007dbd2,german_fires_giessen_locations__394176cccb9dcb9084a78b635007dbd2
iheringstr.,"Iheringstrasse in Giessen, Germany",50.5761814,8.6741863,1,,,,LegislativeCommittee,"Iheringstrasse in Giessen, Germany",,german_fires_giessen_locations,952fc12569d06c306007a7fbd63a7156,german_fires_giessen_locations__952fc12569d06c306007a7fbd63a7156
im gasschen,"Im Gasschen in Giessen, Germany",50.5387523,8.6207115,1,,,,Media,"Im Gasschen in Giessen, Germany",,german_fires_giessen_locations,594733dcd213f4f043407a4da2f3e4cb,german_fires_giessen_locations__594733dcd213f4f043407a4da2f3e4cb
im hopfengarten,"Im Hopfengarten in Giessen, Germany",50.5977586,8.7486462,1,,,,Shipping,"Im Hopfengarten in Giessen, Germany",,german_fires_giessen_locations,5c919532a06f5c418880cd56c8e736ce,german_fires_giessen_locations__5c919532a06f5c418880cd56c8e736ce
im kleefeld,"Im Kleefeld in Giessen, Germany",50.5504944,8.6191392,1,,,,DiplomaticFacilities,"Im Kleefeld in Giessen, Germany",,german_fires_giessen_locations,f09ed3c24d7c4787e0b9ca9f45fbef09,german_fires_giessen_locations__f09ed3c24d7c4787e0b9ca9f45fbef09
im sporn,"Im Sporn in Giessen, Germany",50.531426,8.6184555,1,,,,Legislator,"Im Sporn in Giessen, Germany",,german_fires_giessen_locations,d6237b850d29d98e411639de2e59dbb7,german_fires_giessen_locations__d6237b850d29d98e411639de2e59dbb7
in den erlen,"In den Erlen in Giessen, Germany",50.6065644,8.7095171,1,,,,space,"In den Erlen in Giessen, Germany",,german_fires_giessen_locations,54a48997139e7972dc1dac45b12a6c5c,german_fires_giessen_locations__54a48997139e7972dc1dac45b12a6c5c
in den garten,"In den Garten in Giessen, Germany",50.5407229,8.6230569,1,,,,Keyphrase,"In den Garten in Giessen, Germany",,german_fires_giessen_locations,47417c44c06709b7e6b5dd2828d956ff,german_fires_giessen_locations__47417c44c06709b7e6b5dd2828d956ff
in der lache,"In der Lache in Giessen, Germany",50.5519504,8.618314,1,,,,Person,"In der Lache in Giessen, Germany",,german_fires_giessen_locations,4ccbf06797fa2c8a102f42db77bc3218,german_fires_giessen_locations__4ccbf06797fa2c8a102f42db77bc3218
in der roos,"In der Roos in Giessen, Germany",50.5982916,8.7499371,1,,,,Shipping,"In der Roos in Giessen, Germany",,german_fires_giessen_locations,b2e2b1a91cc3e3a70be8d21edd1e0b0c,german_fires_giessen_locations__b2e2b1a91cc3e3a70be8d21edd1e0b0c
industriestr.,"Industriestrasse in Giessen, Germany",50.5929024,8.7365244,1,,,,IndustryTerm,"Industriestrasse in Giessen, Germany",,german_fires_giessen_locations,a51ecb8cfa001ea12c4c099fd9d76353,german_fires_giessen_locations__a51ecb8cfa001ea12c4c099fd9d76353
jacksonstr.,"Jacksonstrasse in Giessen, Germany",50.5884866,8.7157801,1,,,,AAEntity,"Jacksonstrasse in Giessen, Germany",,german_fires_giessen_locations,023e8e47b57de49420f8169e80a67fdb,german_fires_giessen_locations__023e8e47b57de49420f8169e80a67fdb
jahnstr.,"Jahnstrasse in Giessen, Germany",50.5883902,8.6922537,1,,,,Shipping,"Jahnstrasse in Giessen, Germany",,german_fires_giessen_locations,2cc50d3a8fecd0f8d327a125a79ec6d5,german_fires_giessen_locations__2cc50d3a8fecd0f8d327a125a79ec6d5
jenaer str.,"Jenaer Strasse in Giessen, Germany",50.6121378,8.7118717,1,,,,FTO,"Jenaer Strasse in Giessen, Germany",,german_fires_giessen_locations,d06a7436672b91203e9bcfd4081f5ca8,german_fires_giessen_locations__d06a7436672b91203e9bcfd4081f5ca8
joachimstaler str.,"Joachimstaler Strasse in Giessen, Germany",50.5978267,8.6810097,1,,,,LegislativeCommittee,"Joachimstaler Strasse in Giessen, Germany",,german_fires_giessen_locations,19a967e095717236d83b93d7afa18e30,german_fires_giessen_locations__19a967e095717236d83b93d7afa18e30
johann-bernhard-wilbrand-str.,"Johann-Bernhard-Wilbrand-Strasse in Giessen, Germany",50.5677833,8.6687437,1,,,,Wells,"Johann-Bernhard-Wilbrand-Strasse in Giessen, Germany",,german_fires_giessen_locations,4ddbe2e220a2273225ce5456342fbd55,german_fires_giessen_locations__4ddbe2e220a2273225ce5456342fbd55
johann-sebastian-bach-str.,"Johann-Sebastian-Bach-Strasse in Giessen, Germany",50.5664037,8.6565791,1,,,,Wells,"Johann-Sebastian-Bach-Strasse in Giessen, Germany",,german_fires_giessen_locations,e32ed9706173b96c08367ab53dbf3b9b,german_fires_giessen_locations__e32ed9706173b96c08367ab53dbf3b9b
johannesbader str.,"Johannesbader Strasse in Giessen, Germany",50.5970662,8.6801815,1,,,,Media,"Johannesbader Strasse in Giessen, Germany",,german_fires_giessen_locations,f058be476d1c4cae8f22085ac8fe3d15,german_fires_giessen_locations__f058be476d1c4cae8f22085ac8fe3d15
johannesberg,"Johannesberg in Giessen, Germany",50.6064797,8.6990489,1,,,,ForeignMinistry,"Johannesberg in Giessen, Germany",,german_fires_giessen_locations,68a7039805224e071316a1c53f5659ca,german_fires_giessen_locations__68a7039805224e071316a1c53f5659ca
johannesstr.,"Johannesstrasse in Giessen, Germany",50.5838796,8.6758188,1,,,,Legislator,"Johannesstrasse in Giessen, Germany",,german_fires_giessen_locations,5c73d671959543c47ce0996a8b068c3d,german_fires_giessen_locations__5c73d671959543c47ce0996a8b068c3d
johannette-lein-gasse,"Johannette-Lein-Gasse in Giessen, Germany",50.5855081,8.670311,1,,,,AAEntity,"Johannette-Lein-Gasse in Giessen, Germany",,german_fires_giessen_locations,1ce77d21eed9513fa20ffec6f3078028,german_fires_giessen_locations__1ce77d21eed9513fa20ffec6f3078028
joseph-kreuter-weg,"Joseph-Kreuter-Weg in Giessen, Germany",50.5876715,8.6404114,1,,,,Legislator,"Joseph-Kreuter-Weg in Giessen, Germany",,german_fires_giessen_locations,76640857296033cfa202334103d1153e,german_fires_giessen_locations__76640857296033cfa202334103d1153e
julius-hopfner-str.,"Julius-Hopfner-Strasse in Giessen, Germany",50.5775942,8.6889641,1,,,,Refinery,"Julius-Hopfner-Strasse in Giessen, Germany",,german_fires_giessen_locations,11976567fa7a4154b0a84e06985adc53,german_fires_giessen_locations__11976567fa7a4154b0a84e06985adc53
jungfernstr.,"Jungfernstrasse in Giessen, Germany",50.6045822,8.7055192,1,,,,News,"Jungfernstrasse in Giessen, Germany",,german_fires_giessen_locations,2cb90ffca85a19426bdb1a119df1c29d,german_fires_giessen_locations__2cb90ffca85a19426bdb1a119df1c29d
junkersstr.,"Junkersstrasse in Giessen, Germany",50.5940953,8.72881,1,,,,Exec,"Junkersstrasse in Giessen, Germany",,german_fires_giessen_locations,d3c0c386f46a8b72aaf6e0be3aa41203,german_fires_giessen_locations__d3c0c386f46a8b72aaf6e0be3aa41203
kahlweg,"Kahlweg in Giessen, Germany",50.5535991,8.6227655,1,,,,LegislativeCommittee,"Kahlweg in Giessen, Germany",,german_fires_giessen_locations,684a762827783c1e580a5cfbffd927d7,german_fires_giessen_locations__684a762827783c1e580a5cfbffd927d7
kaiserstr.,"Kaiserstrasse in Giessen, Germany",50.5379802,8.6205659,1,,,,Exec,"Kaiserstrasse in Giessen, Germany",,german_fires_giessen_locations,f3aaeefa5e32e97d7f70227f1bc6d949,german_fires_giessen_locations__f3aaeefa5e32e97d7f70227f1bc6d949
kantstr.,"Kantstrasse in Giessen, Germany",50.5911694,8.6945553,1,,,,Wells,"Kantstrasse in Giessen, Germany",,german_fires_giessen_locations,63730c72c909e9244e32b7be556d5ea8,german_fires_giessen_locations__63730c72c909e9244e32b7be556d5ea8
kanzleiberg,"Kanzleiberg in Giessen, Germany",50.5866396,8.6763348,1,,,,DiplomaticFacilities,"Kanzleiberg in Giessen, Germany",,german_fires_giessen_locations,4ce7324c93b200cc845736104dca2729,german_fires_giessen_locations__4ce7324c93b200cc845736104dca2729
kapellenstr.,"Kapellenstrasse in Giessen, Germany",50.5889287,8.7187745,1,,,,ForeignMinister,"Kapellenstrasse in Giessen, Germany",,german_fires_giessen_locations,05cd9c8d6323322862fd0f145b482dac,german_fires_giessen_locations__05cd9c8d6323322862fd0f145b482dac
kaplansgasse,"Kaplansgasse in Giessen, Germany",50.5851484,8.6730934,1,,,,Legislator,"Kaplansgasse in Giessen, Germany",,german_fires_giessen_locations,d52d97734675529b8a9dd91c6dbb7d36,german_fires_giessen_locations__d52d97734675529b8a9dd91c6dbb7d36
karl-benner-str.,"Karl-Benner-Strasse in Giessen, Germany",50.6030795,8.7019393,1,,,,IndustryTerm,"Karl-Benner-Strasse in Giessen, Germany",,german_fires_giessen_locations,54e32c5450d813cc81c950ccb7de9b6a,german_fires_giessen_locations__54e32c5450d813cc81c950ccb7de9b6a
karl-benz-str.,"Karl-Benz-Strasse in Giessen, Germany",50.5833845,8.6477429,1,,,,DiplomaticFacilities,"Karl-Benz-Strasse in Giessen, Germany",,german_fires_giessen_locations,310927b4f805a2bf64f79112c7a02e19,german_fires_giessen_locations__310927b4f805a2bf64f79112c7a02e19
karl-follen-str.,"Karl-Follen-Strasse in Giessen, Germany",50.5765297,8.6836773,1,,,,Diplomat,"Karl-Follen-Strasse in Giessen, Germany",,german_fires_giessen_locations,9b8e5c4f6a1dccd8a06b7c05a56e2bf8,german_fires_giessen_locations__9b8e5c4f6a1dccd8a06b7c05a56e2bf8
karl-glockner-str.,"Karl-Glockner-Strasse in Giessen, Germany",50.5715455,8.6963169,1,,,,Organization,"Karl-Glockner-Strasse in Giessen, Germany",,german_fires_giessen_locations,ffe6f04e9160bed6b8ef21f18f58d7c6,german_fires_giessen_locations__ffe6f04e9160bed6b8ef21f18f58d7c6
karl-keller-str.,"Karl-Keller-Strasse in Giessen, Germany",50.5980282,8.6936153,1,,,,Person,"Karl-Keller-Strasse in Giessen, Germany",,german_fires_giessen_locations,9d37778683cc563d662d6c75c6612c43,german_fires_giessen_locations__9d37778683cc563d662d6c75c6612c43
karl-kling-str.,"Karl-Kling-Strasse in Giessen, Germany",50.5304298,8.6122254,1,,,,CompanyKeyword,"Karl-Kling-Strasse in Giessen, Germany",,german_fires_giessen_locations,cdb78103a20c89252b302255d5bc37c1,german_fires_giessen_locations__cdb78103a20c89252b302255d5bc37c1
karl-reuter-weg,"Karl-Reuter-Weg in Giessen, Germany",50.5773676,8.6929585,1,,,,FTO,"Karl-Reuter-Weg in Giessen, Germany",,german_fires_giessen_locations,a6737f05db8345271f4ac45a86fa2969,german_fires_giessen_locations__a6737f05db8345271f4ac45a86fa2969
karl-sack-str.,"Karl-Sack-Strasse in Giessen, Germany",50.5975275,8.6634587,1,,,,Person,"Karl-Sack-Strasse in Giessen, Germany",,german_fires_giessen_locations,e0583d27eb0b1634ae98edc529aa3301,german_fires_giessen_locations__e0583d27eb0b1634ae98edc529aa3301
karlsbader str.,"Karlsbader Strasse in Giessen, Germany",50.5969909,8.6793143,1,,,,Organization,"Karlsbader Strasse in Giessen, Germany",,german_fires_giessen_locations,ea895f53bd2fa960d4f43e3bf10b4b65,german_fires_giessen_locations__ea895f53bd2fa960d4f43e3bf10b4b65
karlstr.,"Karlstrasse in Giessen, Germany",50.6049357,8.699706,1,,,,Legislator,"Karlstrasse in Giessen, Germany",,german_fires_giessen_locations,785c8e95ecc2c9eca5c0547ae0881fd2,german_fires_giessen_locations__785c8e95ecc2c9eca5c0547ae0881fd2
katharinengasse,"Katharinengasse in Giessen, Germany",50.5843348,8.6721939,1,,,,Exec,"Katharinengasse in Giessen, Germany",,german_fires_giessen_locations,91f30421909abedff0d5f621562ee4c2,german_fires_giessen_locations__91f30421909abedff0d5f621562ee4c2
katzenbach,"Katzenbach in Giessen, Germany",50.558858,8.6465877,1,,,,Keyphrase,"Katzenbach in Giessen, Germany",,german_fires_giessen_locations,c26a8198d6ede9abc25e7ae511c3fff0,german_fires_giessen_locations__c26a8198d6ede9abc25e7ae511c3fff0
keplerstr.,"Keplerstrasse in Giessen, Germany",50.5799758,8.6808301,1,,,,DiplomaticFacilities,"Keplerstrasse in Giessen, Germany",,german_fires_giessen_locations,462c0dc92b22defc632f726185fd0cea,german_fires_giessen_locations__462c0dc92b22defc632f726185fd0cea
kerkrader str.,"Kerkrader Strasse in Giessen, Germany",50.5734276,8.728555,1,,,,Person,"Kerkrader Strasse in Giessen, Germany",,german_fires_giessen_locations,40fd126aee8e585739c5d750fc1d79a2,german_fires_giessen_locations__40fd126aee8e585739c5d750fc1d79a2
kesslerstr.,"Kesslerstrasse in Giessen, Germany",50.6053338,8.7018343,1,,,,Pipeline,"Kesslerstrasse in Giessen, Germany",,german_fires_giessen_locations,440229dffe69ea4fbddd5b6c12728207,german_fires_giessen_locations__440229dffe69ea4fbddd5b6c12728207
kiesweg,"Kiesweg in Giessen, Germany",50.6102449,8.7062804,1,,,,Diplomat,"Kiesweg in Giessen, Germany",,german_fires_giessen_locations,ed22b459af3d5d1443029e177e05256a,german_fires_giessen_locations__ed22b459af3d5d1443029e177e05256a
kinogasse,"Kinogasse in Giessen, Germany",50.5832356,8.6709281,1,,,,Consulates,"Kinogasse in Giessen, Germany",,german_fires_giessen_locations,00e7149490a9f4dbae1e4dfde4e14d16,german_fires_giessen_locations__00e7149490a9f4dbae1e4dfde4e14d16
kirchenplatz,"Kirchenplatz in Giessen, Germany",50.5870827,8.6740324,1,,,,Pipeline,"Kirchenplatz in Giessen, Germany",,german_fires_giessen_locations,e1f1a7bc318498da2389f401e6b12608,german_fires_giessen_locations__e1f1a7bc318498da2389f401e6b12608
kirchenring,"Kirchenring in Giessen, Germany",50.600542,8.7497922,1,,,,Organization,"Kirchenring in Giessen, Germany",,german_fires_giessen_locations,2c7810d9962b3ba51e627a6e0e0f4030,german_fires_giessen_locations__2c7810d9962b3ba51e627a6e0e0f4030
kirchpfad,"Kirchpfad in Giessen, Germany",50.5565881,8.6451265,1,,,,Pipeline,"Kirchpfad in Giessen, Germany",,german_fires_giessen_locations,4ae91371583ea3dda91d2c12fa743bf3,german_fires_giessen_locations__4ae91371583ea3dda91d2c12fa743bf3
kirchstr.,"Kirchstrasse in Giessen, Germany",50.6052748,8.7092227,1,,,,Exec,"Kirchstrasse in Giessen, Germany",,german_fires_giessen_locations,a17ca893cff466dbebec193e02cd736c,german_fires_giessen_locations__a17ca893cff466dbebec193e02cd736c
kirchweg,"Kirchweg in Giessen, Germany",50.5364621,8.6253762,1,,,,AAEntity,"Kirchweg in Giessen, Germany",,german_fires_giessen_locations,c6c7e970d65bdddd74d9864981546b26,german_fires_giessen_locations__c6c7e970d65bdddd74d9864981546b26
kirschbaumweg,"Kirschbaumweg in Giessen, Germany",50.5884361,8.6982566,1,,,,ForeignMinistry,"Kirschbaumweg in Giessen, Germany",,german_fires_giessen_locations,938cbd9cc5b6effad4a8231333203521,german_fires_giessen_locations__938cbd9cc5b6effad4a8231333203521
kleebachstr.,"Kleebachstrasse in Giessen, Germany",50.5553719,8.6141715,1,,,,Shipping,"Kleebachstrasse in Giessen, Germany",,german_fires_giessen_locations,3a1aea8297c464e9ae86be523928be7e,german_fires_giessen_locations__3a1aea8297c464e9ae86be523928be7e
kleebergstr.,"Kleebergstrasse in Giessen, Germany",50.5400976,8.6257185,1,,,,IndustryTerm,"Kleebergstrasse in Giessen, Germany",,german_fires_giessen_locations,7979c6225c655d1006cc0578c274e540,german_fires_giessen_locations__7979c6225c655d1006cc0578c274e540
kleine muhlgasse,"Kleine Muhlgasse in Giessen, Germany",50.5861072,8.6710777,1,,,,Pipeline,"Kleine Muhlgasse in Giessen, Germany",,german_fires_giessen_locations,8ed99dc33e1f000eaa0d7faa5990f99e,german_fires_giessen_locations__8ed99dc33e1f000eaa0d7faa5990f99e
kleinlindener str.,"Kleinlindener Strasse in Giessen, Germany",50.5529259,8.6257838,1,,,,AAEntity,"Kleinlindener Strasse in Giessen, Germany",,german_fires_giessen_locations,14e33a878a292b714146605345d9f7af,german_fires_giessen_locations__14e33a878a292b714146605345d9f7af
klingelbachweg,"Klingelbachweg in Giessen, Germany",50.5744606,8.6871922,1,,,,Person,"Klingelbachweg in Giessen, Germany",,german_fires_giessen_locations,e106e3b1a6536fb581559e35d83b014d,german_fires_giessen_locations__e106e3b1a6536fb581559e35d83b014d
klinikstr.,"Klinikstrasse in Giessen, Germany",50.5763129,8.6629861,1,,,,Keyphrase,"Klinikstrasse in Giessen, Germany",,german_fires_giessen_locations,3ce2ba74b90df73a2d374036c13c5a05,german_fires_giessen_locations__3ce2ba74b90df73a2d374036c13c5a05
klosterweg,"Klosterweg in Giessen, Germany",50.5481377,8.7188584,1,,,,FTO,"Klosterweg in Giessen, Germany",,german_fires_giessen_locations,cca481ef64719bc740e8fba725f37e3e,german_fires_giessen_locations__cca481ef64719bc740e8fba725f37e3e
kohlweg,"Kohlweg in Giessen, Germany",50.6087201,8.7007982,1,,,,Media,"Kohlweg in Giessen, Germany",,german_fires_giessen_locations,94e42459b3b47c54d14c244b1cf8a192,german_fires_giessen_locations__94e42459b3b47c54d14c244b1cf8a192
kornblumenstr.,"Kornblumenstrasse in Giessen, Germany",50.6036965,8.7014025,1,,,,Pipeline,"Kornblumenstrasse in Giessen, Germany",,german_fires_giessen_locations,39090e02f6cf60c2e901308a0f7230b8,german_fires_giessen_locations__39090e02f6cf60c2e901308a0f7230b8
krautgarten,"Krautgarten in Giessen, Germany",50.5486537,8.619468,1,,,,ForeignMinistry,"Krautgarten in Giessen, Germany",,german_fires_giessen_locations,5fd1b748e442fd1ea0475e623adb707e,german_fires_giessen_locations__5fd1b748e442fd1ea0475e623adb707e
kreuzplatz,"Kreuzplatz in Giessen, Germany",50.5854906,8.6744571,1,,,,space,"Kreuzplatz in Giessen, Germany",,german_fires_giessen_locations,e289048108a8b3ac344c406e02ca601b,german_fires_giessen_locations__e289048108a8b3ac344c406e02ca601b
krofdorfer str.,"Krofdorfer Strasse in Giessen, Germany",50.5971471,8.6593399,1,,,,space,"Krofdorfer Strasse in Giessen, Germany",,german_fires_giessen_locations,c3c6adbe43e47c6e56b65ace9b017e99,german_fires_giessen_locations__c3c6adbe43e47c6e56b65ace9b017e99
kropbacher weg,"Kropbacher Weg in Giessen, Germany",50.5904256,8.6598432,1,,,,Refinery,"Kropbacher Weg in Giessen, Germany",,german_fires_giessen_locations,884ce3788cd6ebffa723314ceb9ceda9,german_fires_giessen_locations__884ce3788cd6ebffa723314ceb9ceda9
krumstuck,"Krumstuck in Giessen, Germany",50.6102936,8.7106578,1,,,,Refinery,"Krumstuck in Giessen, Germany",,german_fires_giessen_locations,e0d5277e04f0bc271bc251587abc22ae,german_fires_giessen_locations__e0d5277e04f0bc271bc251587abc22ae
kugelberg,"Kugelberg in Giessen, Germany",50.5836323,8.6977698,1,,,,IndustryTerm,"Kugelberg in Giessen, Germany",,german_fires_giessen_locations,1b9803c0ca3384b369f0847a62dfd800,german_fires_giessen_locations__1b9803c0ca3384b369f0847a62dfd800
koniggratzer str.,"Koniggratzer Strasse in Giessen, Germany",50.5712055,8.7284912,1,,,,Exec,"Koniggratzer Strasse in Giessen, Germany",,german_fires_giessen_locations,97d2b2d1e0772e234d0d222486eb4742,german_fires_giessen_locations__97d2b2d1e0772e234d0d222486eb4742
