german_text,caption_text,lat,lon,ranking,default location,default_lat,default_lon,.1,.2,.3,.4,ENTITY_LABEL,name,description,source,source_identifier,global_identifier
aachener strasse,"Aachener Strasse in Berlin, Germany",52.4814493,13.3189377,1,"Berlin, Germany",52.52096863,13.4034395,,,,,Organization,"Aachener Strasse in Berlin, Germany",,german_fires_berlin_locations,cea446f7ef5a99a5ac21f91179bdb9fc,german_fires_berlin_locations__b5667a10785573f8d2f3e14dabee931e
aalemannufer,"Aalemannufer in Berlin, Germany",52.5731282,13.2186147,1,,,,,,,ss,Organization,"Aalemannufer in Berlin, Germany",,german_fires_berlin_locations,9e25dbde848a6f989e15abe5b95a7b9c,german_fires_berlin_locations__1a136abcb197755694699a2381ea9474
aalesunder strasse,"Aalesunder Strasse in Berlin, Germany",52.5554941,13.4077031,1,,,,,,,u,space,"Aalesunder Strasse in Berlin, Germany",,german_fires_berlin_locations,9ee0b95119e1e66d7d8814ce20fe9d27,german_fires_berlin_locations__6a0e9aa32f6f89927b93478ff36ed6f2
aalstieg,"Aalstieg in Berlin, Germany",52.4353359,13.6908451,1,,,,,,,a,Wells,"Aalstieg in Berlin, Germany",,german_fires_berlin_locations,10bade969f69fe07cc1279ea8ec2fa3d,german_fires_berlin_locations__e1689c1e8eddf67e06e0229b2cdf6c11
aarauer strasse,"Aarauer Strasse in Berlin, Germany",52.4258362,13.2903645,1,,,,,,,o,Consulates,"Aarauer Strasse in Berlin, Germany",,german_fires_berlin_locations,4ff968743abae818e6a44355a7ca7198,german_fires_berlin_locations__68876ffe8b0a240445610e0c768ad8b0
aarberger strasse,"Aarberger Strasse in Berlin, Germany",52.4254044,13.3008282,1,,,,,,,,CompanyKeyword,"Aarberger Strasse in Berlin, Germany",,german_fires_berlin_locations,94e59823f60659373e13fa3f0bbc9f8a,german_fires_berlin_locations__3de773051edd3d2316b3edde06d9bbff
aaron-bernstein-platz,"Aaron-Bernstein-Platz in Berlin, Germany",52.5096488,13.3759441,1,,,,,,,,Consulates,"Aaron-Bernstein-Platz in Berlin, Germany",,german_fires_berlin_locations,4b66632a45d24fd30f17fb756596bd36,german_fires_berlin_locations__dc6ed8716fef255d10a37e7ffe64aa86
abajstrasse,"Abajstrasse in Berlin, Germany",52.5903316,13.3918658,1,,,,,,,,Shipping,"Abajstrasse in Berlin, Germany",,german_fires_berlin_locations,b9684805c6ede6cd42df1f664b259b55,german_fires_berlin_locations__9a6e98cb307527e0f80478feecb6acc5
abbé-lemire-weg,"Abbé-Lemire-Weg in Berlin, Germany",52.5200066,13.404954,1,,,,,,,,Exec,"Abbé-Lemire-Weg in Berlin, Germany",,german_fires_berlin_locations,2ce85339b6dc4d927963c341b800f18f,german_fires_berlin_locations__f8ff8196be3805c7d80c57e801ded512
abbestrasse,"Abbestrasse in Berlin, Germany",52.5167095,13.321157,1,,,,,,,,Organization,"Abbestrasse in Berlin, Germany",,german_fires_berlin_locations,8c9c09c9f5388491ca293110bdaf9393,german_fires_berlin_locations__bba8813066789f1a8c914d111e5a346e
abendfrieden,"Abendfrieden in Berlin, Germany",52.9281698,12.7820479,1,,,,,,,,LegislativeCommittee,"Abendfrieden in Berlin, Germany",,german_fires_berlin_locations,3ddbfaaa986484185d0a18c2506479ce,german_fires_berlin_locations__76f36074a86f35fbf9439a755503cd67
abendrotweg,"Abendrotweg in Berlin, Germany",52.3924538,13.39032,1,,,,,,,,CompanyKeyword,"Abendrotweg in Berlin, Germany",,german_fires_berlin_locations,ff71809aa4f4919ba6bc192f3abe5be7,german_fires_berlin_locations__d6ba3f44244bf85607c6a2d2032da047
abendseglersteig,"Abendseglersteig in Berlin, Germany",52.5200066,13.404954,1,,,,,,,,IndustryTerm,"Abendseglersteig in Berlin, Germany",,german_fires_berlin_locations,9887a5822ef27b87d0914e7f9152f0fc,german_fires_berlin_locations__2658bdbe9ee3dad6c12eb3f47b532cb2
abram-joffe-strasse,"Abram-Joffe-Strasse in Berlin, Germany",52.4331505,13.5290213,1,,,,,,,,CompanyKeyword,"Abram-Joffe-Strasse in Berlin, Germany",,german_fires_berlin_locations,5b6945aa9172d5431036658eeee7f107,german_fires_berlin_locations__42cd175fb495be2785d2647cc6f0e003
abramowitschallee,"Abramowitschallee in Berlin, Germany",52.5096488,13.3759441,1,,,,,,,,Exec,"Abramowitschallee in Berlin, Germany",,german_fires_berlin_locations,ae0df3199d9104b12d63b21d8953895b,german_fires_berlin_locations__e9224e21ed8757a24c1dae6d2d5da4ae
abteibrucke,"Abteibrucke in Berlin, Germany",52.486361,13.4806779,1,,,,,,,,Wells,"Abteibrucke in Berlin, Germany",,german_fires_berlin_locations,222122284743595647a8c19cfc509985,german_fires_berlin_locations__1f3d5e42fc1eaa229aa9a92ddf27f5cd
abtstrasse,"Abtstrasse in Berlin, Germany",52.4350348,13.5425835,1,,,,,,,,Exec,"Abtstrasse in Berlin, Germany",,german_fires_berlin_locations,6fa7c6bdddbfa5b57245751cd8650a1b,german_fires_berlin_locations__f77a12789a5e3b4506305fdae01eccef
abtweilerstrasse,"Abtweilerstrasse in Berlin, Germany",52.4131229,13.6758848,1,,,,,,,,Diplomat,"Abtweilerstrasse in Berlin, Germany",,german_fires_berlin_locations,18173ddde9a56e731d7deb3313aeafa1,german_fires_berlin_locations__4c0240622bc2ee2cf46271d213d6a1f4
achardstrasse,"Achardstrasse in Berlin, Germany",52.4993975,13.5827589,1,,,,,,,,LegislativeCommittee,"Achardstrasse in Berlin, Germany",,german_fires_berlin_locations,f9b9c6b38d9a50757b5c20e60f9f0881,german_fires_berlin_locations__c3543551708a56dbfa9819f2cc7a5468
achenbachstrasse,"Achenbachstrasse in Berlin, Germany",52.5418269,13.2029079,1,,,,,,,,space,"Achenbachstrasse in Berlin, Germany",,german_fires_berlin_locations,dbb072126066dba2282d199ae21a4ffe,german_fires_berlin_locations__0781b3c883fd2ece357a2659a01b5ea5
achenseeweg,"Achenseeweg in Berlin, Germany",52.4129806,13.3341069,1,,,,,,,,AAEntity,"Achenseeweg in Berlin, Germany",,german_fires_berlin_locations,2cdd87c060bb9950c5d7a10b9a57ab17,german_fires_berlin_locations__673193eff0a7883d8e498777dd49695c
achillesstrasse,"Achillesstrasse in Berlin, Germany",52.6175948,13.488975,1,,,,,,,,Media,"Achillesstrasse in Berlin, Germany",,german_fires_berlin_locations,8d2d76721c0602064376b6801b150314,german_fires_berlin_locations__f48d39e313bd67bfe7f469d2edb80f3a
achtermannstrasse,"Achtermannstrasse in Berlin, Germany",52.5774418,13.4219117,1,,,,,,,,ForeignMinistry,"Achtermannstrasse in Berlin, Germany",,german_fires_berlin_locations,80901274541b7a45b1590eb9405cbf80,german_fires_berlin_locations__4c301bcc91685f0dde931cfb51bb9021
achtrutenberg,"Achtrutenberg in Berlin, Germany",52.6203226,13.4815155,1,,,,,,,,Media,"Achtrutenberg in Berlin, Germany",,german_fires_berlin_locations,22dae696402fd9a820617738197d1710,german_fires_berlin_locations__b5cea5b5e4ce4f4498ed39e73ee8df50
ackerplanweg,"Ackerplanweg in Berlin, Germany",52.5968211,13.2999959,1,,,,,,,,DiplomaticFacilities,"Ackerplanweg in Berlin, Germany",,german_fires_berlin_locations,da091c04f9ce2b0634fd839107dea90c,german_fires_berlin_locations__f602aba2f1aa44774801485d249ab55c
ackerstrasse,"Ackerstrasse in Berlin, Germany",52.5354643,13.3901136,1,,,,,,,,ForeignMinister,"Ackerstrasse in Berlin, Germany",,german_fires_berlin_locations,5737a13c76d782e2f1e8990ed9f6af9c,german_fires_berlin_locations__987d1debcaf91fce063906a97575964d
adalbertstrasse,"Adalbertstrasse in Berlin, Germany",52.5040693,13.4212471,1,,,,,,,,News,"Adalbertstrasse in Berlin, Germany",,german_fires_berlin_locations,3b07f44a0c3a358ee2f53ce0c8eef5f4,german_fires_berlin_locations__7f49f971a4b277ba7d62bd4fa8b772ec
adam-kuckhoff-platz,"Adam-Kuckhoff-Platz in Berlin, Germany",52.4725707,13.3205448,1,,,,,,,,ForeignMinistry,"Adam-Kuckhoff-Platz in Berlin, Germany",,german_fires_berlin_locations,bceae3322918a7468b2e08dfc57b3f99,german_fires_berlin_locations__4d9e5e7b58d52a0694bd91bf9a9b6e16
adam-von-trott-strasse,"Adam-von-Trott-Strasse in Berlin, Germany",52.5456531,13.3089277,1,,,,,,,,Legislator,"Adam-von-Trott-Strasse in Berlin, Germany",,german_fires_berlin_locations,9455b0c5af804dbe30c58bf4359e8241,german_fires_berlin_locations__cb359e8fc0329e086dcb5c915dad085c
adamstrasse,"Adamstrasse in Berlin, Germany",52.5210192,13.1932895,1,,,,,,,,AAEntity,"Adamstrasse in Berlin, Germany",,german_fires_berlin_locations,c24789438babaac3b4e8f66985d3ea29,german_fires_berlin_locations__05eceb0958e0d9e0e59d92e8cc57584d
adele-sandrock-strasse,"Adele-Sandrock-Strasse in Berlin, Germany",52.5342817,13.6192866,1,,,,,,,,Shipping,"Adele-Sandrock-Strasse in Berlin, Germany",,german_fires_berlin_locations,a1c4c4717d28a1c5482240f5509712e4,german_fires_berlin_locations__fe26017a20bdd38c230cc5da60c60d1b
adele-schreiber-krieger-strasse,"Adele-Schreiber-Krieger-Strasse in Berlin, Germany",52.5209161,13.3778891,1,,,,,,,,DiplomaticFacilities,"Adele-Schreiber-Krieger-Strasse in Berlin, Germany",,german_fires_berlin_locations,0cfebf1f339e5bfc9d1af4d9c21a2797,german_fires_berlin_locations__fac89af06e373b750dc7e7bd8fe4a53d
adelheid-poninska-strasse,"Adelheid-Poninska-Strasse in Berlin, Germany",52.5273406,13.1419893,1,,,,,,,,Keyphrase,"Adelheid-Poninska-Strasse in Berlin, Germany",,german_fires_berlin_locations,1ccf6bc46c9d741c8e3f2594d3eee875,german_fires_berlin_locations__3ef705176460b6ea91ec720182b6f353
adelheidallee,"Adelheidallee in Berlin, Germany",52.5934234,13.2761185,1,,,,,,,,News,"Adelheidallee in Berlin, Germany",,german_fires_berlin_locations,c5202385c06410e90bf25803dc804527,german_fires_berlin_locations__27247591e16a05c2e78021d5ff2604f8
adenauerplatz,"Adenauerplatz in Berlin, Germany",52.5007126,13.3073082,1,,,,,,,,Refinery,"Adenauerplatz in Berlin, Germany",,german_fires_berlin_locations,64f43b2a736b4d6448e3a6ddd229f3f3,german_fires_berlin_locations__ba95718d694c9bb2d41c9820fa65aeec
adersleber weg,"Adersleber Weg in Berlin, Germany",52.5361397,13.5598086,1,,,,,,,,Wells,"Adersleber Weg in Berlin, Germany",,german_fires_berlin_locations,adb7351d69150f74157d486e11624a36,german_fires_berlin_locations__635a542094699c8305a311dd5b32f646
adickesstrasse,"Adickesstrasse in Berlin, Germany",52.5485973,13.2304206,1,,,,,,,,IndustryTerm,"Adickesstrasse in Berlin, Germany",,german_fires_berlin_locations,a3d00838220ea3ce78055f523bde977a,german_fires_berlin_locations__0bdbc80acfbc997634583f65f9829441
adlergestell,"Adlergestell in Berlin, Germany",52.4093497,13.5801626,1,,,,,,,,Consulates,"Adlergestell in Berlin, Germany",,german_fires_berlin_locations,f665b9864ffe29937e471b88487e4c5d,german_fires_berlin_locations__ecf8f733871dfe38804d9e872e4e38ee
adlerhorst,"Adlerhorst in Berlin, Germany",52.3849032,13.6407992,1,,,,,,,,Shipping,"Adlerhorst in Berlin, Germany",,german_fires_berlin_locations,388c38e7deb8f9235c951b7ca55f95b2,german_fires_berlin_locations__7fe0982106190fe6ecde5b13cbdfe17e
adlerplatz,"Adlerplatz in Berlin, Germany",52.5201225,13.2426607,1,,,,,,,,Wells,"Adlerplatz in Berlin, Germany",,german_fires_berlin_locations,54ac005010423f770937ef7b0d7e2636,german_fires_berlin_locations__d6ac70165bdcee989b44576c39472ef9
adlershofer brucke,"Adlershofer Brucke in Berlin, Germany",52.4260417,13.5552367,1,,,,,,,,AAEntity,"Adlershofer Brucke in Berlin, Germany",,german_fires_berlin_locations,112a4407b569304d538fad2381e5ec9a,german_fires_berlin_locations__a3cfbc549b61207885828d3a7ac371a9
adlershofer strasse,"Adlershofer Strasse in Berlin, Germany",52.4422773,13.5670452,1,,,,,,,,IndustryTerm,"Adlershofer Strasse in Berlin, Germany",,german_fires_berlin_locations,958e14311badd4ac2cd68b05d946a6bf,german_fires_berlin_locations__95f071ed95f7d439265249b419ddf45f
adlerstrasse,"Adlerstrasse in Berlin, Germany",52.398618,13.577398,1,,,,,,,,Wells,"Adlerstrasse in Berlin, Germany",,german_fires_berlin_locations,0d458be6c197b54f5d1cc68475a19aeb,german_fires_berlin_locations__cf76927017a37ed8744198a59cbd9258
adlerweg,"Adlerweg in Berlin, Germany",52.5528189,13.2632635,1,,,,,,,,Pipeline,"Adlerweg in Berlin, Germany",,german_fires_berlin_locations,418e62663c4a3d201a77f3a858d04bdb,german_fires_berlin_locations__d820c7f4d4c577293a2c2baaefbe0f71
admiralbrucke,"Admiralbrucke in Berlin, Germany",52.4952683,13.4151036,1,,,,,,,,Keyphrase,"Admiralbrucke in Berlin, Germany",,german_fires_berlin_locations,81d8c38639b07999b8b68d264cf78da7,german_fires_berlin_locations__9494a263e44977d6b4e5ba3c7f3353c7
admiralstrasse,"Admiralstrasse in Berlin, Germany",52.4968491,13.4161464,1,,,,,,,,Person,"Admiralstrasse in Berlin, Germany",,german_fires_berlin_locations,a72f4377a4869a9073bf30614826bd98,german_fires_berlin_locations__74588f7b783273dfb636666326de93d2
adolf-heyden-strasse,"Adolf-Heyden-Strasse in Berlin, Germany",52.4505211,13.5640194,1,,,,,,,,Person,"Adolf-Heyden-Strasse in Berlin, Germany",,german_fires_berlin_locations,847313a727c729e51345899c94734e11,german_fires_berlin_locations__b032ba6d9b0a3dd2605626461f9dd071
adolf-kiepert-steg,"Adolf-Kiepert-Steg in Berlin, Germany",52.3995245,13.3748425,1,,,,,,,,IndustryTerm,"Adolf-Kiepert-Steg in Berlin, Germany",,german_fires_berlin_locations,ce1c8a059529cce1691f08e6e1ef6c1e,german_fires_berlin_locations__8b60e6613d3e0acbc00aea13a5e32dfb
adolf-martens-strasse,"Adolf-Martens-Strasse in Berlin, Germany",52.4432506,13.291368,1,,,,,,,,News,"Adolf-Martens-Strasse in Berlin, Germany",,german_fires_berlin_locations,6345375ec2cc12439f6181a4dd3e7aa8,german_fires_berlin_locations__8843e36eaa36738ed085db270c7a8e44
adolf-menzel-strasse,"Adolf-Menzel-Strasse in Berlin, Germany",52.4946638,13.5753958,1,,,,,,,,Shipping,"Adolf-Menzel-Strasse in Berlin, Germany",,german_fires_berlin_locations,08c1396da6c5943be985a68b4e592e79,german_fires_berlin_locations__b6fb79c29f65750aeabef1506fdf20cc
adolf-scheidt-platz,"Adolf-Scheidt-Platz in Berlin, Germany",52.4781371,13.3790742,1,,,,,,,,Exec,"Adolf-Scheidt-Platz in Berlin, Germany",,german_fires_berlin_locations,3347f0f967c69abebb7f0c427ac36e83,german_fires_berlin_locations__79c95f255c8781f543a6ec5c52846143
adolf-wermuth-allee,"Adolf-Wermuth-Allee in Berlin, Germany",52.5200066,13.404954,1,,,,,,,,LegislativeCommittee,"Adolf-Wermuth-Allee in Berlin, Germany",,german_fires_berlin_locations,c04ee0abb34bb60d0b58c680ed885705,german_fires_berlin_locations__53e4e852bf4c7d3161bd50285edb2eab
adolfstrasse,"Adolfstrasse in Berlin, Germany",52.5465642,13.3669061,1,,,,,,,,CompanyKeyword,"Adolfstrasse in Berlin, Germany",,german_fires_berlin_locations,0fc7884202cd931023cba245d198c397,german_fires_berlin_locations__fc977a8f3787338b274ab818784e6be2
adorfer strasse,"Adorfer Strasse in Berlin, Germany",52.5322209,13.6073643,1,,,,,,,,CompanyKeyword,"Adorfer Strasse in Berlin, Germany",,german_fires_berlin_locations,397adf099a2304a2fc7df14e32ec7375,german_fires_berlin_locations__1854756ef30d9efd0e43999869694d5a
advokatensteig,"Advokatensteig in Berlin, Germany",52.4082982,13.574522,1,,,,,,,,space,"Advokatensteig in Berlin, Germany",,german_fires_berlin_locations,381ff64e6d5060c3a8661d71aa1a0897,german_fires_berlin_locations__50a3169770893eeee34d4c943c6cd2d2
aeg-siedlung heimat,"AEG-Siedlung Heimat in Berlin, Germany",52.6116192,13.3433996,1,,,,,,,,Refinery,"AEG-Siedlung Heimat in Berlin, Germany",,german_fires_berlin_locations,0d81f11e196750c8a91c9e5bad3dd9c0,german_fires_berlin_locations__f150fee2b4e5c2fa3e20c7e346123803
aeg-strasse,"AEG-Strasse in Berlin, Germany",52.6116192,13.3433996,1,,,,,,,,Media,"AEG-Strasse in Berlin, Germany",,german_fires_berlin_locations,ff40e71b916d94d529b35dc6ba570104,german_fires_berlin_locations__10fb45350d70bbbcb3e9e32f22819322
aegirstrasse,"Aegirstrasse in Berlin, Germany",52.5617696,13.3738992,1,,,,,,,,CompanyKeyword,"Aegirstrasse in Berlin, Germany",,german_fires_berlin_locations,4beabdf4245fb61481e0543086cef1c2,german_fires_berlin_locations__7a74b3666c34981403fa557ccf3777f9
affensteinweg,"Affensteinweg in Berlin, Germany",52.5960836,13.3940051,1,,,,,,,,Consulates,"Affensteinweg in Berlin, Germany",,german_fires_berlin_locations,a914ec383e2f3073f25223553004aa64,german_fires_berlin_locations__38e41bda1a6f943fdfed1d965fa6e786
afrikanische strasse,"Afrikanische Strasse in Berlin, Germany",52.553207,13.3364788,1,,,,,,,,DiplomaticFacilities,"Afrikanische Strasse in Berlin, Germany",,german_fires_berlin_locations,e59ef987c28f258d3425084b58b1d334,german_fires_berlin_locations__68bb85db7b2c20f27b1915786fe31847
agathe-lasch-platz,"Agathe-Lasch-Platz in Berlin, Germany",52.4979581,13.2970035,1,,,,,,,,Organization,"Agathe-Lasch-Platz in Berlin, Germany",,german_fires_berlin_locations,ba6dcce24dd3d3b739a48a8984e5edc5,german_fires_berlin_locations__1e793c8f110dbe33072d6603191c1027
agathenweg,"Agathenweg in Berlin, Germany",52.5998092,13.2951775,1,,,,,,,,Wells,"Agathenweg in Berlin, Germany",,german_fires_berlin_locations,fe7194df73011a33593f20b0cfc49de4,german_fires_berlin_locations__27a37128c2db33098bb54ed61040de9f
agavensteig,"Agavensteig in Berlin, Germany",52.4473443,13.4818522,1,,,,,,,,Diplomat,"Agavensteig in Berlin, Germany",,german_fires_berlin_locations,1b3281daa1ff616cfcc95a5b0f5db372,german_fires_berlin_locations__b05dcce252421fefc8afefadb0e7be0c
agnes-hacker-strasse,"Agnes-Hacker-Strasse in Berlin, Germany",52.4071484,13.5407209,1,,,,,,,,space,"Agnes-Hacker-Strasse in Berlin, Germany",,german_fires_berlin_locations,5afae193b66b65ff9d9ba4ad21f58d73,german_fires_berlin_locations__f1de6b0858999aae4076af172917c8a4
agnes-straub-weg,"Agnes-Straub-Weg in Berlin, Germany",52.4248282,13.4822904,1,,,,,,,,Person,"Agnes-Straub-Weg in Berlin, Germany",,german_fires_berlin_locations,309b33ec63bb49ae19fa131a89edc828,german_fires_berlin_locations__9c83df720282c6445695f18d44108de3
agnes-wabnitz-strasse,"Agnes-Wabnitz-Strasse in Berlin, Germany",52.5255301,13.4557581,1,,,,,,,,Wells,"Agnes-Wabnitz-Strasse in Berlin, Germany",,german_fires_berlin_locations,9934843b999957c7056665281f48f3bf,german_fires_berlin_locations__fc0c4358af68736b10d0355f2771f459
agnes-zahn-harnack-strasse,"Agnes-Zahn-Harnack-Strasse in Berlin, Germany",52.5242503,13.3672384,1,,,,,,,,space,"Agnes-Zahn-Harnack-Strasse in Berlin, Germany",,german_fires_berlin_locations,3f3a28b756fb3fd287dd66f7ccd12500,german_fires_berlin_locations__7d726ef8bc3e802a0a1f18df4e3e96dc
agnethaweg,"Agnethaweg in Berlin, Germany",52.5412548,13.506092,1,,,,,,,,CompanyKeyword,"Agnethaweg in Berlin, Germany",,german_fires_berlin_locations,8bb42be983a14bcd38de177d04864982,german_fires_berlin_locations__f2ca4cee838ca11af841aa1aec4e0f48
agricolastrasse,"Agricolastrasse in Berlin, Germany",52.520494,13.3328214,1,,,,,,,,space,"Agricolastrasse in Berlin, Germany",,german_fires_berlin_locations,ed211af61698987257a7bd67773ee373,german_fires_berlin_locations__db38effa45175ba9d9cdef0beb3ad1c1
ahlbecker strasse,"Ahlbecker Strasse in Berlin, Germany",52.5445331,13.4249643,1,,,,,,,,LegislativeCommittee,"Ahlbecker Strasse in Berlin, Germany",,german_fires_berlin_locations,5d9a4ed071e5a45f31b2a6be51ebb03b,german_fires_berlin_locations__70f17948222eeb55eb1bc00a72c3b827
ahlbeerensteig,"Ahlbeerensteig in Berlin, Germany",52.5387939,13.1407353,1,,,,,,,,AAEntity,"Ahlbeerensteig in Berlin, Germany",,german_fires_berlin_locations,133256a3b18d83cbf59fede14df40890,german_fires_berlin_locations__fa001d5db6099bd9456a600f84fbe116
ahlener weg,"Ahlener Weg in Berlin, Germany",52.4093041,13.3045506,1,,,,,,,,ForeignMinistry,"Ahlener Weg in Berlin, Germany",,german_fires_berlin_locations,03504fa5e9685753e3414dbf4d18fcad,german_fires_berlin_locations__420e7884665ae2fd6104b47cd0dceef9
ahornallee,"Ahornallee in Berlin, Germany",52.514308,13.2760835,1,,,,,,,,Person,"Ahornallee in Berlin, Germany",,german_fires_berlin_locations,9bc40ac2518302200bbf063741719414,german_fires_berlin_locations__17f3cd6068b3178f87776505b059c4e6
ahornsteig,"Ahornsteig in Berlin, Germany",52.5126358,13.3705725,1,,,,,,,,ForeignMinistry,"Ahornsteig in Berlin, Germany",,german_fires_berlin_locations,2bfc8707b6b26d392b5ae53f244badcc,german_fires_berlin_locations__b3196535bdafca0ed981511b003df1a6
ahornstrasse,"Ahornstrasse in Berlin, Germany",52.4611556,13.3213371,1,,,,,,,,Wells,"Ahornstrasse in Berlin, Germany",,german_fires_berlin_locations,0f0cb5355cb7f107f445dca42f2d9d67,german_fires_berlin_locations__149d5bd0c94e32261fc036b4f156f6f2
ahornweg,"Ahornweg in Berlin, Germany",52.5776303,13.5323855,1,,,,,,,,Organization,"Ahornweg in Berlin, Germany",,german_fires_berlin_locations,c416f23aa53455670258ba8f78de66d6,german_fires_berlin_locations__2af492d6c1c30eb5c8e343f8fceaf0cd
ahrensdorfer strasse,"Ahrensdorfer Strasse in Berlin, Germany",52.4087453,13.3572316,1,,,,,,,,Refinery,"Ahrensdorfer Strasse in Berlin, Germany",,german_fires_berlin_locations,f4d43c34d07fe85041ded220cb73bb29,german_fires_berlin_locations__8867e2a73ca230f62f466f0ec02c0216
ahrensfelder chaussee,"Ahrensfelder Chaussee in Berlin, Germany",52.570373,13.5563498,1,,,,,,,,Consulates,"Ahrensfelder Chaussee in Berlin, Germany",,german_fires_berlin_locations,58de3ef9551e5a228215b36777915839,german_fires_berlin_locations__0b1f430da62a28367bbc571b7f28ee9e
ahrensfelder platz,"Ahrensfelder Platz in Berlin, Germany",52.5702079,13.5659175,1,,,,,,,,Media,"Ahrensfelder Platz in Berlin, Germany",,german_fires_berlin_locations,b57cc518fecbb8c243aa5480e80ca6e2,german_fires_berlin_locations__10d2efa57932712e47dfed9fa717d92a
ahrenshooper strasse,"Ahrenshooper Strasse in Berlin, Germany",52.5683246,13.5024691,1,,,,,,,,ForeignMinistry,"Ahrenshooper Strasse in Berlin, Germany",,german_fires_berlin_locations,1c78eb5bdfb00b1d0d75d50c4b319d3b,german_fires_berlin_locations__4eec093250cca899f2d51ae19c14f76b
ahrenshooper zeile,"Ahrenshooper Zeile in Berlin, Germany",52.4365505,13.2228409,1,,,,,,,,Media,"Ahrenshooper Zeile in Berlin, Germany",,german_fires_berlin_locations,d7b5488b2c034c8cb1c48efd046591ac,german_fires_berlin_locations__3ccd4802acb87e81cde201fefd708fad
ahrenweg,"ahrenweg in Berlin, Germany",52.5151545,13.5618865,1,,,,,,,,Refinery,"ahrenweg in Berlin, Germany",,german_fires_berlin_locations,513c18bb7d6b8c7e77dcc60fd57b68ef,german_fires_berlin_locations__037bb12ef524b64dd059f5d7dd9a4718
ahrweilerstrasse,"Ahrweilerstrasse in Berlin, Germany",52.4717553,13.3169608,1,,,,,,,,Exec,"Ahrweilerstrasse in Berlin, Germany",,german_fires_berlin_locations,e87b599cd5661d06d3e2eebad8193b1d,german_fires_berlin_locations__3c1c786c946b5664c0c2f57e0e1ba735
aiblinger weg,"Aiblinger Weg in Berlin, Germany",52.4573446,13.1350368,1,,,,,,,,ForeignMinister,"Aiblinger Weg in Berlin, Germany",,german_fires_berlin_locations,d23a1ad1af3f9198dd4e260e62437338,german_fires_berlin_locations__0cb2ab9ac208f7e6de7fba5c450b4d05
aidastrasse,"Aidastrasse in Berlin, Germany",52.5665626,13.436383,1,,,,,,,,IndustryTerm,"Aidastrasse in Berlin, Germany",,german_fires_berlin_locations,91842f55f3b61e7222665b38dd307994,german_fires_berlin_locations__225767f7f0926d585dd8f408688fbcb8
akademieplatz,"Akademieplatz in Berlin, Germany",52.5162746,13.3777041,1,,,,,,,,Person,"Akademieplatz in Berlin, Germany",,german_fires_berlin_locations,2260ef050d9842adc6c6e28191e6dbcc,german_fires_berlin_locations__7dbd7ada268bb05916bd07692673dc86
akazienallee,"Akazienallee in Berlin, Germany",52.5192249,13.2693158,1,,,,,,,,Wells,"Akazienallee in Berlin, Germany",,german_fires_berlin_locations,89c40096c89b5421b62c96d3d55af588,german_fires_berlin_locations__238c149e8fbf9fbe1322a0848a2994f6
akazienhof,"Akazienhof in Berlin, Germany",52.4116129,13.5684715,1,,,,,,,,Wells,"Akazienhof in Berlin, Germany",,german_fires_berlin_locations,6d8bc98ca860734fc6edcb3afa66a501,german_fires_berlin_locations__d4538f2ba6d593191f43c15b7599d877
akazienstrasse,"Akazienstrasse in Berlin, Germany",52.4880854,13.3541995,1,,,,,,,,Organization,"Akazienstrasse in Berlin, Germany",,german_fires_berlin_locations,0953d928dc8d13f99bac457a84bb93ae,german_fires_berlin_locations__80c50cfb0802b3886879f3f5051e2e39
akazienweg,"Akazienweg in Berlin, Germany",52.5694672,13.2067046,1,,,,,,,,Keyphrase,"Akazienweg in Berlin, Germany",,german_fires_berlin_locations,b934a01b6651e3052ddb018ed680d013,german_fires_berlin_locations__c67245ab9bee6a13c7ac554c0baa9f92
akeleiweg,"Akeleiweg in Berlin, Germany",52.4333387,13.5077768,1,,,,,,,,Legislator,"Akeleiweg in Berlin, Germany",,german_fires_berlin_locations,438396451fd52ed9a624647df4645df1,german_fires_berlin_locations__a2f95c61dfd8326f493469a2a7be3652
akkordeonweg,"Akkordeonweg in Berlin, Germany",52.5916996,13.4264352,1,,,,,,,,Diplomat,"Akkordeonweg in Berlin, Germany",,german_fires_berlin_locations,457f9fe297f76cb032dca1d55f3167e7,german_fires_berlin_locations__74517f256dbf3a4a604e671017d1a289
aladinweg,"Aladinweg in Berlin, Germany",52.5219814,13.413306,1,,,,,,,,Exec,"Aladinweg in Berlin, Germany",,german_fires_berlin_locations,059b53afb91e05ef8dad8aeede9d2c71,german_fires_berlin_locations__db289f5326e7a48b5593fcc4145a19fc
alarichplatz,"Alarichplatz in Berlin, Germany",52.4535548,13.3762241,1,,,,,,,,Exec,"Alarichplatz in Berlin, Germany",,german_fires_berlin_locations,a06b6dd9b8382a57a4376af1bdadf352,german_fires_berlin_locations__b437429e90476f74ca761a106d20fcaf
alarichstrasse,"Alarichstrasse in Berlin, Germany",52.4542636,13.3766331,1,,,,,,,,Pipeline,"Alarichstrasse in Berlin, Germany",,german_fires_berlin_locations,152b8741193d01f8cd718537ff58d542,german_fires_berlin_locations__73c3d130e8f7d47b9a0f8afa121edca5
albanstrasse,"Albanstrasse in Berlin, Germany",52.415463,13.3786526,1,,,,,,,,Legislator,"Albanstrasse in Berlin, Germany",,german_fires_berlin_locations,0680cbfc120e1d03dce9a49f9cb3f789,german_fires_berlin_locations__ce092e6adce08ba8780b360172f7f3cf
alberichstrasse,"Alberichstrasse in Berlin, Germany",52.4850635,13.5580198,1,,,,,,,,Wells,"Alberichstrasse in Berlin, Germany",,german_fires_berlin_locations,780dd19af7fb1a56e8a9687c139df72d,german_fires_berlin_locations__7578783a94e442f4f4c145496d51e620
albersweilerweg,"Albersweilerweg in Berlin, Germany",52.4226124,13.4226822,1,,,,,,,,FTO,"Albersweilerweg in Berlin, Germany",,german_fires_berlin_locations,4b5607a8ce0b1d8b1b855c1f3ede3473,german_fires_berlin_locations__0275dd40f8ba2d26158f5b0aad888c09
albert-einstein-strasse,"Albert-Einstein-Strasse in Berlin, Germany",52.4293813,13.5336419,1,,,,,,,,Exec,"Albert-Einstein-Strasse in Berlin, Germany",,german_fires_berlin_locations,2af2ded13ddcac9763ba040fc74d635b,german_fires_berlin_locations__6b10509941cb425bff689dd8959b7f46
albert-hossler-strasse,"Albert-Hossler-Strasse in Berlin, Germany",52.5097444,13.4877271,1,,,,,,,,DiplomaticFacilities,"Albert-Hossler-Strasse in Berlin, Germany",,german_fires_berlin_locations,f749fd6197646ae9c51bc57ab298139b,german_fires_berlin_locations__7b043d7b27a204c5f727945fc9a5f7c5
albert-kuntz-strasse,"Albert-Kuntz-Strasse in Berlin, Germany",52.5370641,13.6174504,1,,,,,,,,Shipping,"Albert-Kuntz-Strasse in Berlin, Germany",,german_fires_berlin_locations,7f392e5260523b62ee3c3e1b7d814884,german_fires_berlin_locations__cc7e7551b858c13e3ef0e5fb677532dd
albert-schweitzer-platz,"Albert-Schweitzer-Platz in Berlin, Germany",52.4851362,13.4263969,1,,,,,,,,Consulates,"Albert-Schweitzer-Platz in Berlin, Germany",,german_fires_berlin_locations,2ae30b665c51df85c0f2f0b5887039f6,german_fires_berlin_locations__1a6ca5729bde122649b2ca96ee4a369e
albert-schweitzer-strasse,"Albert-Schweitzer-Strasse in Berlin, Germany",52.4540538,13.6226259,1,,,,,,,,LegislativeCommittee,"Albert-Schweitzer-Strasse in Berlin, Germany",,german_fires_berlin_locations,0f69b80ac847cc408e09582a4ce9b0d6,german_fires_berlin_locations__edafb10ffd65d54c20042d1d2a8ac2a9
albertinenstrasse,"Albertinenstrasse in Berlin, Germany",52.5519854,13.4595215,1,,,,,,,,Exec,"Albertinenstrasse in Berlin, Germany",,german_fires_berlin_locations,2d36ee245236ddcce9997a7802360be2,german_fires_berlin_locations__06f779cf6f531ada5758b7176568db9f
albertstrasse,"Albertstrasse in Berlin, Germany",52.4836025,13.3540406,1,,,,,,,,CompanyKeyword,"Albertstrasse in Berlin, Germany",,german_fires_berlin_locations,8c9afecd8004d5dbd4479c0324859a3f,german_fires_berlin_locations__0345b6288f1e8e2691dd4ae7402bbf01
albestrasse,"Albestrasse in Berlin, Germany",52.4734639,13.3327053,1,,,,,,,,Person,"Albestrasse in Berlin, Germany",,german_fires_berlin_locations,eb7c48c737fecfdebaf7f646737fb258,german_fires_berlin_locations__f31b4947379d4e66692b123b77dcc824
albiger weg,"Albiger Weg in Berlin, Germany",52.4283784,13.2056576,1,,,,,,,,Pipeline,"Albiger Weg in Berlin, Germany",,german_fires_berlin_locations,0db20196af2ecb57901cd7c617cdb4ad,german_fires_berlin_locations__9452da605b3f6a4b2dbd9c49eefe684d
albineaplatz,"Albineaplatz in Berlin, Germany",52.4449721,13.5045203,1,,,,,,,,Pipeline,"Albineaplatz in Berlin, Germany",,german_fires_berlin_locations,a270eab0dd0a9920bf465896e22200d7,german_fires_berlin_locations__7d1ecb29157018c3652f2e9d79eaa12d
alboinplatz,"Alboinplatz in Berlin, Germany",52.4593743,13.3708584,1,,,,,,,,AAEntity,"Alboinplatz in Berlin, Germany",,german_fires_berlin_locations,fbd2e7979077d2484c2a56a9516574a5,german_fires_berlin_locations__5cf1524199f37baae793dbb4f3bb977b
alboinstrasse,"Alboinstrasse in Berlin, Germany",52.462967,13.3699612,1,,,,,,,,ForeignMinister,"Alboinstrasse in Berlin, Germany",,german_fires_berlin_locations,16ac0d832d8d41a661b18333d9a66ee1,german_fires_berlin_locations__ef328fdbe38938d1625caa39380b74d5
albrecht-achilles-strasse,"Albrecht-Achilles-Strasse in Berlin, Germany",52.4966156,13.3034698,1,,,,,,,,Organization,"Albrecht-Achilles-Strasse in Berlin, Germany",,german_fires_berlin_locations,444e590c4731db5bbc198d777e0675e4,german_fires_berlin_locations__a59d01ea0ddd398ebdb45ed2e2193a6a
albrecht-berblinger-strasse,"Albrecht-Berblinger-Strasse in Berlin, Germany",52.4745935,13.1313563,1,,,,,,,,AAEntity,"Albrecht-Berblinger-Strasse in Berlin, Germany",,german_fires_berlin_locations,0bddda2aaf2b93c392ef6aa5cfb09d3a,german_fires_berlin_locations__66f0210d4cf5d701a7199459c0af30d6
albrecht-durer-strasse,"Albrecht-Durer-Strasse in Berlin, Germany",52.5208273,13.6278912,1,,,,,,,,Legislator,"Albrecht-Durer-Strasse in Berlin, Germany",,german_fires_berlin_locations,57b8263df825930f6ccf1363dce85da5,german_fires_berlin_locations__64b3e5e80324ea5c5a9f1f217f63488f
albrecht-thaer-weg,"Albrecht-Thaer-Weg in Berlin, Germany",52.466793,13.299571,1,,,,,,,,IndustryTerm,"Albrecht-Thaer-Weg in Berlin, Germany",,german_fires_berlin_locations,799b536420ef2ff84d10856824c0306b,german_fires_berlin_locations__57d47c268abfc9ed85db074c39886caf
albrechts teerofen,"Albrechts Teerofen in Berlin, Germany",52.3959695,13.1656309,1,,,,,,,,Wells,"Albrechts Teerofen in Berlin, Germany",,german_fires_berlin_locations,22df868f6f239c0efbb57a07e12cd917,german_fires_berlin_locations__b20e18686ce4fb2203a04ff630954361
albrechtshofer weg,"Albrechtshofer Weg in Berlin, Germany",52.5512641,13.13771,1,,,,,,,,Wells,"Albrechtshofer Weg in Berlin, Germany",,german_fires_berlin_locations,55393f4f9ac08471362e58787439cb5c,german_fires_berlin_locations__9fd724235508f15a1c1e9ab3029cc5f1
albrechtstrasse,"Albrechtstrasse in Berlin, Germany",52.5222786,13.3844267,1,,,,,,,,Diplomat,"Albrechtstrasse in Berlin, Germany",,german_fires_berlin_locations,50b6a6182052f975968e656ae15d15fb,german_fires_berlin_locations__d2f2a589227e5013f876130053520856
albtalweg,"Albtalweg in Berlin, Germany",52.611171,13.3329509,1,,,,,,,,Consulates,"Albtalweg in Berlin, Germany",,german_fires_berlin_locations,6513ffc618895d43949e76ea453b99d3,german_fires_berlin_locations__7c07d513a88bc9ff88b6385db94b6f8a
albulaweg,"Albulaweg in Berlin, Germany",52.4233263,13.4002206,1,,,,,,,,Legislator,"Albulaweg in Berlin, Germany",,german_fires_berlin_locations,ebe5ad834bad24b48004af320a389e5f,german_fires_berlin_locations__98a12e644f21c1ec706141a99981edd2
alemannenallee,"Alemannenallee in Berlin, Germany",52.5082508,13.266592,1,,,,,,,,CompanyKeyword,"Alemannenallee in Berlin, Germany",,german_fires_berlin_locations,e047ec6a1cc946bdd31771753d3b8700,german_fires_berlin_locations__a9f3ec0c53a92dc40b246776e7eb3ab1
alemannenbrucke,"Alemannenbrucke in Berlin, Germany",52.5176509,13.3985147,1,,,,,,,,Organization,"Alemannenbrucke in Berlin, Germany",,german_fires_berlin_locations,93ac911e9c8ce98038f68c3bed60d77f,german_fires_berlin_locations__74de4e3e3896434f0714c50743bfeda5
alemannenstrasse,"Alemannenstrasse in Berlin, Germany",52.6333889,13.2809483,1,,,,,,,,AAEntity,"Alemannenstrasse in Berlin, Germany",,german_fires_berlin_locations,9a48c0d5f29d46fd4cad21dd4f073a3b,german_fires_berlin_locations__c383895d79fc247025e7ab5566c72a77
alex-wedding-strasse,"Alex-Wedding-Strasse in Berlin, Germany",52.5246371,13.414562,1,,,,,,,,Legislator,"Alex-Wedding-Strasse in Berlin, Germany",,german_fires_berlin_locations,f9e42a46179fcf4bf946ceb4a6b2433b,german_fires_berlin_locations__8b13a31b3323326497b0dc3d93e2a2a0
alexander-meissner-strasse,"Alexander-Meissner-Strasse in Berlin, Germany",52.3935205,13.5445996,1,,,,,,,,AAEntity,"Alexander-Meissner-Strasse in Berlin, Germany",,german_fires_berlin_locations,53ff066b53ae4c8afb4249eaccd39fd8,german_fires_berlin_locations__65ecc0bbbcb8b62b9f4ce807bd723c9a
alexander-von-humboldt-weg,"Alexander-von-Humboldt-Weg in Berlin, Germany",52.433776,13.5262443,1,,,,,,,,ForeignMinistry,"Alexander-von-Humboldt-Weg in Berlin, Germany",,german_fires_berlin_locations,68915c048aa62a73ba2eeeec528b0f88,german_fires_berlin_locations__ff150f10634c23bd5842649e3fbecb9a
alexanderplatz,"Alexanderplatz in Berlin, Germany",52.5219814,13.413306,1,,,,,,,,IndustryTerm,"Alexanderplatz in Berlin, Germany",,german_fires_berlin_locations,ace0b7aa6fc706fc94912cfc3b8145d9,german_fires_berlin_locations__79fab57f7ff47bef859c846c7f3797f4
alexanderstrasse,"Alexanderstrasse in Berlin, Germany",52.5196286,13.4165365,1,,,,,,,,Wells,"Alexanderstrasse in Berlin, Germany",,german_fires_berlin_locations,d22c4c6dc8662fdd7533191f98a8fcf7,german_fires_berlin_locations__fef40bae7f3ec696c536402d8961cf2f
alexanderufer,"Alexanderufer in Berlin, Germany",52.5257741,13.3737609,1,,,,,,,,Shipping,"Alexanderufer in Berlin, Germany",,german_fires_berlin_locations,b424ece64b7b15d82b4022950b48220c,german_fires_berlin_locations__c78a22c7acb06bc9a42be408e2a2d363
alexandrinenstrasse,"Alexandrinenstrasse in Berlin, Germany",52.5026468,13.4030546,1,,,,,,,,Media,"Alexandrinenstrasse in Berlin, Germany",,german_fires_berlin_locations,0600dc247e8d6872bfa7be65d10f4fa2,german_fires_berlin_locations__ac1ae33f93b306fede52d660aae4c822
alfelder strasse,"Alfelder Strasse in Berlin, Germany",52.4926477,13.5573263,1,,,,,,,,Shipping,"Alfelder Strasse in Berlin, Germany",,german_fires_berlin_locations,c506a52a154aec0ab50ba9df0a40192d,german_fires_berlin_locations__e2bbff31d3fef94667425f562429e124
alfons-loewe-strasse,"Alfons-Loewe-Strasse in Berlin, Germany",52.5503844,13.1343267,1,,,,,,,,Organization,"Alfons-Loewe-Strasse in Berlin, Germany",,german_fires_berlin_locations,6e8db93628625c38d4411cc866e5a667,german_fires_berlin_locations__1d52dedd98e1a78a7971502d23212e21
alfonsstrasse,"Alfonsstrasse in Berlin, Germany",52.416305,13.5276432,1,,,,,,,,Shipping,"Alfonsstrasse in Berlin, Germany",,german_fires_berlin_locations,6afcda16195c86eb7306116272aa5139,german_fires_berlin_locations__4ca276f23f7cddd0e339e2d9b32f447f
alfred-balen-weg,"Alfred-Balen-Weg in Berlin, Germany",52.5193209,13.1885584,1,,,,,,,,LegislativeCommittee,"Alfred-Balen-Weg in Berlin, Germany",,german_fires_berlin_locations,6c8c227965c0c4ad22d2ff6b470f85fa,german_fires_berlin_locations__ed04b86618a86b8073075bb33b890c0a
alfred-doblin-platz,"Alfred-Doblin-Platz in Berlin, Germany",52.5041858,13.4145918,1,,,,,,,,Media,"Alfred-Doblin-Platz in Berlin, Germany",,german_fires_berlin_locations,dcb85dabfecd1665d03980906ac1d4b7,german_fires_berlin_locations__3a70151c080c4a0088892fb3c6bcd05a
alfred-doblin-strasse,"Alfred-Doblin-Strasse in Berlin, Germany",52.5517687,13.5517643,1,,,,,,,,IndustryTerm,"Alfred-Doblin-Strasse in Berlin, Germany",,german_fires_berlin_locations,bac27e1a4a1b9428721c48dfcf94a6c0,german_fires_berlin_locations__a516413e7890c85e0f2614b2efe35a45
alfred-grenander-platz,"Alfred-Grenander-Platz in Berlin, Germany",52.4426907,13.2403336,1,,,,,,,,Wells,"Alfred-Grenander-Platz in Berlin, Germany",,german_fires_berlin_locations,c763eea77639dd6a40f4b751561a6f0e,german_fires_berlin_locations__9c949776b8168165854e16439a48d444
alfred-jung-strasse,"Alfred-Jung-Strasse in Berlin, Germany",52.5222541,13.4772333,1,,,,,,,,space,"Alfred-Jung-Strasse in Berlin, Germany",,german_fires_berlin_locations,e33c716961430125f24951d308a042ab,german_fires_berlin_locations__0e75a251cb2d8b294c4496821428f0a1
alfred-kowalke-strasse,"Alfred-Kowalke-Strasse in Berlin, Germany",52.5058723,13.5187087,1,,,,,,,,Refinery,"Alfred-Kowalke-Strasse in Berlin, Germany",,german_fires_berlin_locations,447408c63b3bbf4c720f95656cc21e46,german_fires_berlin_locations__7858a076455439f96c04854a3eecf749
alfred-lion-steg,"Alfred-Lion-Steg in Berlin, Germany",52.4809292,13.3675345,1,,,,,,,,Exec,"Alfred-Lion-Steg in Berlin, Germany",,german_fires_berlin_locations,bed81073d9150f4876934cb5c7c33aa8,german_fires_berlin_locations__d9367155a36b3a0bba3c18647379aba7
alfred-randt-strasse,"Alfred-Randt-Strasse in Berlin, Germany",52.4397839,13.6018061,1,,,,,,,,CompanyKeyword,"Alfred-Randt-Strasse in Berlin, Germany",,german_fires_berlin_locations,adfa10dc1fcd72a59a867e4f608be50a,german_fires_berlin_locations__ca84b82eab5d9a2ecb40be72e81a90f5
alfred-rojek-weg,"Alfred-Rojek-Weg in Berlin, Germany",52.4211409,13.5087361,1,,,,,,,,Exec,"Alfred-Rojek-Weg in Berlin, Germany",,german_fires_berlin_locations,b6a11561d604fa31059c0adf1284c89a,german_fires_berlin_locations__e224e4ce2a2bef750004d7d25c221557
alfred-scholz-platz,"Alfred-Scholz-Platz in Berlin, Germany",52.4793239,13.4374919,1,,,,,,,,Exec,"Alfred-Scholz-Platz in Berlin, Germany",,german_fires_berlin_locations,aac61ff82b9a71428a113d3339c9eb4c,german_fires_berlin_locations__5e640a352e3a74ef2f38198848265a31
alfred-siggel-weg,"Alfred-Siggel-Weg in Berlin, Germany",52.4745149,13.5369138,1,,,,,,,,News,"Alfred-Siggel-Weg in Berlin, Germany",,german_fires_berlin_locations,5ccbbe93b1a7dc6913233ee9938eb3b5,german_fires_berlin_locations__13efaa53ffe8cd54a6645f4c4fd6b33f
alfredstrasse,"Alfredstrasse in Berlin, Germany",52.5135009,13.4900171,1,,,,,,,,space,"Alfredstrasse in Berlin, Germany",,german_fires_berlin_locations,8b058a7f8c105ee72e92ca7f69e4bd3d,german_fires_berlin_locations__0474e08f851a7e8f66b17038426f33e3
alice-archenhold-weg,"Alice-Archenhold-Weg in Berlin, Germany",52.4533466,13.5387982,1,,,,,,,,Diplomat,"Alice-Archenhold-Weg in Berlin, Germany",,german_fires_berlin_locations,fcd9fa33115cdda98dbe19058f4b87ca,german_fires_berlin_locations__6bbdecd4c855e0ab7caeb251f38667e9
alice-berend-strasse,"Alice-Berend-Strasse in Berlin, Germany",52.5201803,13.3585194,1,,,,,,,,AAEntity,"Alice-Berend-Strasse in Berlin, Germany",,german_fires_berlin_locations,317bb9c834dc767b0048214ab43a9587,german_fires_berlin_locations__5d181af7aef833ac76a0243c5c1f8b0f
alice-herz-platz,"Alice-Herz-Platz in Berlin, Germany",52.5140559,13.6074915,1,,,,,,,,Refinery,"Alice-Herz-Platz in Berlin, Germany",,german_fires_berlin_locations,89e35cfd29641cd2c7695ac26b45f897,german_fires_berlin_locations__ac94678664573b8c27ba7fc29bad63cd
alice-salomon-platz,"Alice-Salomon-Platz in Berlin, Germany",52.5368921,13.6037299,1,,,,,,,,Keyphrase,"Alice-Salomon-Platz in Berlin, Germany",,german_fires_berlin_locations,5f02b2b0423c580d6bee1a0c78f60b5e,german_fires_berlin_locations__8753169a95e009d9bba373631523e504
alice-und-hella-hirsch-ring,"Alice-und-Hella-Hirsch-Ring in Berlin, Germany",52.4966673,13.482199,1,,,,,,,,Diplomat,"Alice-und-Hella-Hirsch-Ring in Berlin, Germany",,german_fires_berlin_locations,398b80d92f341ca64982d31ababa6913,german_fires_berlin_locations__423ae8e78afd3e4d3e71834cb7689bc1
alkenweg,"Alkenweg in Berlin, Germany",52.4254695,13.5709671,1,,,,,,,,LegislativeCommittee,"Alkenweg in Berlin, Germany",,german_fires_berlin_locations,a0cad3049146b166d47468ca31c1edc4,german_fires_berlin_locations__6ab0124fd16da38bae10d33b7d71a614
allee der kosmonauten,"Allee der Kosmonauten in Berlin, Germany",52.5312225,13.5472907,1,,,,,,,,Legislator,"Allee der Kosmonauten in Berlin, Germany",,german_fires_berlin_locations,613844667680c57716ff655abe75ec11,german_fires_berlin_locations__0f0c4ae8eecb4979e800cd810db3c4f7
allee du stade,"Allee du Stade in Berlin, Germany",52.5521871,13.3085568,1,,,,,,,,Organization,"Allee du Stade in Berlin, Germany",,german_fires_berlin_locations,53c4212c6acb816c508c2f7d15f39156,german_fires_berlin_locations__cc71369bd045b3f6b6bd9f9303aabe36
allee marie curie,"Allee Marie Curie in Berlin, Germany",52.5050779,13.5004291,1,,,,,,,,FTO,"Allee Marie Curie in Berlin, Germany",,german_fires_berlin_locations,7cdce0fdd503d2ba28ddc29468e1c341,german_fires_berlin_locations__18ae5c98e71f1b8312a61a9477c036b4
allee pierre de coubertin,"Allee Pierre de Coubertin in Berlin, Germany",45.5834625,-73.6114605,1,,,,,,,,ForeignMinistry,"Allee Pierre de Coubertin in Berlin, Germany",,german_fires_berlin_locations,19f4fea72a914ef2e7370de914f75367,german_fires_berlin_locations__7478138642c75961860133da776559a8
allee st. exupéry,"Allee St. Exupéry in Berlin, Germany",52.569515,13.2975298,1,,,,,,,,Legislator,"Allee St. Exupéry in Berlin, Germany",,german_fires_berlin_locations,0c05133fee6a062c2b35172ffa81a057,german_fires_berlin_locations__50e779681d117d5032807b5e7a1e7654
allendeweg,"Allendeweg in Berlin, Germany",52.4436948,13.5865545,1,,,,,,,,LegislativeCommittee,"Allendeweg in Berlin, Germany",,german_fires_berlin_locations,74c9419ef1e4359f3983a277c3299848,german_fires_berlin_locations__f1aca24b6b61e160818165eb1d985aa0
allendorfer weg,"Allendorfer Weg in Berlin, Germany",52.5366718,13.5171174,1,,,,,,,,CompanyKeyword,"Allendorfer Weg in Berlin, Germany",,german_fires_berlin_locations,16f4eaf5e6ba765599077702d0b49f07,german_fires_berlin_locations__634538397620e5140adbb6dff039f201
allerstrasse,"Allerstrasse in Berlin, Germany",52.4747168,13.4230288,1,,,,,,,,Exec,"Allerstrasse in Berlin, Germany",,german_fires_berlin_locations,078cdda62981cf0a0e8d47d50157e57b,german_fires_berlin_locations__175cdc3a522088e131fbcf4074061b7c
allgauer weg,"Allgauer Weg in Berlin, Germany",52.4369335,13.4004476,1,,,,,,,,Shipping,"Allgauer Weg in Berlin, Germany",,german_fires_berlin_locations,e82b392418c31b10a5e169c55851ed0e,german_fires_berlin_locations__a82c17b04fd6009598ea27b06fd989cc
allmendeweg,"Allmendeweg in Berlin, Germany",52.602989,13.2992858,1,,,,,,,,Keyphrase,"Allmendeweg in Berlin, Germany",,german_fires_berlin_locations,0373e4b8bc91edd256c420d7f5b7bcc1,german_fires_berlin_locations__cd63f38ed7b0853292738bcf972f7b6d
allmersweg,"Allmersweg in Berlin, Germany",52.4514504,13.5110616,1,,,,,,,,Wells,"Allmersweg in Berlin, Germany",,german_fires_berlin_locations,b055eabf8f1596259d7ac391118ba434,german_fires_berlin_locations__568e62b6735412ac90af815cf14e4bbc
almazeile,"Almazeile in Berlin, Germany",52.5701062,13.2302182,1,,,,,,,,Organization,"Almazeile in Berlin, Germany",,german_fires_berlin_locations,f787b003deaf694f567de2b6ca4961f2,german_fires_berlin_locations__719bd1ba66d07d2175310a55ca25e00a
almstadtstrasse,"Almstadtstrasse in Berlin, Germany",52.5263261,13.4097004,1,,,,,,,,Shipping,"Almstadtstrasse in Berlin, Germany",,german_fires_berlin_locations,0c3c1ab3777e1627a544b5ce074a6b3b,german_fires_berlin_locations__69c9491d1f8fc7053ab3567589daac76
almutstrasse,"Almutstrasse in Berlin, Germany",52.614941,13.3181982,1,,,,,,,,Wells,"Almutstrasse in Berlin, Germany",,german_fires_berlin_locations,277f4d585b376fa6ab639c96e64b68de,german_fires_berlin_locations__a6d5f969145f162001400a6517c738ef
almweg,"Almweg in Berlin, Germany",52.4305737,13.4033488,1,,,,,,,,Person,"Almweg in Berlin, Germany",,german_fires_berlin_locations,5cc34caed1748e1e8e78f71203e4879c,german_fires_berlin_locations__44bd3dfc92577db2751fbe46636c4f11
aloisiusweg,"Aloisiusweg in Berlin, Germany",52.5096488,13.3759441,1,,,,,,,,DiplomaticFacilities,"Aloisiusweg in Berlin, Germany",,german_fires_berlin_locations,28f8ce5c6d8f2142ae01aa3df7d3e6a6,german_fires_berlin_locations__75686e313a2f39d4902d830dec7ff41d
alpenberger strasse,"Alpenberger Strasse in Berlin, Germany",52.6365086,13.5191889,1,,,,,,,,Wells,"Alpenberger Strasse in Berlin, Germany",,german_fires_berlin_locations,090405677f944a1aae9a7565d157d248,german_fires_berlin_locations__2e0bd28cb6b7dc2b6812da48458a69b8
alpenrosenweg,"Alpenrosenweg in Berlin, Germany",52.4511316,13.4835688,1,,,,,,,,Pipeline,"Alpenrosenweg in Berlin, Germany",,german_fires_berlin_locations,20e6f31eaa8745a7be74a5b6c4fa6b74,german_fires_berlin_locations__b50c7385825bac47cc25cdfda978707a
alpenveilchenweg,"Alpenveilchenweg in Berlin, Germany",52.5025777,13.5748503,1,,,,,,,,Person,"Alpenveilchenweg in Berlin, Germany",,german_fires_berlin_locations,702ce75ef8c7935c9289bb3c955ade72,german_fires_berlin_locations__adae27d974f802e4b28505ee6b02f824
alpnacher weg,"Alpnacher Weg in Berlin, Germany",52.5689945,13.4489824,1,,,,,,,,FTO,"Alpnacher Weg in Berlin, Germany",,german_fires_berlin_locations,4b9e92ac624b8b9ca81d457bdc42f7e8,german_fires_berlin_locations__bbb42c4885b9b6c35a66793aa101d6ca
alsaceweg,"Alsaceweg in Berlin, Germany",52.6032973,13.4058741,1,,,,,,,,Refinery,"Alsaceweg in Berlin, Germany",,german_fires_berlin_locations,b13c7289d637aec745238771077d0cab,german_fires_berlin_locations__b3366c03e5ac1e8a63ffcfc66ae14f78
alsbacher weg,"Alsbacher Weg in Berlin, Germany",52.4488441,13.2365744,1,,,,,,,,Refinery,"Alsbacher Weg in Berlin, Germany",,german_fires_berlin_locations,a9c08934e5565bc9411cbfad244f7a58,german_fires_berlin_locations__9c028e35bdeb2424c880acf6c5bc464a
alsenbrucke,"Alsenbrucke in Berlin, Germany",52.4963434,13.4637391,1,,,,,,,,ForeignMinister,"Alsenbrucke in Berlin, Germany",,german_fires_berlin_locations,8d948158c8fe08a68b58d0294eede879,german_fires_berlin_locations__b3a9ff984629215ae569af82686bc9fd
alsenstrasse,"Alsenstrasse in Berlin, Germany",52.414133,13.148384,1,,,,,,,,Person,"Alsenstrasse in Berlin, Germany",,german_fires_berlin_locations,6922432f90194ba2b5c5e7da4e0fb334,german_fires_berlin_locations__113c29c83c396243944d57a9daa63596
alsenzer weg,"Alsenzer Weg in Berlin, Germany",52.4108267,13.6564471,1,,,,,,,,Media,"Alsenzer Weg in Berlin, Germany",,german_fires_berlin_locations,0604dc10cadb208a5cb6f24fb31fbcc1,german_fires_berlin_locations__d73d28e63d8cb1e28976605cc3e18558
alsheimer strasse,"Alsheimer Strasse in Berlin, Germany",52.4412065,13.3467768,1,,,,,,,,Keyphrase,"Alsheimer Strasse in Berlin, Germany",,german_fires_berlin_locations,762003b138708e37c1d5cc629cd70810,german_fires_berlin_locations__01678c182f05cbcba6c957d55f6e12e7
alsterweg,"Alsterweg in Berlin, Germany",52.4158082,13.2746454,1,,,,,,,,Diplomat,"Alsterweg in Berlin, Germany",,german_fires_berlin_locations,2fe2508104faf6c8b89af1e5bcd2d40f,german_fires_berlin_locations__65d2bb193c20b81ecc6188b896ad9966
alt-biesdorf,"Alt-Biesdorf in Berlin, Germany",52.5086954,13.5587874,1,,,,,,,,News,"Alt-Biesdorf in Berlin, Germany",,german_fires_berlin_locations,a4462ebcd7f4e15f979df525d6b5c681,german_fires_berlin_locations__7b4c23c84333ae08a29fe5c1f49e2eb3
alt-blankenburg,"Alt-Blankenburg in Berlin, Germany",52.5930231,13.4557654,1,,,,,,,,Person,"Alt-Blankenburg in Berlin, Germany",,german_fires_berlin_locations,e1536d8594b019fca012809a08b9388d,german_fires_berlin_locations__b4bbeaefb8bd7deaf932e81cd1783b19
alt-britz,"Alt-Britz in Berlin, Germany",52.4482982,13.4388444,1,,,,,,,,Keyphrase,"Alt-Britz in Berlin, Germany",,german_fires_berlin_locations,35b3c16591bcd93f213d1adfd4023594,german_fires_berlin_locations__a22c64bb65c2ef2ece143696d6b9bf42
alt-buch,"Alt-Buch in Berlin, Germany",52.6357183,13.50106,1,,,,,,,,DiplomaticFacilities,"Alt-Buch in Berlin, Germany",,german_fires_berlin_locations,235bb3de18ee0b1d4bb9c696214ab696,german_fires_berlin_locations__b38350a04d1284c7e3143b7d0d99e779
alt-buckow,"Alt-Buckow in Berlin, Germany",52.4220231,13.4322626,1,,,,,,,,LegislativeCommittee,"Alt-Buckow in Berlin, Germany",,german_fires_berlin_locations,a7e0d0897b12a5df9b043a3560c0dc79,german_fires_berlin_locations__298b94467d72cb0000a690ce0e754779
alt-friedrichsfelde,"Alt-Friedrichsfelde in Berlin, Germany",52.5104022,13.5231717,1,,,,,,,,ForeignMinister,"Alt-Friedrichsfelde in Berlin, Germany",,german_fires_berlin_locations,8256dde264a93505d1c45a439f3d05e6,german_fires_berlin_locations__f6cbc621a0f5a92c134cc6bbc74a609d
alt-gatow,"Alt-Gatow in Berlin, Germany",52.4863301,13.1825186,1,,,,,,,,IndustryTerm,"Alt-Gatow in Berlin, Germany",,german_fires_berlin_locations,a491e91b4b8b970a14a5a84cfdfea7c2,german_fires_berlin_locations__d5986bbaffb62e3c3aaa5804b56e9a62
alt-heiligensee,"Alt-Heiligensee in Berlin, Germany",52.6070625,13.2128539,1,,,,,,,,Exec,"Alt-Heiligensee in Berlin, Germany",,german_fires_berlin_locations,ef6862ffd997919238129b19aa03ab5e,german_fires_berlin_locations__df2414acbe3fa481be2fa24006755457
alt-hellersdorf,"Alt-Hellersdorf in Berlin, Germany",52.5389434,13.5949884,1,,,,,,,,FTO,"Alt-Hellersdorf in Berlin, Germany",,german_fires_berlin_locations,602b838e57142cd2898a3343541e948d,german_fires_berlin_locations__c15ab9ad9f6edefa5506f3e60702ef61
alt-hermsdorf,"Alt-Hermsdorf in Berlin, Germany",52.6148921,13.3197185,1,,,,,,,,Media,"Alt-Hermsdorf in Berlin, Germany",,german_fires_berlin_locations,bb22c0fe5d4cc29417c95cb49934fbf7,german_fires_berlin_locations__319f9855fcf0bab11e4c85583530bd82
alt-karow,"Alt-Karow in Berlin, Germany",52.6123995,13.4833804,1,,,,,,,,Diplomat,"Alt-Karow in Berlin, Germany",,german_fires_berlin_locations,8fbdae9bad3dc0c2f2cbbe58550a1e71,german_fires_berlin_locations__dc4754788db6284a06eadc4552681b14
alt-kaulsdorf,"Alt-Kaulsdorf in Berlin, Germany",52.5050993,13.589665,1,,,,,,,,FTO,"Alt-Kaulsdorf in Berlin, Germany",,german_fires_berlin_locations,1b96c84a994069d8516b47bc81b3afa4,german_fires_berlin_locations__669a275aa1288287e1b5af1a631143d4
alt-kladow,"Alt-Kladow in Berlin, Germany",52.452457,13.1459571,1,,,,,,,,ForeignMinistry,"Alt-Kladow in Berlin, Germany",,german_fires_berlin_locations,d9b41bf0ce8ca5383c7483af5dd80656,german_fires_berlin_locations__a31ff131ec896a140c1dbf477290a8d5
alt-kopenick,"Alt-Kopenick in Berlin, Germany",52.4458909,13.5746686,1,,,,,,,,Exec,"Alt-Kopenick in Berlin, Germany",,german_fires_berlin_locations,12bfd7cd65376fce037b5a206982d56e,german_fires_berlin_locations__cc3aacb051650c41a403546d4c9238d4
alt-lankwitz,"Alt-Lankwitz in Berlin, Germany",52.437225,13.3587208,1,,,,,,,,IndustryTerm,"Alt-Lankwitz in Berlin, Germany",,german_fires_berlin_locations,c91d09d0d5c6f73827cc7c9a80949f53,german_fires_berlin_locations__00171d83a5f1334af7ce9f96306f2112
alt-lichtenrade,"Alt-Lichtenrade in Berlin, Germany",52.3965016,13.4108772,1,,,,,,,,Shipping,"Alt-Lichtenrade in Berlin, Germany",,german_fires_berlin_locations,838f0fde5207b0b5e6f0a8e5c71122e9,german_fires_berlin_locations__02f3fc3a142b873d8525d22c7b99e103
alt-lietzow,"Alt-Lietzow in Berlin, Germany",52.5181476,13.3105429,1,,,,,,,,Wells,"Alt-Lietzow in Berlin, Germany",,german_fires_berlin_locations,182fae580f49fef519549a1933d360a0,german_fires_berlin_locations__d1e1b1b390d477f1ab88bcfbc5440e11
alt-lubars,"Alt-Lubars in Berlin, Germany",52.6204157,13.3567075,1,,,,,,,,ForeignMinister,"Alt-Lubars in Berlin, Germany",,german_fires_berlin_locations,62c09fb443434f5dfc782c22b00faff8,german_fires_berlin_locations__8da4b124a0e744b1f86a872f73c0d415
alt-mahlsdorf,"Alt-Mahlsdorf in Berlin, Germany",52.5047822,13.6134247,1,,,,,,,,Organization,"Alt-Mahlsdorf in Berlin, Germany",,german_fires_berlin_locations,32e1ce826baeb3d7b32944bd5d5359c5,german_fires_berlin_locations__c0382d1f66c05b3d363946c74cedf880
alt-mariendorf,"Alt-Mariendorf in Berlin, Germany",52.4403433,13.3883012,1,,,,,,,,ForeignMinistry,"Alt-Mariendorf in Berlin, Germany",,german_fires_berlin_locations,9222ff8a45e879669d3e9382f11ab01e,german_fires_berlin_locations__d8d3ed2c3c1936663b0e3595a98d9632
alt-marienfelde,"Alt-Marienfelde in Berlin, Germany",52.4123041,13.3683372,1,,,,,,,,Organization,"Alt-Marienfelde in Berlin, Germany",,german_fires_berlin_locations,59bcb2db132ff31a11bb428d18801634,german_fires_berlin_locations__1e2eb74d4dd217ea5b3438f8c2a63e50
alt-marzahn,"Alt-Marzahn in Berlin, Germany",52.5432979,13.5599285,1,,,,,,,,Refinery,"Alt-Marzahn in Berlin, Germany",,german_fires_berlin_locations,aceb4e55802603e74d95563dd0667470,german_fires_berlin_locations__73ac5810401a41c82892635ad96db099
alt-moabit,"Alt-Moabit in Berlin, Germany",52.5247264,13.3482444,1,,,,,,,,Keyphrase,"Alt-Moabit in Berlin, Germany",,german_fires_berlin_locations,81db143e7ecfd09ee1ff64216e538001,german_fires_berlin_locations__4a7621fd7d02ecdcc259394e1c79f677
alt-muggelheim,"Alt-Muggelheim in Berlin, Germany",52.4119776,13.6628956,1,,,,,,,,AAEntity,"Alt-Muggelheim in Berlin, Germany",,german_fires_berlin_locations,96190a5a8593b031d24efd04ad5b0b06,german_fires_berlin_locations__63b231b7f73df0c42f1da345775d31d4
alt-pichelsdorf,"Alt-Pichelsdorf in Berlin, Germany",52.511585,13.1990942,1,,,,,,,,ForeignMinistry,"Alt-Pichelsdorf in Berlin, Germany",,german_fires_berlin_locations,b65075beee6c5ec2ebc58daf13022a53,german_fires_berlin_locations__1c13ecf1738aac7c7cf3a4f6f0b9b646
alt-reinickendorf,"Alt-Reinickendorf in Berlin, Germany",52.5750592,13.3531295,1,,,,,,,,space,"Alt-Reinickendorf in Berlin, Germany",,german_fires_berlin_locations,65aa390ac79623af7019e735b1795a20,german_fires_berlin_locations__07435ce903c7b907d1acb31d25ea9ba7
alt-rudow,"Alt-Rudow in Berlin, Germany",52.4195739,13.4931495,1,,,,,,,,FTO,"Alt-Rudow in Berlin, Germany",,german_fires_berlin_locations,26bba59901bae3bdbda824c2eb6ab1c7,german_fires_berlin_locations__3115793570df85cb5e2c963bb30d47d1
alt-schmockwitz,"Alt-Schmockwitz in Berlin, Germany",52.3749316,13.6502986,1,,,,,,,,Exec,"Alt-Schmockwitz in Berlin, Germany",,german_fires_berlin_locations,107826d1b8029e4f4adf8f34e9b8e122,german_fires_berlin_locations__fd4cf32ac676cc9351d06532a183ba87
alt-schonow,"Alt-Schonow in Berlin, Germany",52.4067856,13.2656288,1,,,,,,,,CompanyKeyword,"Alt-Schonow in Berlin, Germany",,german_fires_berlin_locations,a5accc70c3e12461f310bb6adf1c107a,german_fires_berlin_locations__8c6a2c204c120c85ea80e891ab528b28
alt-stralau,"Alt-Stralau in Berlin, Germany",52.494191,13.4706139,1,,,,,,,,Legislator,"Alt-Stralau in Berlin, Germany",,german_fires_berlin_locations,05543ff7a1f52efcaf96a990a6d3fad7,german_fires_berlin_locations__87d71000c111be3f5941a9372e5b5aad
alt-tegel,"Alt-Tegel in Berlin, Germany",52.5885431,13.278692,1,,,,,,,,Keyphrase,"Alt-Tegel in Berlin, Germany",,german_fires_berlin_locations,2c4f182caae37b5bddeba1bc3c50a93a,german_fires_berlin_locations__1debbfc6516515981c1fef221e3ddc3f
alt-tempelhof,"Alt-Tempelhof in Berlin, Germany",52.465978,13.3831372,1,,,,,,,,space,"Alt-Tempelhof in Berlin, Germany",,german_fires_berlin_locations,c20a6bf049b0bec8b2ca89809da1aa79,german_fires_berlin_locations__4db9b08aeec14fbe45888ba86f3f0f0a
alt-treptow,"Alt-Treptow in Berlin, Germany",52.4917223,13.4577383,1,,,,,,,,space,"Alt-Treptow in Berlin, Germany",,german_fires_berlin_locations,b575ee6dc52d43ac9ac0e085995fb587,german_fires_berlin_locations__af9d82071aa6f3d0ff4da277e5afe3ad
alt-wittenau,"Alt-Wittenau in Berlin, Germany",52.5913932,13.3284266,1,,,,,,,,space,"Alt-Wittenau in Berlin, Germany",,german_fires_berlin_locations,3f5e0737e8de7ffc8f78996c53185ef2,german_fires_berlin_locations__e416a64c0a9b63edd1fdb9926cb497d2
altarsteinweg,"Altarsteinweg in Berlin, Germany",52.5968453,13.3923154,1,,,,,,,,AAEntity,"Altarsteinweg in Berlin, Germany",,german_fires_berlin_locations,fd362c069ad5d22d48ead72963c3eaf0,german_fires_berlin_locations__b9cdfd7707cd5cc6f30faec7b9af0e2c
altdammer weg,"Altdammer Weg in Berlin, Germany",52.6249734,13.2416677,1,,,,,,,,Shipping,"Altdammer Weg in Berlin, Germany",,german_fires_berlin_locations,ccb91d6b865d74d8cf7ed0fcf7d28318,german_fires_berlin_locations__32f200847654428ab787e27a717cc1cb
altdorfer strasse,"Altdorfer Strasse in Berlin, Germany",52.4291953,13.2980945,1,,,,,,,,LegislativeCommittee,"Altdorfer Strasse in Berlin, Germany",,german_fires_berlin_locations,be50a7a83dc1b0d562640e7e77c5f9f4,german_fires_berlin_locations__ee1715adee6b0374bafaf479f3a7fa39
alte allee,"Alte Allee in Berlin, Germany",52.4927626,13.261555,1,,,,,,,,Keyphrase,"Alte Allee in Berlin, Germany",,german_fires_berlin_locations,17dd02e7dd38273e0b035e5ac6ebdfe1,german_fires_berlin_locations__dba7acd714ce232cae3e0267c16bff0a
alte brauerei,"Alte Brauerei in Berlin, Germany",52.4859469,13.3800542,1,,,,,,,,Shipping,"Alte Brauerei in Berlin, Germany",,german_fires_berlin_locations,530ae889edb54dd1e110bc19bba13a46,german_fires_berlin_locations__bfe2771e2fd75cdac83a3f82b22e48d5
alte fasanerie,"Alte Fasanerie in Berlin, Germany",52.6077925,13.365978,1,,,,,,,,Exec,"Alte Fasanerie in Berlin, Germany",,german_fires_berlin_locations,5871dc7dfda45c5217746628af950db5,german_fires_berlin_locations__5ed2726535d23b439099baeca97d11f4
alte hellersdorfer strasse,"Alte Hellersdorfer Strasse in Berlin, Germany",52.5408733,13.590879,1,,,,,,,,IndustryTerm,"Alte Hellersdorfer Strasse in Berlin, Germany",,german_fires_berlin_locations,df9ecaed4194d35714dd298061110357,german_fires_berlin_locations__b2ebc2044e6ab9789fda38a6240f8840
alte jakobstrasse,"Alte Jakobstrasse in Berlin, Germany",52.5058105,13.4010993,1,,,,,,,,AAEntity,"Alte Jakobstrasse in Berlin, Germany",,german_fires_berlin_locations,e1390651e038d459b564110081fde147,german_fires_berlin_locations__561837a1790c23599698430c3d12539f
alte kaulsdorfer strasse,"Alte Kaulsdorfer Strasse in Berlin, Germany",52.4603712,13.5780634,1,,,,,,,,Pipeline,"Alte Kaulsdorfer Strasse in Berlin, Germany",,german_fires_berlin_locations,89d4a554519c2c79167f68d406db121b,german_fires_berlin_locations__c7739128748a59a843ac10f0ce39c74c
alte leipziger strasse,"Alte Leipziger Strasse in Berlin, Germany",52.5129241,13.4000374,1,,,,,,,,DiplomaticFacilities,"Alte Leipziger Strasse in Berlin, Germany",,german_fires_berlin_locations,130bba4a64c8f77f09f209a2e8b64ea5,german_fires_berlin_locations__fd16467b3354b15ee2dee120b2c80e11
alte poststrasse,"Alte Poststrasse in Berlin, Germany",52.4655552,13.2508974,1,,,,,,,,space,"Alte Poststrasse in Berlin, Germany",,german_fires_berlin_locations,216c757d788b9742e6e335c83645491e,german_fires_berlin_locations__687074b3b0d1090982cb3746416bba0f
alte potsdamer strasse,"Alte Potsdamer Strasse in Berlin, Germany",52.5084001,13.374251,1,,,,,,,,Legislator,"Alte Potsdamer Strasse in Berlin, Germany",,german_fires_berlin_locations,77c1a78dd02b23cfc9a60f20af68ea31,german_fires_berlin_locations__575efb6b892fc840188336a1222bc922
alte rhinstrasse,"Alte Rhinstrasse in Berlin, Germany",52.5340226,13.5197993,1,,,,,,,,Keyphrase,"Alte Rhinstrasse in Berlin, Germany",,german_fires_berlin_locations,4038102f7e5668297a40e63c07feba31,german_fires_berlin_locations__d13e582ec6bc9130890f7d7e8f9ca728
alte schonhauser strasse,"Alte Schonhauser Strasse in Berlin, Germany",52.5269628,13.4080072,1,,,,,,,,Exec,"Alte Schonhauser Strasse in Berlin, Germany",,german_fires_berlin_locations,ca3d7266f303079a92a92feef33a493f,german_fires_berlin_locations__5d0053981a9c24981594f2ea44b30947
alte spandauer poststrasse,"Alte Spandauer Poststrasse in Berlin, Germany",52.4964137,13.2275925,1,,,,,,,,FTO,"Alte Spandauer Poststrasse in Berlin, Germany",,german_fires_berlin_locations,0374f55141129f5ae429a87cbcf1c6e5,german_fires_berlin_locations__f2505a751108fbe1c135e55da08b081f
altenauer weg,"Altenauer Weg in Berlin, Germany",52.4195235,13.3265022,1,,,,,,,,Organization,"Altenauer Weg in Berlin, Germany",,german_fires_berlin_locations,9bd2a2c25ed23b125a39a25274ae3003,german_fires_berlin_locations__65d19bd149019e9663bd12e5210e34a5
altenberger weg,"Altenberger Weg in Berlin, Germany",52.5883469,13.3990913,1,,,,,,,,space,"Altenberger Weg in Berlin, Germany",,german_fires_berlin_locations,bb36973c3420c33c3f83cb125d66bd12,german_fires_berlin_locations__8932087611245e9aba7f23d9322e0642
altenbraker strasse,"Altenbraker Strasse in Berlin, Germany",52.4701479,13.4324133,1,,,,,,,,Pipeline,"Altenbraker Strasse in Berlin, Germany",,german_fires_berlin_locations,f1615384b16b29fe58a6a2f92a41dd3b,german_fires_berlin_locations__971090318011ef955594c98749beb355
altenburger allee,"Altenburger Allee in Berlin, Germany",52.5189286,13.2599529,1,,,,,,,,Diplomat,"Altenburger Allee in Berlin, Germany",,german_fires_berlin_locations,8fbdb9a2f6df465de086b15cf12c06ca,german_fires_berlin_locations__9e688cbeb049c21fc1a3a48d611e654f
altenburger strasse,"Altenburger Strasse in Berlin, Germany",52.4171609,13.3459408,1,,,,,,,,Consulates,"Altenburger Strasse in Berlin, Germany",,german_fires_berlin_locations,bad3cb3e7fe29b17c2ce82e6cfd9f10b,german_fires_berlin_locations__e501945ba93630f912f788ad33915935
altenescher weg,"Altenescher Weg in Berlin, Germany",52.5396134,13.4557746,1,,,,,,,,Organization,"Altenescher Weg in Berlin, Germany",,german_fires_berlin_locations,b7d132eb416be369cc03ef50f6a50b8c,german_fires_berlin_locations__7f7f2c890eb64cc42fa770c69501d2d7
altenhofer strasse,"Altenhofer Strasse in Berlin, Germany",52.5352941,13.4804808,1,,,,,,,,Organization,"Altenhofer Strasse in Berlin, Germany",,german_fires_berlin_locations,60217f11e5aa6a0f50c2908f9abcf31b,german_fires_berlin_locations__0896a2256a04b0dcf761f7db24c5dfc5
altenhofer weg,"Altenhofer Weg in Berlin, Germany",52.5875714,13.2959584,1,,,,,,,,FTO,"Altenhofer Weg in Berlin, Germany",,german_fires_berlin_locations,321b57f66feab657d8099ed0528a3b55,german_fires_berlin_locations__c2cff4a3e3b1b8681c371d288ad20189
altensteinstrasse,"Altensteinstrasse in Berlin, Germany",52.4522248,13.2970499,1,,,,,,,,Legislator,"Altensteinstrasse in Berlin, Germany",,german_fires_berlin_locations,e73eaeb6ee785a35e63824ce65492a27,german_fires_berlin_locations__52ef4ad39112b4a6e1ab743522ad9a44
altentreptower strasse,"Altentreptower Strasse in Berlin, Germany",52.513571,13.5708724,1,,,,,,,,Keyphrase,"Altentreptower Strasse in Berlin, Germany",,german_fires_berlin_locations,e827db3995d4ed935d5626a77f4b0322,german_fires_berlin_locations__93e7477c063e4423513306b88a54cd46
alter bernauer heerweg,"Alter Bernauer Heerweg in Berlin, Germany",52.613606,13.36471,1,,,,,,,,Diplomat,"Alter Bernauer Heerweg in Berlin, Germany",,german_fires_berlin_locations,0846033a6a2fe8a82b85495939ecec71,german_fires_berlin_locations__f3831fb3944522affdfd448bd2ba005c
alter fischerweg,"Alter Fischerweg in Berlin, Germany",52.4579921,13.6933074,1,,,,,,,,Pipeline,"Alter Fischerweg in Berlin, Germany",,german_fires_berlin_locations,fa2b7f63ba1a987edbdc3eba944d9a4b,german_fires_berlin_locations__8883bf6bad0a615ebc1c2cd03dca4d8d
alter hegemeisterweg,"Alter Hegemeisterweg in Berlin, Germany",52.4463094,13.6879995,1,,,,,,,,Refinery,"Alter Hegemeisterweg in Berlin, Germany",,german_fires_berlin_locations,6bf94e549cdd45e143abbe15a4c29b09,german_fires_berlin_locations__f5a65cc6493161bac96b986a3f6237cd
alter markt,"Alter Markt in Berlin, Germany",52.4452727,13.578829,1,,,,,,,,Pipeline,"Alter Markt in Berlin, Germany",,german_fires_berlin_locations,0701a34d8dff24cd72c32ebd10a5438e,german_fires_berlin_locations__52725b1bc1ca595c2efde142045021c7
alter radelander weg,"Alter Radelander Weg in Berlin, Germany",52.3919739,13.6034994,1,,,,,,,,DiplomaticFacilities,"Alter Radelander Weg in Berlin, Germany",,german_fires_berlin_locations,b1693961b088b99a6505151d27dfca9b,german_fires_berlin_locations__17e4a888690972b00e44312fd1a76ad6
alter schonefelder weg,"Alter Schonefelder Weg in Berlin, Germany",52.4193873,13.5370263,1,,,,,,,,Consulates,"Alter Schonefelder Weg in Berlin, Germany",,german_fires_berlin_locations,77a32852505dd5fc7daab1afbea20f45,german_fires_berlin_locations__ee1b78bb512ab9b52fa121e2efa8248a
alter segelfliegerdamm,"Alter Segelfliegerdamm in Berlin, Germany",52.4383349,13.5070467,1,,,,,,,,Pipeline,"Alter Segelfliegerdamm in Berlin, Germany",,german_fires_berlin_locations,882a2e576f442c92d5b78b8ea0c9b64b,german_fires_berlin_locations__051ab3ad8cfd257b6f8f683a8e32ea2d
alter wiesenweg,"Alter Wiesenweg in Berlin, Germany",52.5519697,13.2751611,1,,,,,,,,Keyphrase,"Alter Wiesenweg in Berlin, Germany",,german_fires_berlin_locations,6ce39951714bfde8e47cefe70aff616a,german_fires_berlin_locations__569f2310586d71dbb40f8d53bc014b4f
altes gaswerk mariendorf,"Altes Gaswerk Mariendorf in Berlin, Germany",52.4399483,13.3718393,1,,,,,,,,CompanyKeyword,"Altes Gaswerk Mariendorf in Berlin, Germany",,german_fires_berlin_locations,7be27199532d3a4e7abcbb5de044eaa0,german_fires_berlin_locations__00e4f63aff74ac2889376ee50deb1ac8
altglienicker brucke,"Altglienicker Brucke in Berlin, Germany",52.424295,13.5435102,1,,,,,,,,News,"Altglienicker Brucke in Berlin, Germany",,german_fires_berlin_locations,e616dcdd1221c6b770bc8e88b5a4b525,german_fires_berlin_locations__db1421e4e1b6b6f118297e66de34eaf8
altglienicker grund,"Altglienicker Grund in Berlin, Germany",52.4080356,13.5293603,1,,,,,,,,Exec,"Altglienicker Grund in Berlin, Germany",,german_fires_berlin_locations,0a7874f41224709b06069384f911cdcf,german_fires_berlin_locations__ab387887db965efd9c1c38d28cdce144
altgrabauer strasse,"Altgrabauer Strasse in Berlin, Germany",52.4696004,13.5714184,1,,,,,,,,Shipping,"Altgrabauer Strasse in Berlin, Germany",,german_fires_berlin_locations,feaa29b0121a6064ecfce5b8b3d662a9,german_fires_berlin_locations__983bdd97fe1a898fd5ffd00062e1aa17
althansweg,"Althansweg in Berlin, Germany",52.5365143,13.5583715,1,,,,,,,,Consulates,"Althansweg in Berlin, Germany",,german_fires_berlin_locations,7518deb327563f6db8521d957c34e290,german_fires_berlin_locations__83a751603536b4bdbead7e111d1b1817
altheider strasse,"Altheider Strasse in Berlin, Germany",52.4377016,13.5431241,1,,,,,,,,Keyphrase,"Altheider Strasse in Berlin, Germany",,german_fires_berlin_locations,e3ebed834b6f0dd1d071aaa6a324dd24,german_fires_berlin_locations__ee3f4613685ba251b9065ebd90da56fd
althoffplatz,"Althoffplatz in Berlin, Germany",52.4571514,13.3314288,1,,,,,,,,ForeignMinistry,"Althoffplatz in Berlin, Germany",,german_fires_berlin_locations,3676381c2e59e807daf70266046d2583,german_fires_berlin_locations__c8b4a37ee33bdcbbb6d5dd0cf3983af5
althoffstrasse,"Althoffstrasse in Berlin, Germany",52.4572364,13.3286514,1,,,,,,,,FTO,"Althoffstrasse in Berlin, Germany",,german_fires_berlin_locations,b5bba208fe3aa24bde7484a761b42828,german_fires_berlin_locations__6f4bd1608769efa8d1be89223942a38e
altkanzlerstrasse,"Altkanzlerstrasse in Berlin, Germany",52.4460794,13.2456659,1,,,,,,,,Keyphrase,"Altkanzlerstrasse in Berlin, Germany",,german_fires_berlin_locations,6e4920b5290b5fcd7dc994df2eefbc48,german_fires_berlin_locations__03c744913f0afa034dcf512af15522fb
altkanzlerstrassenbrucke,"Altkanzlerstrassenbrucke in Berlin, Germany",52.5192991,13.3973103,1,,,,,,,,FTO,"Altkanzlerstrassenbrucke in Berlin, Germany",,german_fires_berlin_locations,328ba5c2d51197721826ec5bc9d98316,german_fires_berlin_locations__673301a59dbb52fd6ac96d731a5d4f71
altkircher strasse,"Altkircher Strasse in Berlin, Germany",52.4433833,13.2821627,1,,,,,,,,Person,"Altkircher Strasse in Berlin, Germany",,german_fires_berlin_locations,1eecd1e4a89a8b0d94456c10e2ab1f04,german_fires_berlin_locations__4d495bbf66493f63b391eaeb27bffcf5
altlandsberger platz,"Altlandsberger Platz in Berlin, Germany",52.5427432,13.5734325,1,,,,,,,,IndustryTerm,"Altlandsberger Platz in Berlin, Germany",,german_fires_berlin_locations,2be7f09c7a46c7c762d48fce9633ecf2,german_fires_berlin_locations__edfca3502b6c5da23db28b3cf87a3a9d
altmarkstrasse,"Altmarkstrasse in Berlin, Germany",52.4606697,13.3422413,1,,,,,,,,Shipping,"Altmarkstrasse in Berlin, Germany",,german_fires_berlin_locations,bada7940a32f0ce8871f0224f51139a4,german_fires_berlin_locations__6a9b26bc574af6eea8acc40b41a092eb
altonaer strasse,"Altonaer Strasse in Berlin, Germany",52.5172456,13.3438522,1,,,,,,,,Person,"Altonaer Strasse in Berlin, Germany",,german_fires_berlin_locations,5a2527a9518062d285ca61db7854a957,german_fires_berlin_locations__27474328dd0f303fe23e436a52692abd
altrader weg,"Altrader Weg in Berlin, Germany",52.4040852,13.5124103,1,,,,,,,,Media,"Altrader Weg in Berlin, Germany",,german_fires_berlin_locations,cbaa0753a7de941314cad9d5f17c8c8f,german_fires_berlin_locations__f99d9978bb0c7d3b1c45f7cc68ace86f
altstadter ring,"Altstadter Ring in Berlin, Germany",52.5375402,13.2005121,1,,,,,,,,News,"Altstadter Ring in Berlin, Germany",,german_fires_berlin_locations,a3c0617cc1dbfbdff772fdaec6a48851,german_fires_berlin_locations__6a555aba0298ec2a0f8edb2e2b549c9b
altvaterstrasse,"Altvaterstrasse in Berlin, Germany",52.437783,13.2068497,1,,,,,,,,space,"Altvaterstrasse in Berlin, Germany",,german_fires_berlin_locations,f5f3be15f661c36fc6c05bc177865530,german_fires_berlin_locations__7d2befb123356619d8091926fb0625b7
alvenslebenplatz,"Alvenslebenplatz in Berlin, Germany",52.3833542,13.4058713,1,,,,,,,,FTO,"Alvenslebenplatz in Berlin, Germany",,german_fires_berlin_locations,96a332629d16abb84268c344f5abb2e0,german_fires_berlin_locations__9751205a3576c1eadd4f056453a8ccfd
alvenslebenstrasse,"Alvenslebenstrasse in Berlin, Germany",52.4956068,13.3633875,1,,,,,,,,Shipping,"Alvenslebenstrasse in Berlin, Germany",,german_fires_berlin_locations,526e0b8aabf6d064731195af32e94f25,german_fires_berlin_locations__0ec645902cd26a0d959157f170d89360
alwineweg,"Alwineweg in Berlin, Germany",52.5339035,13.569961,1,,,,,,,,FTO,"Alwineweg in Berlin, Germany",,german_fires_berlin_locations,5fb52a389539a474a72ef3a3420b2a49,german_fires_berlin_locations__50bb9d8a4d3d6f5a225170f014e6925c
alzeyweg,"Alzeyweg in Berlin, Germany",52.515856,13.5066746,1,,,,,,,,Wells,"Alzeyweg in Berlin, Germany",,german_fires_berlin_locations,dd6481886440f6a0d875110002becbaa,german_fires_berlin_locations__5a5286728ca529dfe3ba9c6ff0a7e750
am adlergestell,"Am Adlergestell in Berlin, Germany",52.4383347,13.5392053,1,,,,,,,,Organization,"Am Adlergestell in Berlin, Germany",,german_fires_berlin_locations,84246987964529cb497dd728bbb684dc,german_fires_berlin_locations__6ee6fc172f70972698958aa7775c9a70
am ahornweg,"Am Ahornweg in Berlin, Germany",52.5776303,13.5323855,1,,,,,,,,Pipeline,"Am Ahornweg in Berlin, Germany",,german_fires_berlin_locations,f05d7f44c953db353bfaf985fdb63fd9,german_fires_berlin_locations__806c55428058438558d42c638c6e93c7
am akazienweg,"Am Akazienweg in Berlin, Germany",52.5694672,13.2067046,1,,,,,,,,Shipping,"Am Akazienweg in Berlin, Germany",,german_fires_berlin_locations,cb287716241c508cf61d5e1f74c747a0,german_fires_berlin_locations__1a1b227614d9ce393131413a460de763
am alten fenn,"Am Alten Fenn in Berlin, Germany",52.4505753,13.5044443,1,,,,,,,,AAEntity,"Am Alten Fenn in Berlin, Germany",,german_fires_berlin_locations,861450877eed976dde20532f74d104e7,german_fires_berlin_locations__f0e53e85a1260cf6c1af33bfe13f8cd2
am alten flugplatz,"Am alten Flugplatz in Berlin, Germany",52.4839836,13.5420623,1,,,,,,,,DiplomaticFacilities,"Am alten Flugplatz in Berlin, Germany",,german_fires_berlin_locations,797c3a5ae6339811d7fcc93a99fd62e5,german_fires_berlin_locations__188095f581d5d3e6aa721e680364ad79
am alten friedhof,"Am Alten Friedhof in Berlin, Germany",52.4203705,13.5287772,1,,,,,,,,space,"Am Alten Friedhof in Berlin, Germany",,german_fires_berlin_locations,e2a514b983cd1b468bc09ebe98b388e3,german_fires_berlin_locations__3131a458741937a097dcd5941454bc42
am alten gaswerk,"Am alten Gaswerk in Berlin, Germany",52.5373387,13.13016,1,,,,,,,,Legislator,"Am alten Gaswerk in Berlin, Germany",,german_fires_berlin_locations,735baa013b4987439adf43d6054ccd1a,german_fires_berlin_locations__fea4a28ea705b2b6067db7adcdda3a56
am alten lokschuppen,"Am Alten Lokschuppen in Berlin, Germany",52.504917,13.4825106,1,,,,,,,,IndustryTerm,"Am Alten Lokschuppen in Berlin, Germany",,german_fires_berlin_locations,b974be5038a8104de5c08c9b05d038e7,german_fires_berlin_locations__475eab4714c1ff275665e2b0f2ded332
am alten malchower graben,"Am alten Malchower Graben in Berlin, Germany",52.5738221,13.4886957,1,,,,,,,,Diplomat,"Am alten Malchower Graben in Berlin, Germany",,german_fires_berlin_locations,0ec0ace172905deed73fcf9f24935c64,german_fires_berlin_locations__d4aecdc03c2aebf4787037c92ae89885
am amtsgraben,"Am Amtsgraben in Berlin, Germany",52.4430984,13.5854892,1,,,,,,,,ForeignMinistry,"Am Amtsgraben in Berlin, Germany",,german_fires_berlin_locations,7820c172a5b571676cc3f70d8252b263,german_fires_berlin_locations__16387eea4709d8e5fd701c9ec9dc3518
am anger,"Am Anger in Berlin, Germany",52.4535805,13.2840884,1,,,,,,,,Pipeline,"Am Anger in Berlin, Germany",,german_fires_berlin_locations,014ee09092895e8efa20121eb10c54e4,german_fires_berlin_locations__f5ccf3056052a49bcadbb2db10732cd3
am ansitz,"Am Ansitz in Berlin, Germany",52.6047992,13.3112682,1,,,,,,,,IndustryTerm,"Am Ansitz in Berlin, Germany",,german_fires_berlin_locations,3a90f16312ee87b5c855f48714beed05,german_fires_berlin_locations__1ebb3cf831ae90ff089eb5e59ae7998d
am appelhorst,"Am Appelhorst in Berlin, Germany",52.4208083,13.4526343,1,,,,,,,,Refinery,"Am Appelhorst in Berlin, Germany",,german_fires_berlin_locations,4768d513c2e3cc4ff0893abd95bb8529,german_fires_berlin_locations__ce8bf9929a82190072c19a9c46afd560
am ausblick,"Am Ausblick in Berlin, Germany",52.6320661,13.2729025,1,,,,,,,,FTO,"Am Ausblick in Berlin, Germany",,german_fires_berlin_locations,06662525000b5be8232a3f2758ee5fee,german_fires_berlin_locations__c7e1007e98fe697780453b0753beae6d
am bachrain,"Am Bachrain in Berlin, Germany",52.5185907,13.5988461,1,,,,,,,,Person,"Am Bachrain in Berlin, Germany",,german_fires_berlin_locations,3c78b1a89fc882c691fa7ae0314fb162,german_fires_berlin_locations__2ff15a3ef91ed181f7b117cd7a1a1fba
am bahndamm,"Am Bahndamm in Berlin, Germany",52.4276289,13.5511314,1,,,,,,,,AAEntity,"Am Bahndamm in Berlin, Germany",,german_fires_berlin_locations,5f61f2d5d8b23a41b1e6ffaed0f1294b,german_fires_berlin_locations__6de87dfecf9cff16f5792572f74d47ac
am bahnhof grunewald,"Am Bahnhof Grunewald in Berlin, Germany",52.4875345,13.2633597,1,,,,,,,,Organization,"Am Bahnhof Grunewald in Berlin, Germany",,german_fires_berlin_locations,f90f836d4fb95745544aae38fc2a94fe,german_fires_berlin_locations__3d07e40f6d71b77451628793f6687163
am bahnhof jungfernheide,"Am Bahnhof Jungfernheide in Berlin, Germany",52.530705,13.3004976,1,,,,,,,,Person,"Am Bahnhof Jungfernheide in Berlin, Germany",,german_fires_berlin_locations,4f0924a15e20ae25e1447717865e6b30,german_fires_berlin_locations__f6438541aa1def0b8106ef34ecc9c1b0
am bahnhof spandau,"Am Bahnhof Spandau in Berlin, Germany",52.5344729,13.1948503,1,,,,,,,,FTO,"Am Bahnhof Spandau in Berlin, Germany",,german_fires_berlin_locations,cd95f8debce136c7a7ef5050373efd6a,german_fires_berlin_locations__876e8cbd326f111be74c80ac41e8c748
am bahnhof westend,"Am Bahnhof Westend in Berlin, Germany",52.5178707,13.2854497,1,,,,,,,,Legislator,"Am Bahnhof Westend in Berlin, Germany",,german_fires_berlin_locations,4a88028c1e0a25845e25dcfd698165a0,german_fires_berlin_locations__3640468e350035c91dd48a7c100b86cf
am bahnhof wuhlheide,"Am Bahnhof Wuhlheide in Berlin, Germany",52.4687599,13.5515714,1,,,,,,,,Refinery,"Am Bahnhof Wuhlheide in Berlin, Germany",,german_fires_berlin_locations,5d9062c6c55aa127cdf4d1291d16260e,german_fires_berlin_locations__f8d402b10272cccd0e4ab968cef948d5
am bakequell,"Am Bakequell in Berlin, Germany",52.4531534,13.3167962,1,,,,,,,,Shipping,"Am Bakequell in Berlin, Germany",,german_fires_berlin_locations,a9159663fbf1c9bcb30617f070fa2222,german_fires_berlin_locations__6ab4c3ffd6a282b916f98c1566dc2646
am baltenring,"Am Baltenring in Berlin, Germany",52.5242429,13.5996167,1,,,,,,,,Shipping,"Am Baltenring in Berlin, Germany",,german_fires_berlin_locations,4faa5552be83b725649b38ce66e810e0,german_fires_berlin_locations__bb68b8b901ecff210c418ba93c39166d
am barensprung,"Am Barensprung in Berlin, Germany",52.6102428,13.2449232,1,,,,,,,,LegislativeCommittee,"Am Barensprung in Berlin, Germany",,german_fires_berlin_locations,3e11f1a0f16dcc01995c7b735850f1c1,german_fires_berlin_locations__4d5e0ae1f941315fc2ffbbb05e269e44
am barnim,"Am Barnim in Berlin, Germany",52.4993691,13.6061973,1,,,,,,,,space,"Am Barnim in Berlin, Germany",,german_fires_berlin_locations,7f99283bd706fca73877e4941c8ab420,german_fires_berlin_locations__27e84598cf8894837c07a3c9cd8f5738
am bauernwaldchen,"Am Bauernwaldchen in Berlin, Germany",52.4125406,13.6704423,1,,,,,,,,CompanyKeyword,"Am Bauernwaldchen in Berlin, Germany",,german_fires_berlin_locations,e44381eebe5cf990b13279811710bd56,german_fires_berlin_locations__117c8b17a705e81102cb043bf7f6bb71
am bauersee,"Am Bauersee in Berlin, Germany",52.4284716,13.6887483,1,,,,,,,,DiplomaticFacilities,"Am Bauersee in Berlin, Germany",,german_fires_berlin_locations,a849ac1698ac54792f827f7494baae86,german_fires_berlin_locations__ae1c65b9a2f903cb2c6f3fbb15553f44
am beelitzhof,"Am Beelitzhof in Berlin, Germany",52.4310855,13.1887995,1,,,,,,,,ForeignMinister,"Am Beelitzhof in Berlin, Germany",,german_fires_berlin_locations,ee9a5ce695cef6a00c5a76ece4b9a3fc,german_fires_berlin_locations__9d4eb306912b16a89e8532a642e5c5ab
am berg,"Am Berg in Berlin, Germany",52.4446094,13.5869405,1,,,,,,,,ForeignMinistry,"Am Berg in Berlin, Germany",,german_fires_berlin_locations,51df0512de5c137d8b88b7bb951ad45b,german_fires_berlin_locations__14246b1f156d7c2547c47ba2a6cf58df
am berghang,"Am Berghang in Berlin, Germany",52.4870253,13.177051,1,,,,,,,,Keyphrase,"Am Berghang in Berlin, Germany",,german_fires_berlin_locations,180d01dd2674f2584b635c5a23589274,german_fires_berlin_locations__9f41b37f014953d2cb8e22379a6c748c
am bergpfuhl,"Am Bergpfuhl in Berlin, Germany",52.4439882,13.4228316,1,,,,,,,,Organization,"Am Bergpfuhl in Berlin, Germany",,german_fires_berlin_locations,8d3a99aaac4ae97f3391a0ff9c816fae,german_fires_berlin_locations__fab948eeda44fa14b29637845a53e496
am berl,"Am Berl in Berlin, Germany",52.5726823,13.4998579,1,,,,,,,,Diplomat,"Am Berl in Berlin, Germany",,german_fires_berlin_locations,01f4137c76277c5fecec22a06240740f,german_fires_berlin_locations__c8974ffc68de103158a2fe1dfc7afb11
am berlin museum,"Am Berlin Museum in Berlin, Germany",52.5028014,13.3968486,1,,,,,,,,AAEntity,"Am Berlin Museum in Berlin, Germany",,german_fires_berlin_locations,8cc61b01d96d217e6c86554c9e725437,german_fires_berlin_locations__5dc352aafbcd6803e09043814bf1df5e
am biberbau,"Am Biberbau in Berlin, Germany",52.6285363,13.2974101,1,,,,,,,,Keyphrase,"Am Biberbau in Berlin, Germany",,german_fires_berlin_locations,50be2a09b2976d67edee9755c225e29e,german_fires_berlin_locations__c5b3d55780bbdb900551e957353a780c
am binsengrund,"Am Binsengrund in Berlin, Germany",52.4958542,13.5657009,1,,,,,,,,Legislator,"Am Binsengrund in Berlin, Germany",,german_fires_berlin_locations,60014210bbda6c9e25d192f3987245b9,german_fires_berlin_locations__3d0d94101d8e23c35e34f4d01a46a968
am birkenhugel,"Am Birkenhugel in Berlin, Germany",52.412805,13.1372908,1,,,,,,,,AAEntity,"Am Birkenhugel in Berlin, Germany",,german_fires_berlin_locations,3d0c6c89b5b11072fae5a51a71b08737,german_fires_berlin_locations__696103ee0c16677db636e974f2047edd
am birkenknick,"Am Birkenknick in Berlin, Germany",52.4153032,13.2672854,1,,,,,,,,Media,"Am Birkenknick in Berlin, Germany",,german_fires_berlin_locations,856b6c13d990010641c7fbd8ef959ff8,german_fires_berlin_locations__69790b24a5e90db64be213ee6afbb1d4
am birkenrevier,"Am Birkenrevier in Berlin, Germany",52.4766918,13.5330254,1,,,,,,,,CompanyKeyword,"Am Birkenrevier in Berlin, Germany",,german_fires_berlin_locations,af248feda332e53bd4154e16429e1e1b,german_fires_berlin_locations__baf4817f9ac41117114e0b54f7b348b2
am birkenwerder,"Am Birkenwerder in Berlin, Germany",52.4868607,13.5698747,1,,,,,,,,Wells,"Am Birkenwerder in Berlin, Germany",,german_fires_berlin_locations,920dda6238bd294947ab8d841a1863bd,german_fires_berlin_locations__73e8aefb7e8e69c1a81003b721cd47ce
am bogen,"Am Bogen in Berlin, Germany",52.5519031,13.1586782,1,,,,,,,,Media,"Am Bogen in Berlin, Germany",,german_fires_berlin_locations,eb24eaed0e8ca4b6f6af41fcbec10ac9,german_fires_berlin_locations__4873bb835a239647835638b6ecb6c7e7
am bootshaus,"Am Bootshaus in Berlin, Germany",52.5537972,13.2148797,1,,,,,,,,Pipeline,"Am Bootshaus in Berlin, Germany",,german_fires_berlin_locations,ec6444192b9d7181f8678c4f38ff9186,german_fires_berlin_locations__70b0c01fe92c4b3266bdb9eb7dbf79a0
am borsigturm,"Am Borsigturm in Berlin, Germany",52.5830488,13.2856406,1,,,,,,,,space,"Am Borsigturm in Berlin, Germany",,german_fires_berlin_locations,a4ee12574e261d6a8ca3e8f4ea39ab0e,german_fires_berlin_locations__2b6e7af07569c7c4dcfaadd8bdadf1e8
am botanischen garten,"Am Botanischen Garten in Berlin, Germany",52.4543806,13.3056024,1,,,,,,,,Diplomat,"Am Botanischen Garten in Berlin, Germany",,german_fires_berlin_locations,b65382712e0e4431aecad6a6515b4cd0,german_fires_berlin_locations__9eb1920609a9fcc0c78e3e951b93d64f
am bottcherberg,"Am Bottcherberg in Berlin, Germany",52.4120636,13.1074904,1,,,,,,,,Legislator,"Am Bottcherberg in Berlin, Germany",,german_fires_berlin_locations,bf6cea0c99ceae24f92daa11f3e0e09a,german_fires_berlin_locations__cebe599192198ebbaa30ae86ac59ab43
am brandpfuhl,"Am Brandpfuhl in Berlin, Germany",52.4431927,13.424952,1,,,,,,,,Shipping,"Am Brandpfuhl in Berlin, Germany",,german_fires_berlin_locations,72c1a6d26c15cead53f88be8acbb1ae5,german_fires_berlin_locations__c7cf0a248646d407bbb7018b411b303c
am breiten luch,"Am Breiten Luch in Berlin, Germany",52.561764,13.5134276,1,,,,,,,,News,"Am Breiten Luch in Berlin, Germany",,german_fires_berlin_locations,3e413583b5ca7cd8f806dd5c1e1a9b71,german_fires_berlin_locations__3c0841cc274882fa485e132cc3152dcd
am bremsenwerk,"Am Bremsenwerk in Berlin, Germany",52.5058621,13.473853,1,,,,,,,,CompanyKeyword,"Am Bremsenwerk in Berlin, Germany",,german_fires_berlin_locations,f8fa70be7ddfd789fbb757145387ccc5,german_fires_berlin_locations__17244d191c2af65dd756eee112da5c8d
am brendegraben,"Am Brendegraben in Berlin, Germany",52.6127508,13.4483132,1,,,,,,,,ForeignMinistry,"Am Brendegraben in Berlin, Germany",,german_fires_berlin_locations,857014f6f88081ecb7b1ca3c7872f4cd,german_fires_berlin_locations__26a0f0f26fc2d9e9b549c42f8322e8d2
am britzer garten,"Am Britzer Garten in Berlin, Germany",52.4403296,13.4128274,1,,,,,,,,Exec,"Am Britzer Garten in Berlin, Germany",,german_fires_berlin_locations,dd2e2bcf0e8cb8386be639185faa91c4,german_fires_berlin_locations__df45bc510ff68f060f5b435311bd7296
am brodersengarten,"Am Brodersengarten in Berlin, Germany",52.5033541,13.5729475,1,,,,,,,,Media,"Am Brodersengarten in Berlin, Germany",,german_fires_berlin_locations,a2f92bb56ef7582fd16496d2036988ca,german_fires_berlin_locations__312be05ef083d10206d28384e9ddd600
am bruchland,"Am Bruchland in Berlin, Germany",52.4252044,13.5294269,1,,,,,,,,Media,"Am Bruchland in Berlin, Germany",,german_fires_berlin_locations,d93860ee60e9a1241ef66c63160c2943,german_fires_berlin_locations__24b7f2c8e581e075673e82c9b6bab778
am brunnen,"Am Brunnen in Berlin, Germany",52.5942112,13.2984404,1,,,,,,,,Wells,"Am Brunnen in Berlin, Germany",,german_fires_berlin_locations,f846107784edb1d6dc30acc599ce6dc2,german_fires_berlin_locations__708d2205240833712d74ed48e10f7f0a
am buchenberg,"Am Buchenberg in Berlin, Germany",52.6149122,13.2966197,1,,,,,,,,Exec,"Am Buchenberg in Berlin, Germany",,german_fires_berlin_locations,542a16a5f35313594291cb234cf663e7,german_fires_berlin_locations__003a9459d8066c5dfc5a862c56509a39
am buckersberg,"Am Buckersberg in Berlin, Germany",52.44289,13.4882049,1,,,,,,,,Consulates,"Am Buckersberg in Berlin, Germany",,german_fires_berlin_locations,49323c63199af14c2d8cab5e49bfded3,german_fires_berlin_locations__e7b9e67926b11c55db49edff7c0d0e04
am buddeplatz,"Am Buddeplatz in Berlin, Germany",52.5888642,13.2877866,1,,,,,,,,Media,"Am Buddeplatz in Berlin, Germany",,german_fires_berlin_locations,ab0c7d03385be6c2e8bae92c6e38a175,german_fires_berlin_locations__0c72b63d6d8baf543699cce83290c2dd
am burgerpark,"Am Burgerpark in Berlin, Germany",52.5701821,13.3871543,1,,,,,,,,ForeignMinister,"Am Burgerpark in Berlin, Germany",,german_fires_berlin_locations,670adc5405cb359a95dd51ee170d93c2,german_fires_berlin_locations__5be0700d57488e8a45be08c5e88cbae3
am buschfeld,"Am Buschfeld in Berlin, Germany",52.4211204,13.4560625,1,,,,,,,,Shipping,"Am Buschfeld in Berlin, Germany",,german_fires_berlin_locations,56594f8fb5c4c17ab38e458e73baf196,german_fires_berlin_locations__2f573d8161c3cc3256d0a929c2230c45
am carlsgarten,"Am Carlsgarten in Berlin, Germany",52.4783435,13.530856,1,,,,,,,,space,"Am Carlsgarten in Berlin, Germany",,german_fires_berlin_locations,c7473f1c8996e0bac89cdf01ff450851,german_fires_berlin_locations__e1ce94d36b34b43e48915ad9202356af
am carolinenhof,"Am Carolinenhof in Berlin, Germany",52.4441405,13.1289419,1,,,,,,,,Keyphrase,"Am Carolinenhof in Berlin, Germany",,german_fires_berlin_locations,c24cdefe2e1170f64d2a08da15c10d3e,german_fires_berlin_locations__bf30422df72b32110d9c0da16ee443d3
am cleantech business park,"Am Cleantech Business Park in Berlin, Germany",52.5565802,13.5380195,1,,,,,,,,Refinery,"Am Cleantech Business Park in Berlin, Germany",,german_fires_berlin_locations,84bcc5eb78c7e8ab85fb325cc544755a,german_fires_berlin_locations__66afcc62374472c6ffdfb963cdf0e920
am comeniusplatz,"Am Comeniusplatz in Berlin, Germany",52.5123008,13.4482589,1,,,,,,,,Exec,"Am Comeniusplatz in Berlin, Germany",,german_fires_berlin_locations,86a31567373aa7fef55e49dc4c15dca7,german_fires_berlin_locations__c0516c5399a1d3baf49693c9f3a469d5
am containerbahnhof,"Am Containerbahnhof in Berlin, Germany",52.5147213,13.4773166,1,,,,,,,,space,"Am Containerbahnhof in Berlin, Germany",,german_fires_berlin_locations,9153cd70b98b76b4602ee74cb2247a63,german_fires_berlin_locations__f2a4208f6e8d1b58c24beea8a720b9b6
am dachsbau,"Am Dachsbau in Berlin, Germany",52.6139559,13.2323518,1,,,,,,,,Shipping,"Am Dachsbau in Berlin, Germany",,german_fires_berlin_locations,85c592865a2b01d35fb2f40424ed47c3,german_fires_berlin_locations__34ad330d96f2e54066e1d3ae9d275ecf
am dahlingsberg,"Am Dahlingsberg in Berlin, Germany",52.5096488,13.3759441,1,,,,,,,,ForeignMinister,"Am Dahlingsberg in Berlin, Germany",,german_fires_berlin_locations,1c02e05e9fa1cf8ab76108ca96177e7f,german_fires_berlin_locations__956100ed4e251f14bbe1d0e8b5b7f3c1
am damm,"Am Damm in Berlin, Germany",52.4576457,13.634234,1,,,,,,,,CompanyKeyword,"Am Damm in Berlin, Germany",,german_fires_berlin_locations,85be8720090c7d4c1e38a62c4efe6dd8,german_fires_berlin_locations__f04d78d9d1ae97fb7b6085342b92febc
am danewend,"Am Danewend in Berlin, Germany",52.6155929,13.4759765,1,,,,,,,,FTO,"Am Danewend in Berlin, Germany",,german_fires_berlin_locations,96248f66cd197a21248e2f23241e6157,german_fires_berlin_locations__bce03348f6601b402c4d08e3f7e67a93
am dianaplatz,"Am Dianaplatz in Berlin, Germany",52.6060892,13.3136963,1,,,,,,,,Refinery,"Am Dianaplatz in Berlin, Germany",,german_fires_berlin_locations,4ef1368aff0e71ede3a843c29edcf44a,german_fires_berlin_locations__2e243d4209a2fed27c676bc6cfb471dd
am doggelhof,"Am Doggelhof in Berlin, Germany",52.5674682,13.3194866,1,,,,,,,,ForeignMinistry,"Am Doggelhof in Berlin, Germany",,german_fires_berlin_locations,2060a914ad825686163e9b13356ac63e,german_fires_berlin_locations__49591220ca7314d90bdf8c97f2438796
am dominikusteich,"Am Dominikusteich in Berlin, Germany",52.6222509,13.2942628,1,,,,,,,,Legislator,"Am Dominikusteich in Berlin, Germany",,german_fires_berlin_locations,46e9ba2f89fd16225b591b6e752b9e2a,german_fires_berlin_locations__010efd5cd7c3891024b232b761205e86
am donnerberg,"Am Donnerberg in Berlin, Germany",52.4686671,13.1309975,1,,,,,,,,Exec,"Am Donnerberg in Berlin, Germany",,german_fires_berlin_locations,8780607f5cd8872f1329c8603e983865,german_fires_berlin_locations__18c7a82cf220ca234b661e9b8ebe6a89
am dorfanger,"Am Dorfanger in Berlin, Germany",52.5917181,13.3230276,1,,,,,,,,Refinery,"Am Dorfanger in Berlin, Germany",,german_fires_berlin_locations,91c638f2155ef469a9b4a596f9e53491,german_fires_berlin_locations__9981b867ff5d412171e74d9ab203d88e
am dorferweg,"Am Dorferweg in Berlin, Germany",52.5742046,13.559884,1,,,,,,,,Refinery,"Am Dorferweg in Berlin, Germany",,german_fires_berlin_locations,e5f3a05e089b69858daced8d78c61782,german_fires_berlin_locations__469c390cfed5be57ccf6e0ef19bc29bf
am dorfteich,"Am Dorfteich in Berlin, Germany",52.6105657,13.2520084,1,,,,,,,,Media,"Am Dorfteich in Berlin, Germany",,german_fires_berlin_locations,5cbd69d37663638c56a72ddbb6acc207,german_fires_berlin_locations__eb1502425f61def4f3d31b619a3a6d1e
am dorfwald,"Am Dorfwald in Berlin, Germany",52.453725,13.1373032,1,,,,,,,,CompanyKeyword,"Am Dorfwald in Berlin, Germany",,german_fires_berlin_locations,f554f86198c9b1c9a4580de3899262b1,german_fires_berlin_locations__dbd5cf63aca043f6ca52e16aa323645f
am dornbusch,"Am Dornbusch in Berlin, Germany",52.4972135,13.2699492,1,,,,,,,,Consulates,"Am Dornbusch in Berlin, Germany",,german_fires_berlin_locations,bdf866a2aefc24e8acb7f604b7913716,german_fires_berlin_locations__40f34f6c5213e63f8398bc600fe0b6aa
am eichenhain,"Am Eichenhain in Berlin, Germany",52.6328885,13.2659851,1,,,,,,,,Diplomat,"Am Eichenhain in Berlin, Germany",,german_fires_berlin_locations,4bde8f2c6b8bffdc79368bd5d19f5dbd,german_fires_berlin_locations__e0b3fc2f29abfed37ecd96dc10e61e9c
am eichenquast,"Am Eichenquast in Berlin, Germany",52.4207505,13.4484423,1,,,,,,,,Media,"Am Eichenquast in Berlin, Germany",,german_fires_berlin_locations,993f2543385b31b7aa1a47e4dafeef00,german_fires_berlin_locations__32c248c3bb5d84ccb724544e17be40e0
am eichgarten,"Am Eichgarten in Berlin, Germany",52.44568,13.3353896,1,,,,,,,,Shipping,"Am Eichgarten in Berlin, Germany",,german_fires_berlin_locations,4ac1800cee40a082c6554bdcecbff909,german_fires_berlin_locations__5d17d328f1282fb383087ffa8c99ccd1
am elsebrocken,"Am Elsebrocken in Berlin, Germany",52.6193839,13.4849534,1,,,,,,,,Shipping,"Am Elsebrocken in Berlin, Germany",,german_fires_berlin_locations,09bb2ce1dc377c22772dd700813ff73d,german_fires_berlin_locations__b1f384bad63016da787a953cea5d25b5
am elsenbruch,"Am Elsenbruch in Berlin, Germany",52.4424926,13.3303524,1,,,,,,,,News,"Am Elsenbruch in Berlin, Germany",,german_fires_berlin_locations,aa41532125e8a4c8a52752c0b1a67fa8,german_fires_berlin_locations__0a5710640d23d6e37a600fc6e538cf57
am erlenbusch,"Am Erlenbusch in Berlin, Germany",52.4645458,13.3024861,1,,,,,,,,Shipping,"Am Erlenbusch in Berlin, Germany",,german_fires_berlin_locations,151f717ed4af26436dc21719b90a8c22,german_fires_berlin_locations__650c4f335079b65bbb5ada302ca28437
am ernst-grube-park,"Am Ernst-Grube-Park in Berlin, Germany",52.4511805,13.5623439,1,,,,,,,,FTO,"Am Ernst-Grube-Park in Berlin, Germany",,german_fires_berlin_locations,7feec9075f2433c443e7bdee68ee12fe,german_fires_berlin_locations__029392c412bcb6aee2ca91ffb5626127
am espenpfuhl,"Am Espenpfuhl in Berlin, Germany",52.4107088,13.508464,1,,,,,,,,Refinery,"Am Espenpfuhl in Berlin, Germany",,german_fires_berlin_locations,06c69aa2afe84c182b770588fa3ad2eb,german_fires_berlin_locations__5d595208f30cf411f91b7951eb1271f7
am eulenhorst,"Am Eulenhorst in Berlin, Germany",52.5818282,13.2296462,1,,,,,,,,ForeignMinistry,"Am Eulenhorst in Berlin, Germany",,german_fires_berlin_locations,43a0d3750978ee63113f53c568a753ed,german_fires_berlin_locations__1810cee285188ab8a562676b6772ccdc
am falkenberg,"Am Falkenberg in Berlin, Germany",52.4149144,13.5608101,1,,,,,,,,Exec,"Am Falkenberg in Berlin, Germany",,german_fires_berlin_locations,0c02fdfc6180c8b014a695cb1611c042,german_fires_berlin_locations__b2fd097cfa299feb56bb9fccecef999f
am falkplatz,"Am Falkplatz in Berlin, Germany",52.5464076,13.405695,1,,,,,,,,DiplomaticFacilities,"Am Falkplatz in Berlin, Germany",,german_fires_berlin_locations,d2392bcea1013bce0f691e669be78d27,german_fires_berlin_locations__21ac7214c46844e38f200f2c6265ffe0
am faulen see,"Am Faulen See in Berlin, Germany",52.5541592,13.4970027,1,,,,,,,,News,"Am Faulen See in Berlin, Germany",,german_fires_berlin_locations,b3897b6aaf7f7c25f62b41b4dfe5e279,german_fires_berlin_locations__d53a48b1a066ff23acc7deedec43248c
am feldberg,"Am Feldberg in Berlin, Germany",52.5039001,13.5876136,1,,,,,,,,IndustryTerm,"Am Feldberg in Berlin, Germany",,german_fires_berlin_locations,5955f72eeb884769f59f40399b4d9f7f,german_fires_berlin_locations__0530331cd41de2e072010d7a8a6a4147
am fenn,"Am Fenn in Berlin, Germany",52.4465521,13.3398327,1,,,,,,,,Consulates,"Am Fenn in Berlin, Germany",,german_fires_berlin_locations,31fdd8941626bd3431ba279d13810a23,german_fires_berlin_locations__cf160e131f201b6366061e74b29d836c
am festplatz,"Am Festplatz in Berlin, Germany",52.5520776,13.3043733,1,,,,,,,,ForeignMinistry,"Am Festplatz in Berlin, Germany",,german_fires_berlin_locations,d94dad6681f9f0899b448c7136ada475,german_fires_berlin_locations__18179a53300e6929e12ee1061df09f8c
am festungsgraben,"Am Festungsgraben in Berlin, Germany",52.5184048,13.3956089,1,,,,,,,,Wells,"Am Festungsgraben in Berlin, Germany",,german_fires_berlin_locations,b8b09b7779e99ebcf85154883f4dd28b,german_fires_berlin_locations__127b77e6151d1e63d51908340f5485e8
am feuchten winkel,"Am Feuchten Winkel in Berlin, Germany",52.5798763,13.4337833,1,,,,,,,,Diplomat,"Am Feuchten Winkel in Berlin, Germany",,german_fires_berlin_locations,11228b6173584e65903a56aa04bd2848,german_fires_berlin_locations__1153f683eebdff6a4a30acf1f344743c
am fichtenberg,"Am Fichtenberg in Berlin, Germany",52.4536984,13.3111543,1,,,,,,,,Media,"Am Fichtenberg in Berlin, Germany",,german_fires_berlin_locations,37bde94b4b4a07fb1bdf07054211cfc1,german_fires_berlin_locations__909230c107c1124152a12e9fc30ea94e
am filmlager,"Am Filmlager in Berlin, Germany",52.4495543,13.58389,1,,,,,,,,LegislativeCommittee,"Am Filmlager in Berlin, Germany",,german_fires_berlin_locations,28fa108fdf990b5c4418add5cdb62a42,german_fires_berlin_locations__45e0f6812113f9c91b9897d6fcf0bd79
am finkenherd,"Am Finkenherd in Berlin, Germany",52.5498081,13.1497059,1,,,,,,,,Refinery,"Am Finkenherd in Berlin, Germany",,german_fires_berlin_locations,94379af875d7001bba6c42e50a088bd2,german_fires_berlin_locations__72924d01db45d184f9616fec018a6034
am fischtal,"Am Fischtal in Berlin, Germany",52.4472886,13.2588324,1,,,,,,,,LegislativeCommittee,"Am Fischtal in Berlin, Germany",,german_fires_berlin_locations,4b22cbead6c45208ebe95caed5b3aa3b,german_fires_berlin_locations__b046b3e07b3791f36b13ddc0f7df4ae6
am fliederbusch,"Am Fliederbusch in Berlin, Germany",52.4971811,13.2685564,1,,,,,,,,space,"Am Fliederbusch in Berlin, Germany",,german_fires_berlin_locations,3b42bc5eb05c62d25b03b0f1900f761f,german_fires_berlin_locations__34f855c8279dd4cdadcdbb23f1f58636
am fliess,"Am Fliess in Berlin, Germany",52.5886125,13.461943,1,,,,,,,,News,"Am Fliess in Berlin, Germany",,german_fires_berlin_locations,99121c381e54be2ea83f54d050a28c8e,german_fires_berlin_locations__ee313df5960cc23c57ffff82338ea370
am flugplatz gatow,"Am Flugplatz Gatow in Berlin, Germany",52.4724749,13.1282264,1,,,,,,,,ForeignMinistry,"Am Flugplatz Gatow in Berlin, Germany",,german_fires_berlin_locations,7eb45ca3e4099f27425f7dbb17f8d195,german_fires_berlin_locations__9043b554065b3c2fafc5c2516eb25a6b
am flutgraben,"Am Flutgraben in Berlin, Germany",52.496827,13.4507064,1,,,,,,,,IndustryTerm,"Am Flutgraben in Berlin, Germany",,german_fires_berlin_locations,bba5052bfc7e35fb69f59b005cb041c0,german_fires_berlin_locations__6d953a290b18e68a84b6a1e03356082c
am folzberg,"Am Folzberg in Berlin, Germany",52.6137927,13.3547374,1,,,,,,,,Wells,"Am Folzberg in Berlin, Germany",,german_fires_berlin_locations,632d1c42e926a5a744f68a615476b4d5,german_fires_berlin_locations__f56f7672db67b0d407a26cb4ea42070e
am forstacker,"Am Forstacker in Berlin, Germany",52.5637637,13.2005142,1,,,,,,,,Wells,"Am Forstacker in Berlin, Germany",,german_fires_berlin_locations,9a06b368239c8bec6f4d823a3140dbcb,german_fires_berlin_locations__5933723b88bcdfb26a3250dfaf40d425
am fort,"Am Fort in Berlin, Germany",52.5217951,13.1343342,1,,,,,,,,Legislator,"Am Fort in Berlin, Germany",,german_fires_berlin_locations,79d4e5e0f095de1142caf42a6da096d8,german_fires_berlin_locations__82074ddd6d3c048c6d7bc1f83c861928
am freibad,"Am Freibad in Berlin, Germany",52.6189991,13.3340231,1,,,,,,,,Person,"Am Freibad in Berlin, Germany",,german_fires_berlin_locations,45128a959d37992d8b17e3cb66e909f0,german_fires_berlin_locations__bf1bcb7b588a7d217d8d7aff7d4921bf
am friedrichshain,"Am Friedrichshain in Berlin, Germany",52.5293532,13.4297552,1,,,,,,,,Consulates,"Am Friedrichshain in Berlin, Germany",,german_fires_berlin_locations,db077afed5ccc45b02be93a8116a3a97,german_fires_berlin_locations__52baafa62b5bc88c2b3619d99a1e616d
am fuchsbau,"Am Fuchsbau in Berlin, Germany",52.6108663,13.2333455,1,,,,,,,,Legislator,"Am Fuchsbau in Berlin, Germany",,german_fires_berlin_locations,51f329cb273018d0c1b92db503c5d45a,german_fires_berlin_locations__1b1339a60418b547169f764730047f8f
am fuchspass,"Am Fuchspass in Berlin, Germany",52.4527426,13.2547887,1,,,,,,,,Refinery,"Am Fuchspass in Berlin, Germany",,german_fires_berlin_locations,a9cc775968b2db201f6542dfea56e411,german_fires_berlin_locations__e42f362276c451c5167835ebeb345cab
am gartenstadtweg,"Am Gartenstadtweg in Berlin, Germany",52.4088364,13.5635576,1,,,,,,,,ForeignMinistry,"Am Gartenstadtweg in Berlin, Germany",,german_fires_berlin_locations,768759ac7f1233c0abaaadaead50f0c7,german_fires_berlin_locations__cb966d94ce2da79e7b6b5ead57ed471a
am gehrensee,"Am Gehrensee in Berlin, Germany",52.5725441,13.5648464,1,,,,,,,,Keyphrase,"Am Gehrensee in Berlin, Germany",,german_fires_berlin_locations,c6e6f65d1580f6cd004ac8ad658ae6f6,german_fires_berlin_locations__40159f3610356eaedd800a576ffb7156
am gemeindepark,"Am Gemeindepark in Berlin, Germany",52.4297716,13.3508828,1,,,,,,,,IndustryTerm,"Am Gemeindepark in Berlin, Germany",,german_fires_berlin_locations,d2fb2279ea84db88751d75a0b56c628d,german_fires_berlin_locations__9ec3244fd7cfae7ff8752106a7f1b1d9
am generalshof,"Am Generalshof in Berlin, Germany",52.4521723,13.5744108,1,,,,,,,,DiplomaticFacilities,"Am Generalshof in Berlin, Germany",,german_fires_berlin_locations,a15cef604b033a0d2d305526ded6204b,german_fires_berlin_locations__81c4074f058dd98e144c6a2f5a8293a5
am genossenschaftsring,"Am Genossenschaftsring in Berlin, Germany",52.575093,13.5212753,1,,,,,,,,Legislator,"Am Genossenschaftsring in Berlin, Germany",,german_fires_berlin_locations,fd5e0402031fd68cf0e4a2c517f5c9fc,german_fires_berlin_locations__3b4000b9eb3fff5466ac750a369eda17
am gewerbepark,"Am Gewerbepark in Berlin, Germany",52.5221954,13.5655571,1,,,,,,,,Person,"Am Gewerbepark in Berlin, Germany",,german_fires_berlin_locations,25eaa0fc9fbb55045e1a62b023fcb2e7,german_fires_berlin_locations__41a5a06c70227f238c86c65f0f7bf3f7
am glinigk,"Am Glinigk in Berlin, Germany",52.4255144,13.5238337,1,,,,,,,,ForeignMinistry,"Am Glinigk in Berlin, Germany",,german_fires_berlin_locations,f9d98910a3a687aa0d3714877d48c999,german_fires_berlin_locations__64b34b7e9cfa90c0a17e7f56f42d4134
am glockenturm,"Am Glockenturm in Berlin, Germany",52.5139732,13.2320509,1,,,,,,,,IndustryTerm,"Am Glockenturm in Berlin, Germany",,german_fires_berlin_locations,ddeae6d69fa03f6616beac5875b58032,german_fires_berlin_locations__b24d025bc2041fbea830d58e062eba02
am goldmannpark,"Am Goldmannpark in Berlin, Germany",52.4558711,13.6308113,1,,,,,,,,IndustryTerm,"Am Goldmannpark in Berlin, Germany",,german_fires_berlin_locations,b8c7d281b4cb8491dffc23195ad0bb09,german_fires_berlin_locations__794903cbe60c089e2d0b59c89a0184cd
am graben,"Am Graben in Berlin, Germany",52.5736848,13.4667617,1,,,,,,,,IndustryTerm,"Am Graben in Berlin, Germany",,german_fires_berlin_locations,36d5010ef31a2e121bef403e7e6cd8bb,german_fires_berlin_locations__6aab2e78316c18db451bc135ae40c667
am groen,"Am Groen in Berlin, Germany",52.5034708,13.5761145,1,,,,,,,,LegislativeCommittee,"Am Groen in Berlin, Germany",,german_fires_berlin_locations,4d1191516369870d31650b6c34e00039,german_fires_berlin_locations__b541efcb958e43093236ddc28efa2dda
am grossen rohrpfuhl,"Am Grossen Rohrpfuhl in Berlin, Germany",52.4123678,13.4941274,1,,,,,,,,Diplomat,"Am Grossen Rohrpfuhl in Berlin, Germany",,german_fires_berlin_locations,58e52fe508d213e00a7177d4ae4f4dd6,german_fires_berlin_locations__18911d7ffd48fbbc0e91c79473b0ab1f
am grossen wannsee,"Am Grossen Wannsee in Berlin, Germany",52.4282757,13.1628914,1,,,,,,,,IndustryTerm,"Am Grossen Wannsee in Berlin, Germany",,german_fires_berlin_locations,7b5601b7adbe9b6f930a1e8e9f1433ad,german_fires_berlin_locations__3027a23c28517ffb0a421d232cfa8902
am grunen anger,"Am Grunen Anger in Berlin, Germany",52.4495985,13.5127009,1,,,,,,,,Organization,"Am Grunen Anger in Berlin, Germany",,german_fires_berlin_locations,e1699b6c0dd81c425e0956eb2ce4b03d,german_fires_berlin_locations__f67e49f080e54a44e30a9015917c5231
