german_text,caption_text,lat,lon,ranking,default location,default_lat,default_lon,.1,.2,ENTITY_LABEL,name,description,source,source_identifier,global_identifier
eldena,"Eldena in Greifswald, Germany",54.090839,13.445857,2,"Greifswald, Germany",54.08659234,13.38859929,,ss,IndustryTerm,"Eldena in Greifswald, Germany",,german_fires_greifswald_locations,3e0163ca43deadf7f55e0697d583a2c0,german_fires_greifswald_locations__3e0163ca43deadf7f55e0697d583a2c0
fettenvorstadt,"Fettenvorstadt in Greifswald, Germany",54.09411,13.36405,2,,,,,u,Wells,"Fettenvorstadt in Greifswald, Germany",,german_fires_greifswald_locations,d19cf11b71dcd731b7ad2dbe8d671b6a,german_fires_greifswald_locations__d19cf11b71dcd731b7ad2dbe8d671b6a
fleischervorstadt,"Fleischervorstadt in Greifswald, Germany",54.0865463,13.3923414,2,,,,,a,Pipeline,"Fleischervorstadt in Greifswald, Germany",,german_fires_greifswald_locations,2bd7fe1095126e56ae534f0db96765be,german_fires_greifswald_locations__2bd7fe1095126e56ae534f0db96765be
industriegebiet,"Industriegebiet in Greifswald, Germany",54.0696,13.3788999,2,,,,,o,Legislator,"Industriegebiet in Greifswald, Germany",,german_fires_greifswald_locations,c97d748a3bd638f5e77892dcc490cac5,german_fires_greifswald_locations__c97d748a3bd638f5e77892dcc490cac5
innenstadt,"Innenstadt in Greifswald, Germany",54.0961146,13.3762339,2,,,,,,Refinery,"Innenstadt in Greifswald, Germany",,german_fires_greifswald_locations,6e0e58af6526455af23388c89e2024c5,german_fires_greifswald_locations__6e0e58af6526455af23388c89e2024c5
ladebow,"Ladebow in Greifswald, Germany",54.0970168,13.4432585,2,,,,,,AAEntity,"Ladebow in Greifswald, Germany",,german_fires_greifswald_locations,5fd28557850380399be60f76054b36e3,german_fires_greifswald_locations__5fd28557850380399be60f76054b36e3
muhlenvorstadt,"Muhlenvorstadt in Greifswald, Germany",54.0865463,13.3923414,2,,,,,,Organization,"Muhlenvorstadt in Greifswald, Germany",,german_fires_greifswald_locations,881931858af1f4912491133d556c76e9,german_fires_greifswald_locations__881931858af1f4912491133d556c76e9
nordliche,"Nordliche in Greifswald, Germany",54.09817,13.3891099,2,,,,,,AAEntity,"Nordliche in Greifswald, Germany",,german_fires_greifswald_locations,d52937dd4bab78143fe9a4e388028836,german_fires_greifswald_locations__d52937dd4bab78143fe9a4e388028836
obstbausiedlung,"Obstbausiedlung in Greifswald, Germany",54.081654,13.3953679,2,,,,,,Exec,"Obstbausiedlung in Greifswald, Germany",,german_fires_greifswald_locations,1d8299a41516c48b89c7d3b042b88624,german_fires_greifswald_locations__1d8299a41516c48b89c7d3b042b88624
ostseeviertel,"Ostseeviertel in Greifswald, Germany",54.09469,13.4248755,2,,,,,,FTO,"Ostseeviertel in Greifswald, Germany",,german_fires_greifswald_locations,e3b9d492294d1d967e418d6ad58434ee,german_fires_greifswald_locations__e3b9d492294d1d967e418d6ad58434ee
ostseeviertel,"Ostseeviertel in Greifswald, Germany",54.09469,13.4248755,2,,,,,,News,"Ostseeviertel in Greifswald, Germany",,german_fires_greifswald_locations,e3b9d492294d1d967e418d6ad58434ee,german_fires_greifswald_locations__e3b9d492294d1d967e418d6ad58434ee
schonwalde i,"Schonwalde I in Greifswald, Germany",54.0767164,13.4264757,2,,,,,,space,"Schonwalde I in Greifswald, Germany",,german_fires_greifswald_locations,8f80c4f66e264db6562da25a9fb9a03a,german_fires_greifswald_locations__8f80c4f66e264db6562da25a9fb9a03a
schonwalde ii,"Schonwalde II in Greifswald, Germany",54.0767164,13.4264757,2,,,,,,Refinery,"Schonwalde II in Greifswald, Germany",,german_fires_greifswald_locations,78688160eec95de4382e06997bf86fa2,german_fires_greifswald_locations__78688160eec95de4382e06997bf86fa2
stadtrandsiedlung,"Stadtrandsiedlung in Greifswald, Germany",54.0822222,13.3680556,2,,,,,,ForeignMinister,"Stadtrandsiedlung in Greifswald, Germany",,german_fires_greifswald_locations,77e2a3738c3d3bf73a7c12b86aab387e,german_fires_greifswald_locations__77e2a3738c3d3bf73a7c12b86aab387e
steinbeckervorstadt,"Steinbeckervorstadt in Greifswald, Germany",54.0957857,13.379787,2,,,,,,Organization,"Steinbeckervorstadt in Greifswald, Germany",,german_fires_greifswald_locations,8f69cd76b2127e8773e6d09c1814ea1d,german_fires_greifswald_locations__8f69cd76b2127e8773e6d09c1814ea1d
sudliche muhlenvorstadt,"Sudliche Muhlenvorstadt in Greifswald, Germany",54.081654,13.3953679,2,,,,,,LegislativeCommittee,"Sudliche Muhlenvorstadt in Greifswald, Germany",,german_fires_greifswald_locations,9c91ed604850a02c8c8936bc923573f0,german_fires_greifswald_locations__9c91ed604850a02c8c8936bc923573f0
sudstadt,"Sudstadt in Greifswald, Germany",54.0761913,13.3989682,2,,,,,,Media,"Sudstadt in Greifswald, Germany",,german_fires_greifswald_locations,4f1c5e15807328c1fb248242ca460c12,german_fires_greifswald_locations__4f1c5e15807328c1fb248242ca460c12
wieck,"Wieck in Greifswald, Germany",54.0954272,13.4492982,2,,,,,,ForeignMinistry,"Wieck in Greifswald, Germany",,german_fires_greifswald_locations,60265d4c466d3c20b265cde3458b5fc0,german_fires_greifswald_locations__60265d4c466d3c20b265cde3458b5fc0
aalbruch,"Aalbruch in Greifswald, Germany",54.0944854,13.3607561,1,,,,,,space,"Aalbruch in Greifswald, Germany",,german_fires_greifswald_locations,d9bd29c498e142df772fb6e7c4f9c2d1,german_fires_greifswald_locations__d9bd29c498e142df772fb6e7c4f9c2d1
adolf-hofmeister-weg,"Adolf-Hofmeister-Weg in Greifswald, Germany",54.0847918,13.403605,1,,,,,,DiplomaticFacilities,"Adolf-Hofmeister-Weg in Greifswald, Germany",,german_fires_greifswald_locations,8eedc74509f8e258f38aabc28e3d4311,german_fires_greifswald_locations__8eedc74509f8e258f38aabc28e3d4311
ahornweg,"Ahornweg in Greifswald, Germany",54.0854187,13.4447488,1,,,,,,IndustryTerm,"Ahornweg in Greifswald, Germany",,german_fires_greifswald_locations,453b8654cdd3e250afd934e0c734759a,german_fires_greifswald_locations__453b8654cdd3e250afd934e0c734759a
alfred-wegener-strasse,"Alfred-Wegener-Strasse in Greifswald, Germany",54.0914948,13.4249578,1,,,,,,Legislator,"Alfred-Wegener-Strasse in Greifswald, Germany",,german_fires_greifswald_locations,5f3eeda16b3c3c6ac062914f430b6df1,german_fires_greifswald_locations__5f3eeda16b3c3c6ac062914f430b6df1
alte brauerei,"Alte Brauerei in Greifswald, Germany",54.0944492,13.3655585,1,,,,,,DiplomaticFacilities,"Alte Brauerei in Greifswald, Germany",,german_fires_greifswald_locations,86fc0dd56bc564de272e5e23bcc65eed,german_fires_greifswald_locations__86fc0dd56bc564de272e5e23bcc65eed
am bierbach,"Am Bierbach in Greifswald, Germany",54.085975,13.4520824,1,,,,,,Keyphrase,"Am Bierbach in Greifswald, Germany",,german_fires_greifswald_locations,fd790b07650531ebb32f05e54868c30c,german_fires_greifswald_locations__fd790b07650531ebb32f05e54868c30c
am elisenpark,"Am Elisenpark in Greifswald, Germany",54.0790927,13.4325857,1,,,,,,LegislativeCommittee,"Am Elisenpark in Greifswald, Germany",,german_fires_greifswald_locations,c4e2d3634715c2902dff0958c110057c,german_fires_greifswald_locations__c4e2d3634715c2902dff0958c110057c
am gorzberg,"Am Gorzberg in Greifswald, Germany",54.0762073,13.3882948,1,,,,,,LegislativeCommittee,"Am Gorzberg in Greifswald, Germany",,german_fires_greifswald_locations,5d0c528bb14d84f6a9e6734b8ab121a1,german_fires_greifswald_locations__5d0c528bb14d84f6a9e6734b8ab121a1
am grunland,"Am Grunland in Greifswald, Germany",54.0815787,13.3892466,1,,,,,,Diplomat,"Am Grunland in Greifswald, Germany",,german_fires_greifswald_locations,38cfb8075d6a3c6365a2283cff3496fe,german_fires_greifswald_locations__38cfb8075d6a3c6365a2283cff3496fe
am hafen,"Am Hafen in Greifswald, Germany",54.0959348,13.4529356,1,,,,,,ForeignMinistry,"Am Hafen in Greifswald, Germany",,german_fires_greifswald_locations,4de3ca9ee1e2469b3305313ee7ba4e51,german_fires_greifswald_locations__4de3ca9ee1e2469b3305313ee7ba4e51
am hang,"Am Hang in Greifswald, Germany",54.1793726,13.3361092,1,,,,,,FTO,"Am Hang in Greifswald, Germany",,german_fires_greifswald_locations,d5495b7ce3c26094b4c1cf043c01177a,german_fires_greifswald_locations__d5495b7ce3c26094b4c1cf043c01177a
am helmshager berg,"Am Helmshager Berg in Greifswald, Germany",54.0697398,13.3851454,1,,,,,,LegislativeCommittee,"Am Helmshager Berg in Greifswald, Germany",,german_fires_greifswald_locations,0b91b303a4d12e37c1a52f4f7caf30cc,german_fires_greifswald_locations__0b91b303a4d12e37c1a52f4f7caf30cc
am koppelberg,"Am Koppelberg in Greifswald, Germany",54.0689744,13.3912633,1,,,,,,Wells,"Am Koppelberg in Greifswald, Germany",,german_fires_greifswald_locations,53a6e6f5ba1589a49229799424988cff,german_fires_greifswald_locations__53a6e6f5ba1589a49229799424988cff
am muhlentor,"Am Muhlentor in Greifswald, Germany",54.095123,13.3864968,1,,,,,,DiplomaticFacilities,"Am Muhlentor in Greifswald, Germany",,german_fires_greifswald_locations,63c7f4bfa9fe445ad4a463eef52a46c0,german_fires_greifswald_locations__63c7f4bfa9fe445ad4a463eef52a46c0
am neuen friedhof,"Am Neuen Friedhof in Greifswald, Germany",54.0953285,13.3488729,1,,,,,,Person,"Am Neuen Friedhof in Greifswald, Germany",,german_fires_greifswald_locations,6339649ba114834b31597695b07ff9f7,german_fires_greifswald_locations__6339649ba114834b31597695b07ff9f7
am rubenowplatz,"Am Rubenowplatz in Greifswald, Germany",54.095566,13.3745731,1,,,,,,ForeignMinistry,"Am Rubenowplatz in Greifswald, Germany",,german_fires_greifswald_locations,649eacc8f9dc10784e5736544341d06b,german_fires_greifswald_locations__649eacc8f9dc10784e5736544341d06b
am rundling,"Am Rundling in Greifswald, Germany",54.1778306,13.3354722,1,,,,,,space,"Am Rundling in Greifswald, Germany",,german_fires_greifswald_locations,688d7ba4e268bf45e34bbc68f54d0ec1,german_fires_greifswald_locations__688d7ba4e268bf45e34bbc68f54d0ec1
am ryck,"Am Ryck in Greifswald, Germany",54.0937211,13.4273163,1,,,,,,Diplomat,"Am Ryck in Greifswald, Germany",,german_fires_greifswald_locations,124c6dff71961af2fe8c05cccc3593b4,german_fires_greifswald_locations__124c6dff71961af2fe8c05cccc3593b4
am schiesswall,"Am Schiesswall in Greifswald, Germany",54.0965243,13.3863662,1,,,,,,Wells,"Am Schiesswall in Greifswald, Germany",,german_fires_greifswald_locations,a691c7a94f72096c553f99f5f6f1134d,german_fires_greifswald_locations__a691c7a94f72096c553f99f5f6f1134d
am st. georgsfeld,"Am St. Georgsfeld in Greifswald, Germany",54.0959151,13.4044202,1,,,,,,Refinery,"Am St. Georgsfeld in Greifswald, Germany",,german_fires_greifswald_locations,63f2a483735644ab06644393478095bd,german_fires_greifswald_locations__63f2a483735644ab06644393478095bd
am teich,"Am Teich in Greifswald, Germany",54.0868723,13.4519713,1,,,,,,FTO,"Am Teich in Greifswald, Germany",,german_fires_greifswald_locations,728ea95b9295966310ab9c0c2c8afdea,german_fires_greifswald_locations__728ea95b9295966310ab9c0c2c8afdea
amselweg,"Amselweg in Greifswald, Germany",54.085377,13.4398912,1,,,,,,Diplomat,"Amselweg in Greifswald, Germany",,german_fires_greifswald_locations,73161281666be80913cae93871325af8,german_fires_greifswald_locations__73161281666be80913cae93871325af8
an den backerwiesen,"An den Backerwiesen in Greifswald, Germany",54.0715457,13.3903225,1,,,,,,Shipping,"An den Backerwiesen in Greifswald, Germany",,german_fires_greifswald_locations,ba8242dc605de9e7f840a14ffc2a2148,german_fires_greifswald_locations__ba8242dc605de9e7f840a14ffc2a2148
an den martenswiesen,"An den Martenswiesen in Greifswald, Germany",54.066752,13.3827616,1,,,,,,Diplomat,"An den Martenswiesen in Greifswald, Germany",,german_fires_greifswald_locations,94705af275bf634fb86c55cfdb14a8c4,german_fires_greifswald_locations__94705af275bf634fb86c55cfdb14a8c4
an den wurthen,"An den Wurthen in Greifswald, Germany",54.0968385,13.3964767,1,,,,,,Media,"An den Wurthen in Greifswald, Germany",,german_fires_greifswald_locations,ffb4c20e46d2d198b7d5d0f99dfe3085,german_fires_greifswald_locations__ffb4c20e46d2d198b7d5d0f99dfe3085
an der bleiche,"An der Bleiche in Greifswald, Germany",54.0991589,13.3774481,1,,,,,,IndustryTerm,"An der Bleiche in Greifswald, Germany",,german_fires_greifswald_locations,846a2ffb598a5a5b349ba113e33b4b63,german_fires_greifswald_locations__846a2ffb598a5a5b349ba113e33b4b63
an der christuskirche,"An der Christuskirche in Greifswald, Germany",54.0843019,13.4271531,1,,,,,,LegislativeCommittee,"An der Christuskirche in Greifswald, Germany",,german_fires_greifswald_locations,9c436401678f8b8c68144311e7f112b6,german_fires_greifswald_locations__9c436401678f8b8c68144311e7f112b6
an der heuwiese,"An der Heuwiese in Greifswald, Germany",54.0773507,13.4276163,1,,,,,,CompanyKeyword,"An der Heuwiese in Greifswald, Germany",,german_fires_greifswald_locations,e71af61e6a4f3e00047afeaa34b2574f,german_fires_greifswald_locations__e71af61e6a4f3e00047afeaa34b2574f
an der jacobikirche,"An der Jacobikirche in Greifswald, Germany",54.0954466,13.3731369,1,,,,,,IndustryTerm,"An der Jacobikirche in Greifswald, Germany",,german_fires_greifswald_locations,d89f76dafc6ae83faf355f48604e9f2d,german_fires_greifswald_locations__d89f76dafc6ae83faf355f48604e9f2d
an der jungfernwiese,"An der Jungfernwiese in Greifswald, Germany",54.0686813,13.3967139,1,,,,,,Legislator,"An der Jungfernwiese in Greifswald, Germany",,german_fires_greifswald_locations,3c4b6f1447c4ed71860b7fb39fe3b7f5,german_fires_greifswald_locations__3c4b6f1447c4ed71860b7fb39fe3b7f5
an der klosterruine,"An der Klosterruine in Greifswald, Germany",54.0886591,13.454251,1,,,,,,LegislativeCommittee,"An der Klosterruine in Greifswald, Germany",,german_fires_greifswald_locations,db22812ac7ca3bd4c37fd7891418c59f,german_fires_greifswald_locations__db22812ac7ca3bd4c37fd7891418c59f
an der muhle,"An der Muhle in Greifswald, Germany",54.092607,13.4455827,1,,,,,,News,"An der Muhle in Greifswald, Germany",,german_fires_greifswald_locations,b1df338c7b9255250f52819047f0dbe3,german_fires_greifswald_locations__b1df338c7b9255250f52819047f0dbe3
an der silberpappel,"An der Silberpappel in Greifswald, Germany",54.0868342,13.4452681,1,,,,,,News,"An der Silberpappel in Greifswald, Germany",,german_fires_greifswald_locations,65290adaf93369b4c02719cce8196560,german_fires_greifswald_locations__65290adaf93369b4c02719cce8196560
an der sparkasse,"An der Sparkasse in Greifswald, Germany",54.0741779,13.3926496,1,,,,,,News,"An der Sparkasse in Greifswald, Germany",,german_fires_greifswald_locations,3f6e7b13bbb01a31a80610438e4e3099,german_fires_greifswald_locations__3f6e7b13bbb01a31a80610438e4e3099
an der thronpost,"An der Thronpost in Greifswald, Germany",54.0701765,13.3932581,1,,,,,,News,"An der Thronpost in Greifswald, Germany",,german_fires_greifswald_locations,47c1b2aa368a6b6cd7a023a7176e9fa4,german_fires_greifswald_locations__47c1b2aa368a6b6cd7a023a7176e9fa4
an der wiek,"An der Wiek in Greifswald, Germany",54.1787518,13.3398298,1,,,,,,LegislativeCommittee,"An der Wiek in Greifswald, Germany",,german_fires_greifswald_locations,4b880630ffea38bc0e20dad79bfe0440,german_fires_greifswald_locations__4b880630ffea38bc0e20dad79bfe0440
andreas-mayer-strasse,"Andreas-Mayer-Strasse in Greifswald, Germany",54.0670968,13.4318178,1,,,,,,DiplomaticFacilities,"Andreas-Mayer-Strasse in Greifswald, Germany",,german_fires_greifswald_locations,cb7b25a95c885ebb298fbc9bad010eba,german_fires_greifswald_locations__cb7b25a95c885ebb298fbc9bad010eba
anger,"Anger in Greifswald, Germany",54.0751811,13.3905839,1,,,,,,ForeignMinister,"Anger in Greifswald, Germany",,german_fires_greifswald_locations,51f859c17ace48025fc77f8cea0f8133,german_fires_greifswald_locations__51f859c17ace48025fc77f8cea0f8133
anklamer landstrasse,"Anklamer Landstrasse in Greifswald, Germany",54.0672869,13.4366478,1,,,,,,IndustryTerm,"Anklamer Landstrasse in Greifswald, Germany",,german_fires_greifswald_locations,e70f79661eebeaf622d66176fbbb4b21,german_fires_greifswald_locations__e70f79661eebeaf622d66176fbbb4b21
anklamer strasse,"Anklamer Strasse in Greifswald, Germany",54.0862321,13.4043057,1,,,,,,LegislativeCommittee,"Anklamer Strasse in Greifswald, Germany",,german_fires_greifswald_locations,e4d18d6256759c8f6bc1dc96b41188c8,german_fires_greifswald_locations__e4d18d6256759c8f6bc1dc96b41188c8
anlagen,"Anlagen in Greifswald, Germany",54.0967582,13.3709367,1,,,,,,Exec,"Anlagen in Greifswald, Germany",,german_fires_greifswald_locations,48308be4f76fc9fc1b098e962ab01a9a,german_fires_greifswald_locations__48308be4f76fc9fc1b098e962ab01a9a
apfelweg,"Apfelweg in Greifswald, Germany",54.0811718,13.394905,1,,,,,,Person,"Apfelweg in Greifswald, Germany",,german_fires_greifswald_locations,590fc1dd733bd5704640b74aeb63bd79,german_fires_greifswald_locations__590fc1dd733bd5704640b74aeb63bd79
arndtstrasse,"Arndtstrasse in Greifswald, Germany",54.0913385,13.3819507,1,,,,,,AAEntity,"Arndtstrasse in Greifswald, Germany",,german_fires_greifswald_locations,92602f2b786c5f330db23e1253016614,german_fires_greifswald_locations__92602f2b786c5f330db23e1253016614
august-bebel-platz,"August-Bebel-Platz in Greifswald, Germany",54.0940253,13.3788725,1,,,,,,Consulates,"August-Bebel-Platz in Greifswald, Germany",,german_fires_greifswald_locations,3e875b1f3d02a823e78ecc26ece83881,german_fires_greifswald_locations__3e875b1f3d02a823e78ecc26ece83881
baderstrasse,"Baderstrasse in Greifswald, Germany",54.0946346,13.379503,1,,,,,,Keyphrase,"Baderstrasse in Greifswald, Germany",,german_fires_greifswald_locations,c27a58f2df6e33444836c153c62932bd,german_fires_greifswald_locations__c27a58f2df6e33444836c153c62932bd
bahnhofstrasse,"Bahnhofstrasse in Greifswald, Germany",54.0929838,13.3742416,1,,,,,,Wells,"Bahnhofstrasse in Greifswald, Germany",,german_fires_greifswald_locations,e884561a82f132ac8cb4bf735d54bc82,german_fires_greifswald_locations__e884561a82f132ac8cb4bf735d54bc82
bauernstrasse,"Bauernstrasse in Greifswald, Germany",54.0901331,13.4428007,1,,,,,,Shipping,"Bauernstrasse in Greifswald, Germany",,german_fires_greifswald_locations,361bf6d1f0052e7fde48ea469f352cf9,german_fires_greifswald_locations__361bf6d1f0052e7fde48ea469f352cf9
baumhaselweg,"Baumhaselweg in Greifswald, Germany",54.0887625,13.4416209,1,,,,,,Exec,"Baumhaselweg in Greifswald, Germany",,german_fires_greifswald_locations,84a67e786356c2a9dc81439cb16178cd,german_fires_greifswald_locations__84a67e786356c2a9dc81439cb16178cd
baustrasse,"Baustrasse in Greifswald, Germany",54.0912609,13.377202,1,,,,,,Legislator,"Baustrasse in Greifswald, Germany",,german_fires_greifswald_locations,cb296f0c8d6e0eeb8fab5d429665084e,german_fires_greifswald_locations__cb296f0c8d6e0eeb8fab5d429665084e
bergweg,"Bergweg in Greifswald, Germany",54.0704753,13.4944728,1,,,,,,News,"Bergweg in Greifswald, Germany",,german_fires_greifswald_locations,264e0b0a5183f86ac4565b5cc34350ab,german_fires_greifswald_locations__264e0b0a5183f86ac4565b5cc34350ab
bernhard-birkhahn-weg,"Bernhard-Birkhahn-Weg in Greifswald, Germany",54.0838562,13.4030547,1,,,,,,Exec,"Bernhard-Birkhahn-Weg in Greifswald, Germany",,german_fires_greifswald_locations,06dab8bf54f94ae44d466688e3dd1b51,german_fires_greifswald_locations__06dab8bf54f94ae44d466688e3dd1b51
bertha-von-suttner-strasse,"Bertha-von-Suttner-Strasse in Greifswald, Germany",54.1012823,13.4348598,1,,,,,,Keyphrase,"Bertha-von-Suttner-Strasse in Greifswald, Germany",,german_fires_greifswald_locations,ce31fa62d966a5924cec05e6d054188d,german_fires_greifswald_locations__ce31fa62d966a5924cec05e6d054188d
berthold-beitz-platz,"Berthold-Beitz-Platz in Greifswald, Germany",54.0895341,13.4044358,1,,,,,,Refinery,"Berthold-Beitz-Platz in Greifswald, Germany",,german_fires_greifswald_locations,d2b023dd22eb70f25b0973967567187c,german_fires_greifswald_locations__d2b023dd22eb70f25b0973967567187c
bettina-von-arnim-strasse,"Bettina-von-Arnim-Strasse in Greifswald, Germany",54.0871291,13.3658185,1,,,,,,FTO,"Bettina-von-Arnim-Strasse in Greifswald, Germany",,german_fires_greifswald_locations,7369ded13ec8f0829e19c8d23c76a78c,german_fires_greifswald_locations__7369ded13ec8f0829e19c8d23c76a78c
bienenweg,"Bienenweg in Greifswald, Germany",54.0804506,13.4319895,1,,,,,,News,"Bienenweg in Greifswald, Germany",,german_fires_greifswald_locations,af38e4691d26fe9569f9d97fad2775f2,german_fires_greifswald_locations__af38e4691d26fe9569f9d97fad2775f2
billrothstrasse,"Billrothstrasse in Greifswald, Germany",54.0932854,13.4071556,1,,,,,,Organization,"Billrothstrasse in Greifswald, Germany",,german_fires_greifswald_locations,225f57982608183b3885cc139563c958,german_fires_greifswald_locations__225f57982608183b3885cc139563c958
birkenweg,"Birkenweg in Greifswald, Germany",54.0856998,13.44404,1,,,,,,Media,"Birkenweg in Greifswald, Germany",,german_fires_greifswald_locations,adfd06399676c4167fd9635dc65fd187,german_fires_greifswald_locations__adfd06399676c4167fd9635dc65fd187
birnenweg,"Birnenweg in Greifswald, Germany",54.0837973,13.3908193,1,,,,,,News,"Birnenweg in Greifswald, Germany",,german_fires_greifswald_locations,bc633458c0d194161d60a99293c9ec76,german_fires_greifswald_locations__bc633458c0d194161d60a99293c9ec76
bleichstrasse,"Bleichstrasse in Greifswald, Germany",54.0911177,13.3858894,1,,,,,,IndustryTerm,"Bleichstrasse in Greifswald, Germany",,german_fires_greifswald_locations,cff172d2320417c058c6172b11f98f5a,german_fires_greifswald_locations__cff172d2320417c058c6172b11f98f5a
boddenblick,"Boddenblick in Greifswald, Germany",54.1838844,13.3562518,1,,,,,,ForeignMinistry,"Boddenblick in Greifswald, Germany",,german_fires_greifswald_locations,3846fe66f9b7db8ae76b76daf9ac67e3,german_fires_greifswald_locations__3846fe66f9b7db8ae76b76daf9ac67e3
boddenweg,"Boddenweg in Greifswald, Germany",54.0910887,13.4539544,1,,,,,,News,"Boddenweg in Greifswald, Germany",,german_fires_greifswald_locations,70c739275b55980e5361a8044f729fc2,german_fires_greifswald_locations__70c739275b55980e5361a8044f729fc2
bornholmer weg,"Bornholmer Weg in Greifswald, Germany",54.091509,13.4231825,1,,,,,,Pipeline,"Bornholmer Weg in Greifswald, Germany",,german_fires_greifswald_locations,f50b9a4bbc4987d7535e58b7ed959932,german_fires_greifswald_locations__f50b9a4bbc4987d7535e58b7ed959932
brandteichstrasse,"Brandteichstrasse in Greifswald, Germany",54.0819086,13.3740188,1,,,,,,Consulates,"Brandteichstrasse in Greifswald, Germany",,german_fires_greifswald_locations,9730929488e8cc6dff6b4f3bad15982a,german_fires_greifswald_locations__9730929488e8cc6dff6b4f3bad15982a
brinkstrasse,"Brinkstrasse in Greifswald, Germany",54.0906898,13.3885283,1,,,,,,AAEntity,"Brinkstrasse in Greifswald, Germany",,german_fires_greifswald_locations,6c43797957afcb1a4935360ba03b00b5,german_fires_greifswald_locations__6c43797957afcb1a4935360ba03b00b5
brooker weg,"Brooker Weg in Greifswald, Germany",54.1768237,13.3248,1,,,,,,News,"Brooker Weg in Greifswald, Germany",,german_fires_greifswald_locations,c19fc41d8014152f89673e2820ac2486,german_fires_greifswald_locations__c19fc41d8014152f89673e2820ac2486
bruggstrasse,"Bruggstrasse in Greifswald, Germany",54.0973381,13.383589,1,,,,,,Media,"Bruggstrasse in Greifswald, Germany",,german_fires_greifswald_locations,82e4637221ec2caa6e0136b848784ff2,german_fires_greifswald_locations__82e4637221ec2caa6e0136b848784ff2
brunzower wende,"Brunzower Wende in Greifswald, Germany",54.0778655,13.4102991,1,,,,,,IndustryTerm,"Brunzower Wende in Greifswald, Germany",,german_fires_greifswald_locations,87290598e594d32dd3685866deeafb08,german_fires_greifswald_locations__87290598e594d32dd3685866deeafb08
bugenhagenstrasse,"Bugenhagenstrasse in Greifswald, Germany",54.0887193,13.4002925,1,,,,,,Refinery,"Bugenhagenstrasse in Greifswald, Germany",,german_fires_greifswald_locations,949b510ebd0f0bd4d1e774d0797141c8,german_fires_greifswald_locations__949b510ebd0f0bd4d1e774d0797141c8
bukowberg,"Bukowberg in Greifswald, Germany",54.1793736,13.3398654,1,,,,,,Legislator,"Bukowberg in Greifswald, Germany",,german_fires_greifswald_locations,bb36636d26602df58f58a2cbabdb1dc8,german_fires_greifswald_locations__bb36636d26602df58f58a2cbabdb1dc8
burgstrasse,"Burgstrasse in Greifswald, Germany",54.0893406,13.3798845,1,,,,,,space,"Burgstrasse in Greifswald, Germany",,german_fires_greifswald_locations,5d90669218d4a8f4bba2a8022524fbbc,german_fires_greifswald_locations__5d90669218d4a8f4bba2a8022524fbbc
carl-paepke-platz,"Carl-Paepke-Platz in Greifswald, Germany",54.0939114,13.3710333,1,,,,,,DiplomaticFacilities,"Carl-Paepke-Platz in Greifswald, Germany",,german_fires_greifswald_locations,f19e1c56155f5cb01f0d00a70e426f9a,german_fires_greifswald_locations__f19e1c56155f5cb01f0d00a70e426f9a
caspar-david-friedrich-strasse,"Caspar-David-Friedrich-Strasse in Greifswald, Germany",54.0955465,13.3766209,1,,,,,,Organization,"Caspar-David-Friedrich-Strasse in Greifswald, Germany",,german_fires_greifswald_locations,7ecba19da181815fb6b7f6fda4383324,german_fires_greifswald_locations__7ecba19da181815fb6b7f6fda4383324
chamissostrasse,"Chamissostrasse in Greifswald, Germany",54.0782524,13.3656777,1,,,,,,LegislativeCommittee,"Chamissostrasse in Greifswald, Germany",,german_fires_greifswald_locations,c5e0ea2db9c149d378e99b1648c2ab88,german_fires_greifswald_locations__c5e0ea2db9c149d378e99b1648c2ab88
chausseehaus,"Chausseehaus in Greifswald, Germany",54.0828109,13.4780644,1,,,,,,space,"Chausseehaus in Greifswald, Germany",,german_fires_greifswald_locations,742431ff5568f32d1732839d57cf5fba,german_fires_greifswald_locations__742431ff5568f32d1732839d57cf5fba
clara-zetkin-strasse,"Clara-Zetkin-Strasse in Greifswald, Germany",54.0973434,13.4398642,1,,,,,,Consulates,"Clara-Zetkin-Strasse in Greifswald, Germany",,german_fires_greifswald_locations,a4fac02a11047974e6eb7297394c3c34,german_fires_greifswald_locations__a4fac02a11047974e6eb7297394c3c34
clemens-brentano-strasse,"Clemens-Brentano-Strasse in Greifswald, Germany",54.0867049,13.3672983,1,,,,,,Organization,"Clemens-Brentano-Strasse in Greifswald, Germany",,german_fires_greifswald_locations,7a295a8918aa6636fd590fdbc0103844,german_fires_greifswald_locations__7a295a8918aa6636fd590fdbc0103844
crednerstrasse,"Crednerstrasse in Greifswald, Germany",54.0926701,13.3599055,1,,,,,,Person,"Crednerstrasse in Greifswald, Germany",,german_fires_greifswald_locations,ea469d4a0efa2d8554a6be8928fa8b82,german_fires_greifswald_locations__ea469d4a0efa2d8554a6be8928fa8b82
daniel-tessmann-strasse,"Daniel-Tessmann-Strasse in Greifswald, Germany",54.0663876,13.4327226,1,,,,,,ForeignMinistry,"Daniel-Tessmann-Strasse in Greifswald, Germany",,german_fires_greifswald_locations,0aa823cfa3cf865ae298ef9ecbf6c72d,german_fires_greifswald_locations__0aa823cfa3cf865ae298ef9ecbf6c72d
darsser weg,"Darsser Weg in Greifswald, Germany",54.0916064,13.4270354,1,,,,,,Pipeline,"Darsser Weg in Greifswald, Germany",,german_fires_greifswald_locations,d6b626830e3ac8df383a61eb6bffd28e,german_fires_greifswald_locations__d6b626830e3ac8df383a61eb6bffd28e
deichstrasse,"Deichstrasse in Greifswald, Germany",54.1017132,13.391805,1,,,,,,Consulates,"Deichstrasse in Greifswald, Germany",,german_fires_greifswald_locations,da8e9d3a4c9ddbce6de0a7d713303736,german_fires_greifswald_locations__da8e9d3a4c9ddbce6de0a7d713303736
demminer strasse,"Demminer Strasse in Greifswald, Germany",54.0869089,13.4566891,1,,,,,,FTO,"Demminer Strasse in Greifswald, Germany",,german_fires_greifswald_locations,ff9cc6c03b77917efbfceb4071508209,german_fires_greifswald_locations__ff9cc6c03b77917efbfceb4071508209
dietrich-bonhoeffer-platz,"Dietrich-Bonhoeffer-Platz in Greifswald, Germany",54.0929068,13.3807062,1,,,,,,ForeignMinister,"Dietrich-Bonhoeffer-Platz in Greifswald, Germany",,german_fires_greifswald_locations,8c3c5ea63e200ef3fda4d6c02cea7d67,german_fires_greifswald_locations__8c3c5ea63e200ef3fda4d6c02cea7d67
domstrasse,"Domstrasse in Greifswald, Germany",54.0950421,13.3762451,1,,,,,,Keyphrase,"Domstrasse in Greifswald, Germany",,german_fires_greifswald_locations,0b891d88f4083a0314a4a9c8be25571d,german_fires_greifswald_locations__0b891d88f4083a0314a4a9c8be25571d
dorfstrasse,"Dorfstrasse in Greifswald, Germany",54.0976376,13.4495281,1,,,,,,DiplomaticFacilities,"Dorfstrasse in Greifswald, Germany",,german_fires_greifswald_locations,17d444349d3e414c0d4da33aa092e8cc,german_fires_greifswald_locations__17d444349d3e414c0d4da33aa092e8cc
dostojewskistrasse,"Dostojewskistrasse in Greifswald, Germany",54.0818568,13.4146374,1,,,,,,News,"Dostojewskistrasse in Greifswald, Germany",,german_fires_greifswald_locations,2bddc126a9f3c52cedf14107f9359f4f,german_fires_greifswald_locations__2bddc126a9f3c52cedf14107f9359f4f
dubnaring,"Dubnaring in Greifswald, Germany",54.0815497,13.4105993,1,,,,,,Refinery,"Dubnaring in Greifswald, Germany",,german_fires_greifswald_locations,6fb37c0bcc54269d872ff887477743a5,german_fires_greifswald_locations__6fb37c0bcc54269d872ff887477743a5
ebereschenweg,"Ebereschenweg in Greifswald, Germany",54.0862598,13.4425496,1,,,,,,DiplomaticFacilities,"Ebereschenweg in Greifswald, Germany",,german_fires_greifswald_locations,50bad3f8aaf23baaa7b5bc536bb4d520,german_fires_greifswald_locations__50bad3f8aaf23baaa7b5bc536bb4d520
eckhardsberg,"Eckhardsberg in Greifswald, Germany",54.06659,13.375577,1,,,,,,ForeignMinistry,"Eckhardsberg in Greifswald, Germany",,german_fires_greifswald_locations,f1925c22294eb002dc1fb2e8165f6399,german_fires_greifswald_locations__f1925c22294eb002dc1fb2e8165f6399
einsteinstrasse,"Einsteinstrasse in Greifswald, Germany",54.0811134,13.4023907,1,,,,,,Refinery,"Einsteinstrasse in Greifswald, Germany",,german_fires_greifswald_locations,dc4f052a056efb3e8787d78484bb0d4c,german_fires_greifswald_locations__dc4f052a056efb3e8787d78484bb0d4c
eisenhammer,"Eisenhammer in Greifswald, Germany",54.1009908,13.3959515,1,,,,,,Exec,"Eisenhammer in Greifswald, Germany",,german_fires_greifswald_locations,e187f18242a6181dc6886d688079d7e2,german_fires_greifswald_locations__e187f18242a6181dc6886d688079d7e2
eldenaer wende,"Eldenaer Wende in Greifswald, Germany",54.0799265,13.4112082,1,,,,,,CompanyKeyword,"Eldenaer Wende in Greifswald, Germany",,german_fires_greifswald_locations,e68adf5edfd31cec2f01364529d41b11,german_fires_greifswald_locations__e68adf5edfd31cec2f01364529d41b11
ellernholzstrasse,"Ellernholzstrasse in Greifswald, Germany",54.0916182,13.3667978,1,,,,,,CompanyKeyword,"Ellernholzstrasse in Greifswald, Germany",,german_fires_greifswald_locations,7ae1a03627e7d1749e565c443ecc3a22,german_fires_greifswald_locations__7ae1a03627e7d1749e565c443ecc3a22
erich-bohmke-strasse,"Erich-Bohmke-Strasse in Greifswald, Germany",54.0911053,13.3784859,1,,,,,,Media,"Erich-Bohmke-Strasse in Greifswald, Germany",,german_fires_greifswald_locations,1529e69dba071bd63b16791325d027b3,german_fires_greifswald_locations__1529e69dba071bd63b16791325d027b3
erich-kastner-strasse,"Erich-Kastner-Strasse in Greifswald, Germany",54.0837944,13.3601139,1,,,,,,Keyphrase,"Erich-Kastner-Strasse in Greifswald, Germany",,german_fires_greifswald_locations,24c30e9cb2955634d90c5100832e3f33,german_fires_greifswald_locations__24c30e9cb2955634d90c5100832e3f33
erich-peiper-strasse,"Erich-Peiper-Strasse in Greifswald, Germany",54.0853432,13.3939777,1,,,,,,ForeignMinistry,"Erich-Peiper-Strasse in Greifswald, Germany",,german_fires_greifswald_locations,f204641b8ef2185fc67735403da11c01,german_fires_greifswald_locations__f204641b8ef2185fc67735403da11c01
erich-weinert-strasse,"Erich-Weinert-Strasse in Greifswald, Germany",54.0874278,13.3944325,1,,,,,,Refinery,"Erich-Weinert-Strasse in Greifswald, Germany",,german_fires_greifswald_locations,b16b36ab5ef023be2f249b855ec8e05b,german_fires_greifswald_locations__b16b36ab5ef023be2f249b855ec8e05b
ernst-bernheim-strasse,"Ernst-Bernheim-Strasse in Greifswald, Germany",54.0664678,13.4299051,1,,,,,,space,"Ernst-Bernheim-Strasse in Greifswald, Germany",,german_fires_greifswald_locations,33a2dd520332c0948c95e2f531543f65,german_fires_greifswald_locations__33a2dd520332c0948c95e2f531543f65
ernst-lohmeyer-platz,"Ernst-Lohmeyer-Platz in Greifswald, Germany",54.0979751,13.3758934,1,,,,,,News,"Ernst-Lohmeyer-Platz in Greifswald, Germany",,german_fires_greifswald_locations,d1f3d8850cbec68138e762707b255dd6,german_fires_greifswald_locations__d1f3d8850cbec68138e762707b255dd6
ernst-thalmann-ring,"Ernst-Thalmann-Ring in Greifswald, Germany",54.080887,13.4188365,1,,,,,,Legislator,"Ernst-Thalmann-Ring in Greifswald, Germany",,german_fires_greifswald_locations,2b492f33755ef06b93040e41989a0a27,german_fires_greifswald_locations__2b492f33755ef06b93040e41989a0a27
ernst-wulff-weg,"Ernst-Wulff-Weg in Greifswald, Germany",54.0856292,13.4028871,1,,,,,,ForeignMinistry,"Ernst-Wulff-Weg in Greifswald, Germany",,german_fires_greifswald_locations,07c9753fa8be2a16ad1318c20cb9a31d,german_fires_greifswald_locations__07c9753fa8be2a16ad1318c20cb9a31d
ernsthofer wende,"Ernsthofer Wende in Greifswald, Germany",54.0782092,13.4045626,1,,,,,,Pipeline,"Ernsthofer Wende in Greifswald, Germany",,german_fires_greifswald_locations,0af767d71a708bd75fbd6b9067837105,german_fires_greifswald_locations__0af767d71a708bd75fbd6b9067837105
ernteweg,"Ernteweg in Greifswald, Germany",54.0788409,13.4265108,1,,,,,,Pipeline,"Ernteweg in Greifswald, Germany",,german_fires_greifswald_locations,6ccd0f9348d70190d9886d526b12439e,german_fires_greifswald_locations__6ccd0f9348d70190d9886d526b12439e
erwin-haack-weg,"Erwin-Haack-Weg in Greifswald, Germany",54.0850836,13.4043978,1,,,,,,Diplomat,"Erwin-Haack-Weg in Greifswald, Germany",,german_fires_greifswald_locations,88522a10c181db6f598836e2d9d63390,german_fires_greifswald_locations__88522a10c181db6f598836e2d9d63390
fahrweg,"Fahrweg in Greifswald, Germany",54.0936874,13.4480323,1,,,,,,CompanyKeyword,"Fahrweg in Greifswald, Germany",,german_fires_greifswald_locations,7348becce2be7cfe0b6f61b45ef2f02a,german_fires_greifswald_locations__7348becce2be7cfe0b6f61b45ef2f02a
feldstrasse,"Feldstrasse in Greifswald, Germany",54.0863481,13.3885763,1,,,,,,DiplomaticFacilities,"Feldstrasse in Greifswald, Germany",,german_fires_greifswald_locations,6ba2b492630c6eb81535ca8cae8f4979,german_fires_greifswald_locations__6ba2b492630c6eb81535ca8cae8f4979
felix-hausdorff-strasse,"Felix-Hausdorff-Strasse in Greifswald, Germany",54.0917963,13.4050462,1,,,,,,ForeignMinistry,"Felix-Hausdorff-Strasse in Greifswald, Germany",,german_fires_greifswald_locations,823b065610217cafa9ecee5e10e35f7b,german_fires_greifswald_locations__823b065610217cafa9ecee5e10e35f7b
ferdinand-sauerbruch-strasse,"Ferdinand-Sauerbruch-Strasse in Greifswald, Germany",54.0864743,13.4079037,1,,,,,,AAEntity,"Ferdinand-Sauerbruch-Strasse in Greifswald, Germany",,german_fires_greifswald_locations,eeda094536ad09a5fb257e49d3786fea,german_fires_greifswald_locations__eeda094536ad09a5fb257e49d3786fea
finkenweg,"Finkenweg in Greifswald, Germany",54.0846576,13.442825,1,,,,,,Shipping,"Finkenweg in Greifswald, Germany",,german_fires_greifswald_locations,3d046313e04cd5f6e7f88e84b914a8c0,german_fires_greifswald_locations__3d046313e04cd5f6e7f88e84b914a8c0
fischmarkt,"Fischmarkt in Greifswald, Germany",54.0957904,13.3796608,1,,,,,,space,"Fischmarkt in Greifswald, Germany",,german_fires_greifswald_locations,225c344e62dd83cd84cde0086b419237,german_fires_greifswald_locations__225c344e62dd83cd84cde0086b419237
fischstrasse,"Fischstrasse in Greifswald, Germany",54.0973942,13.3798033,1,,,,,,CompanyKeyword,"Fischstrasse in Greifswald, Germany",,german_fires_greifswald_locations,2dac6d1102569689e39452d114800b62,german_fires_greifswald_locations__2dac6d1102569689e39452d114800b62
fleischerstrasse,"Fleischerstrasse in Greifswald, Germany",54.0941244,13.3806122,1,,,,,,News,"Fleischerstrasse in Greifswald, Germany",,german_fires_greifswald_locations,5581c4984be2de7f8e7411baf898d192,german_fires_greifswald_locations__5581c4984be2de7f8e7411baf898d192
fleischerwiese,"Fleischerwiese in Greifswald, Germany",54.0918089,13.367867,1,,,,,,DiplomaticFacilities,"Fleischerwiese in Greifswald, Germany",,german_fires_greifswald_locations,3e8d1286ce776b2ef34bdc9b8c1cd80b,german_fires_greifswald_locations__3e8d1286ce776b2ef34bdc9b8c1cd80b
fleischmannstrasse,"Fleischmannstrasse in Greifswald, Germany",54.0900074,13.4005296,1,,,,,,CompanyKeyword,"Fleischmannstrasse in Greifswald, Germany",,german_fires_greifswald_locations,63598c9671178c382e20270e03e0688b,german_fires_greifswald_locations__63598c9671178c382e20270e03e0688b
fliederweg,"Fliederweg in Greifswald, Germany",54.0783408,13.3952355,1,,,,,,Wells,"Fliederweg in Greifswald, Germany",,german_fires_greifswald_locations,74f5197138115f23e71f3833aeb7bdad,german_fires_greifswald_locations__74f5197138115f23e71f3833aeb7bdad
franz-mehring-strasse,"Franz-Mehring-Strasse in Greifswald, Germany",54.0882941,13.3915249,1,,,,,,DiplomaticFacilities,"Franz-Mehring-Strasse in Greifswald, Germany",,german_fires_greifswald_locations,845651afada5be1509572b8e91019c6f,german_fires_greifswald_locations__845651afada5be1509572b8e91019c6f
franz-wehrstedt-weg,"Franz-Wehrstedt-Weg in Greifswald, Germany",54.0888833,13.4480597,1,,,,,,ForeignMinister,"Franz-Wehrstedt-Weg in Greifswald, Germany",,german_fires_greifswald_locations,05994bd8e4252bd42c084328c66f68b1,german_fires_greifswald_locations__05994bd8e4252bd42c084328c66f68b1
fridtjof-nansen-strasse,"Fridtjof-Nansen-Strasse in Greifswald, Germany",54.0923104,13.4263348,1,,,,,,DiplomaticFacilities,"Fridtjof-Nansen-Strasse in Greifswald, Germany",,german_fires_greifswald_locations,1b6c96899bd70c3d69e9976fc50ed96d,german_fires_greifswald_locations__1b6c96899bd70c3d69e9976fc50ed96d
friedhofsweg,"Friedhofsweg in Greifswald, Germany",54.0878709,13.4443298,1,,,,,,Wells,"Friedhofsweg in Greifswald, Germany",,german_fires_greifswald_locations,901900d8f9be7c1f84590f75d9a14052,german_fires_greifswald_locations__901900d8f9be7c1f84590f75d9a14052
friedrich-kruger-strasse,"Friedrich-Kruger-Strasse in Greifswald, Germany",54.0936461,13.4024833,1,,,,,,FTO,"Friedrich-Kruger-Strasse in Greifswald, Germany",,german_fires_greifswald_locations,f1d80ec34f71b7717e59b88a25f5a7b6,german_fires_greifswald_locations__f1d80ec34f71b7717e59b88a25f5a7b6
friedrich-loeffler-strasse,"Friedrich-Loeffler-Strasse in Greifswald, Germany",54.0973748,13.3805829,1,,,,,,Exec,"Friedrich-Loeffler-Strasse in Greifswald, Germany",,german_fires_greifswald_locations,84e8e262c7c6687a5bbdb6f3cdc61d90,german_fires_greifswald_locations__84e8e262c7c6687a5bbdb6f3cdc61d90
friedrich-ludwig-jahn-strasse,"Friedrich-Ludwig-Jahn-Strasse in Greifswald, Germany",54.0927114,13.4036628,1,,,,,,IndustryTerm,"Friedrich-Ludwig-Jahn-Strasse in Greifswald, Germany",,german_fires_greifswald_locations,aabe24e6f38545d4cca4bb131dd1b235,german_fires_greifswald_locations__aabe24e6f38545d4cca4bb131dd1b235
friedrich-von-hagenow-strasse,"Friedrich-von-Hagenow-Strasse in Greifswald, Germany",54.102275,13.4431425,1,,,,,,Wells,"Friedrich-von-Hagenow-Strasse in Greifswald, Germany",,german_fires_greifswald_locations,b073e221ae1eec350ac464382cf05d49,german_fires_greifswald_locations__b073e221ae1eec350ac464382cf05d49
friedrichshager strasse,"Friedrichshager Strasse in Greifswald, Germany",54.078015,13.4865483,1,,,,,,Pipeline,"Friedrichshager Strasse in Greifswald, Germany",,german_fires_greifswald_locations,e96df957ad6ee4275d5be6827fb23f22,german_fires_greifswald_locations__e96df957ad6ee4275d5be6827fb23f22
fritz-curschmann-weg,"Fritz-Curschmann-Weg in Greifswald, Germany",54.0850314,13.3991801,1,,,,,,ForeignMinistry,"Fritz-Curschmann-Weg in Greifswald, Germany",,german_fires_greifswald_locations,2966620057eed1b7da3b578d9cac16c3,german_fires_greifswald_locations__2966620057eed1b7da3b578d9cac16c3
fritz-reuter-strasse,"Fritz-Reuter-Strasse in Greifswald, Germany",54.081844,13.3641656,1,,,,,,space,"Fritz-Reuter-Strasse in Greifswald, Germany",,german_fires_greifswald_locations,ca05c028677ee9ff49b4f9669259e31a,german_fires_greifswald_locations__ca05c028677ee9ff49b4f9669259e31a
fuchsstrasse,"Fuchsstrasse in Greifswald, Germany",54.0892301,13.3812095,1,,,,,,Refinery,"Fuchsstrasse in Greifswald, Germany",,german_fires_greifswald_locations,efb7d8d8438e88077bc90cb40f597ec7,german_fires_greifswald_locations__efb7d8d8438e88077bc90cb40f597ec7
gahlkower wende,"Gahlkower Wende in Greifswald, Germany",54.0810575,13.4130376,1,,,,,,News,"Gahlkower Wende in Greifswald, Germany",,german_fires_greifswald_locations,908ba0165eaf6c0eb39b457eaf1f63cf,german_fires_greifswald_locations__908ba0165eaf6c0eb39b457eaf1f63cf
gartenweg,"Gartenweg in Greifswald, Germany",54.0890248,13.4409405,1,,,,,,space,"Gartenweg in Greifswald, Germany",,german_fires_greifswald_locations,1381e64a7cf26ba57e387c97eaa291ca,german_fires_greifswald_locations__1381e64a7cf26ba57e387c97eaa291ca
gaussstrasse,"Gaussstrasse in Greifswald, Germany",54.0780243,13.4088023,1,,,,,,Person,"Gaussstrasse in Greifswald, Germany",,german_fires_greifswald_locations,d596b86abbb771357a05879d75f85dbe,german_fires_greifswald_locations__d596b86abbb771357a05879d75f85dbe
gebruder-grimm-weg,"Gebruder-Grimm-Weg in Greifswald, Germany",54.0878108,13.3612826,1,,,,,,space,"Gebruder-Grimm-Weg in Greifswald, Germany",,german_fires_greifswald_locations,1fb0518d08baa1f42408f466ca685bac,german_fires_greifswald_locations__1fb0518d08baa1f42408f466ca685bac
gebruder-witte-strasse,"Gebruder-Witte-Strasse in Greifswald, Germany",54.089278,13.3873012,1,,,,,,IndustryTerm,"Gebruder-Witte-Strasse in Greifswald, Germany",,german_fires_greifswald_locations,74263b1e7b831618e4c9bb042ad02fdb,german_fires_greifswald_locations__74263b1e7b831618e4c9bb042ad02fdb
gedserring,"Gedserring in Greifswald, Germany",54.0859684,13.4322489,1,,,,,,IndustryTerm,"Gedserring in Greifswald, Germany",,german_fires_greifswald_locations,798a7b02a86a318e81e29ae804c56647,german_fires_greifswald_locations__798a7b02a86a318e81e29ae804c56647
georg-buchner-strasse,"Georg-Buchner-Strasse in Greifswald, Germany",54.0851858,13.3623149,1,,,,,,space,"Georg-Buchner-Strasse in Greifswald, Germany",,german_fires_greifswald_locations,5bb5007c67da9f6286b727d25a615314,german_fires_greifswald_locations__5bb5007c67da9f6286b727d25a615314
georg-engel-strasse,"Georg-Engel-Strasse in Greifswald, Germany",54.0822446,13.3691248,1,,,,,,IndustryTerm,"Georg-Engel-Strasse in Greifswald, Germany",,german_fires_greifswald_locations,b62723f8f56985119dc4bd6335ce8785,german_fires_greifswald_locations__b62723f8f56985119dc4bd6335ce8785
gerdingstrasse,"Gerdingstrasse in Greifswald, Germany",54.0934935,13.4056977,1,,,,,,ForeignMinistry,"Gerdingstrasse in Greifswald, Germany",,german_fires_greifswald_locations,3e91b65311db14930602e81804ed7a51,german_fires_greifswald_locations__3e91b65311db14930602e81804ed7a51
gerhardt-katsch-strasse,"Gerhardt-Katsch-Strasse in Greifswald, Germany",54.0873756,13.3956409,1,,,,,,Diplomat,"Gerhardt-Katsch-Strasse in Greifswald, Germany",,german_fires_greifswald_locations,944a7a704dd94190704b49849226a96d,german_fires_greifswald_locations__944a7a704dd94190704b49849226a96d
gertrudenstrasse,"Gertrudenstrasse in Greifswald, Germany",54.0957691,13.3918848,1,,,,,,FTO,"Gertrudenstrasse in Greifswald, Germany",,german_fires_greifswald_locations,07ae19d0718fdb378205f03a4d72ef80,german_fires_greifswald_locations__07ae19d0718fdb378205f03a4d72ef80
geschwister-scholl-strasse,"Geschwister-Scholl-Strasse in Greifswald, Germany",54.0871157,13.3989413,1,,,,,,Exec,"Geschwister-Scholl-Strasse in Greifswald, Germany",,german_fires_greifswald_locations,50f24b98cee76fdd2691a895d95e91b7,german_fires_greifswald_locations__50f24b98cee76fdd2691a895d95e91b7
gesterdingstrasse,"Gesterdingstrasse in Greifswald, Germany",54.092555,13.4102274,1,,,,,,Exec,"Gesterdingstrasse in Greifswald, Germany",,german_fires_greifswald_locations,bc4df798c1966f0d2923d0507473ac6f,german_fires_greifswald_locations__bc4df798c1966f0d2923d0507473ac6f
goethestrasse,"Goethestrasse in Greifswald, Germany",54.0936705,13.383643,1,,,,,,Organization,"Goethestrasse in Greifswald, Germany",,german_fires_greifswald_locations,41c148f37759212aa5c61a7e5a71b620,german_fires_greifswald_locations__41c148f37759212aa5c61a7e5a71b620
grimmer landstrasse,"Grimmer Landstrasse in Greifswald, Germany",54.0906686,13.3483049,1,,,,,,Shipping,"Grimmer Landstrasse in Greifswald, Germany",,german_fires_greifswald_locations,162348a28970d164d3d07a00703b3411,german_fires_greifswald_locations__162348a28970d164d3d07a00703b3411
grimmer strasse,"Grimmer Strasse in Greifswald, Germany",54.0937679,13.3614351,1,,,,,,Diplomat,"Grimmer Strasse in Greifswald, Germany",,german_fires_greifswald_locations,6fff751eb2c048e5d9520ffbcc8d7f39,german_fires_greifswald_locations__6fff751eb2c048e5d9520ffbcc8d7f39
gutzkower landstrasse,"Gutzkower Landstrasse in Greifswald, Germany",54.0724571,13.3807491,1,,,,,,Keyphrase,"Gutzkower Landstrasse in Greifswald, Germany",,german_fires_greifswald_locations,86856ddc8423587ff6370e1ec664ba66,german_fires_greifswald_locations__86856ddc8423587ff6370e1ec664ba66
gutzkower strasse,"Gutzkower Strasse in Greifswald, Germany",54.0891135,13.3791483,1,,,,,,ForeignMinistry,"Gutzkower Strasse in Greifswald, Germany",,german_fires_greifswald_locations,ae9ca759b513c8a61dfd5b2ec7baf0a9,german_fires_greifswald_locations__ae9ca759b513c8a61dfd5b2ec7baf0a9
gustebiner wende,"Gustebiner Wende in Greifswald, Germany",54.0771559,13.4041607,1,,,,,,IndustryTerm,"Gustebiner Wende in Greifswald, Germany",,german_fires_greifswald_locations,b5483a6d3a3cf093851385c3f492e922,german_fires_greifswald_locations__b5483a6d3a3cf093851385c3f492e922
gutsweg,"Gutsweg in Greifswald, Germany",54.0781815,13.4257273,1,,,,,,AAEntity,"Gutsweg in Greifswald, Germany",,german_fires_greifswald_locations,54c4dd0f74d23d04fd2123221f934f74,german_fires_greifswald_locations__54c4dd0f74d23d04fd2123221f934f74
hafenstrasse,"Hafenstrasse in Greifswald, Germany",54.0992272,13.3949309,1,,,,,,AAEntity,"Hafenstrasse in Greifswald, Germany",,german_fires_greifswald_locations,6f3e84449726cd9876c406a669687b36,german_fires_greifswald_locations__6f3e84449726cd9876c406a669687b36
hainstrasse,"Hainstrasse in Greifswald, Germany",54.0861267,13.4470996,1,,,,,,Keyphrase,"Hainstrasse in Greifswald, Germany",,german_fires_greifswald_locations,05a0ddb13062eabebbf922544ffcfb2f,german_fires_greifswald_locations__05a0ddb13062eabebbf922544ffcfb2f
hans-beimler-strasse,"Hans-Beimler-Strasse in Greifswald, Germany",54.082299,13.3970376,1,,,,,,Diplomat,"Hans-Beimler-Strasse in Greifswald, Germany",,german_fires_greifswald_locations,eb62ecd9156781726dd66a05954f1dfb,german_fires_greifswald_locations__eb62ecd9156781726dd66a05954f1dfb
hans-fallada-strasse,"Hans-Fallada-Strasse in Greifswald, Germany",54.0965524,13.3672498,1,,,,,,AAEntity,"Hans-Fallada-Strasse in Greifswald, Germany",,german_fires_greifswald_locations,6d32b3e2d31449d5a1dab0d3f702fe0e,german_fires_greifswald_locations__6d32b3e2d31449d5a1dab0d3f702fe0e
hansering,"Hansering in Greifswald, Germany",54.0988573,13.3824145,1,,,,,,CompanyKeyword,"Hansering in Greifswald, Germany",,german_fires_greifswald_locations,e745a15803931d590f2549962d722b5e,german_fires_greifswald_locations__e745a15803931d590f2549962d722b5e
hasenwinkel,"Hasenwinkel in Greifswald, Germany",54.0798393,13.4289926,1,,,,,,Wells,"Hasenwinkel in Greifswald, Germany",,german_fires_greifswald_locations,b508dd4ea83288064a54012a6e92bf47,german_fires_greifswald_locations__b508dd4ea83288064a54012a6e92bf47
hauptstrasse,"Hauptstrasse in Greifswald, Germany",54.1797588,13.3375007,1,,,,,,Shipping,"Hauptstrasse in Greifswald, Germany",,german_fires_greifswald_locations,ccccc743f09c5c930f75e8006448a345,german_fires_greifswald_locations__ccccc743f09c5c930f75e8006448a345
hebbelstrasse,"Hebbelstrasse in Greifswald, Germany",54.083812,13.3692985,1,,,,,,Diplomat,"Hebbelstrasse in Greifswald, Germany",,german_fires_greifswald_locations,1696ecee62952e5788e37b13946823da,german_fires_greifswald_locations__1696ecee62952e5788e37b13946823da
heidebrink,"Heidebrink in Greifswald, Germany",54.0939846,13.3478923,1,,,,,,CompanyKeyword,"Heidebrink in Greifswald, Germany",,german_fires_greifswald_locations,8789950e0463e4399942b04ba186307e,german_fires_greifswald_locations__8789950e0463e4399942b04ba186307e
heinrich-boll-strasse,"Heinrich-Boll-Strasse in Greifswald, Germany",54.0845312,13.3613874,1,,,,,,News,"Heinrich-Boll-Strasse in Greifswald, Germany",,german_fires_greifswald_locations,fe91c039c0e5473f1961d5b02f8d04db,german_fires_greifswald_locations__fe91c039c0e5473f1961d5b02f8d04db
heinrich-heine-strasse,"Heinrich-Heine-Strasse in Greifswald, Germany",54.0838516,13.3627937,1,,,,,,Shipping,"Heinrich-Heine-Strasse in Greifswald, Germany",,german_fires_greifswald_locations,873f4d9004ec9b9d78223b684f2d8107,german_fires_greifswald_locations__873f4d9004ec9b9d78223b684f2d8107
heinrich-hertz-strasse,"Heinrich-Hertz-Strasse in Greifswald, Germany",54.0776375,13.4029604,1,,,,,,DiplomaticFacilities,"Heinrich-Hertz-Strasse in Greifswald, Germany",,german_fires_greifswald_locations,5556b4117a05f114b0ad601cfd10befc,german_fires_greifswald_locations__5556b4117a05f114b0ad601cfd10befc
heinrich-von-kleist-strasse,"Heinrich-von-Kleist-Strasse in Greifswald, Germany",54.0786092,13.3695897,1,,,,,,Exec,"Heinrich-von-Kleist-Strasse in Greifswald, Germany",,german_fires_greifswald_locations,4ac3dc2336c7714b6b58d6e147c27a6f,german_fires_greifswald_locations__4ac3dc2336c7714b6b58d6e147c27a6f
helmshager strasse,"Helmshager Strasse in Greifswald, Germany",54.0695235,13.3769512,1,,,,,,space,"Helmshager Strasse in Greifswald, Germany",,german_fires_greifswald_locations,7dd4481b6bf8b673d1f2669876a86e18,german_fires_greifswald_locations__7dd4481b6bf8b673d1f2669876a86e18
helsinkiring,"Helsinkiring in Greifswald, Germany",54.0881401,13.4349902,1,,,,,,Shipping,"Helsinkiring in Greifswald, Germany",,german_fires_greifswald_locations,7b176a3b74bc54abe30ec1dc810b54d7,german_fires_greifswald_locations__7b176a3b74bc54abe30ec1dc810b54d7
herderstrasse,"Herderstrasse in Greifswald, Germany",54.0808401,13.3673354,1,,,,,,News,"Herderstrasse in Greifswald, Germany",,german_fires_greifswald_locations,8c4df34baab4c4b22900dc3d4fe4054d,german_fires_greifswald_locations__8c4df34baab4c4b22900dc3d4fe4054d
herrenhufenstrasse,"Herrenhufenstrasse in Greifswald, Germany",54.0731568,13.3752571,1,,,,,,IndustryTerm,"Herrenhufenstrasse in Greifswald, Germany",,german_fires_greifswald_locations,ea2097edc5ec6935939ea8bc8ecf45d7,german_fires_greifswald_locations__ea2097edc5ec6935939ea8bc8ecf45d7
herzog-bogislaw-weg,"Herzog-Bogislaw-Weg in Greifswald, Germany",54.0886593,13.4565221,1,,,,,,Organization,"Herzog-Bogislaw-Weg in Greifswald, Germany",,german_fires_greifswald_locations,760ef14e07f2c0ce717cc946d1fb51de,german_fires_greifswald_locations__760ef14e07f2c0ce717cc946d1fb51de
hirtenstrasse,"Hirtenstrasse in Greifswald, Germany",54.0957778,13.371195,1,,,,,,Media,"Hirtenstrasse in Greifswald, Germany",,german_fires_greifswald_locations,0e93d233699bd0976dfdfdfba8a63f6e,german_fires_greifswald_locations__0e93d233699bd0976dfdfdfba8a63f6e
holderlinstrasse,"Holderlinstrasse in Greifswald, Germany",54.0796046,13.3699387,1,,,,,,Refinery,"Holderlinstrasse in Greifswald, Germany",,german_fires_greifswald_locations,ed9969ae6d85124eec92ffb84c7818a3,german_fires_greifswald_locations__ed9969ae6d85124eec92ffb84c7818a3
hoher graben,"Hoher Graben in Greifswald, Germany",54.0855487,13.4592035,1,,,,,,ForeignMinister,"Hoher Graben in Greifswald, Germany",,german_fires_greifswald_locations,89f24ea46cda898c297b3ed77a0e488d,german_fires_greifswald_locations__89f24ea46cda898c297b3ed77a0e488d
hoher weg,"Hoher Weg in Greifswald, Germany",54.0828021,13.3908677,1,,,,,,CompanyKeyword,"Hoher Weg in Greifswald, Germany",,german_fires_greifswald_locations,89d25453abf4e1fcd302c2fbea6af82d,german_fires_greifswald_locations__89d25453abf4e1fcd302c2fbea6af82d
holunderweg,"Holunderweg in Greifswald, Germany",54.0789083,13.4248615,1,,,,,,Shipping,"Holunderweg in Greifswald, Germany",,german_fires_greifswald_locations,a97939294ecd139dfda2a0fb9fe1c746,german_fires_greifswald_locations__a97939294ecd139dfda2a0fb9fe1c746
holzgasse,"Holzgasse in Greifswald, Germany",54.0974992,13.3886648,1,,,,,,FTO,"Holzgasse in Greifswald, Germany",,german_fires_greifswald_locations,51fa428179f756cdcbcfdc3c09a4e525,german_fires_greifswald_locations__51fa428179f756cdcbcfdc3c09a4e525
holzteichstrasse,"Holzteichstrasse in Greifswald, Germany",54.1009061,13.3931592,1,,,,,,Legislator,"Holzteichstrasse in Greifswald, Germany",,german_fires_greifswald_locations,09e38df457cce68da082fc968f0e9259,german_fires_greifswald_locations__09e38df457cce68da082fc968f0e9259
hornschuchstrasse,"Hornschuchstrasse in Greifswald, Germany",54.0940234,13.4100577,1,,,,,,Shipping,"Hornschuchstrasse in Greifswald, Germany",,german_fires_greifswald_locations,e218d646f4d5e412338d69d809e88f47,german_fires_greifswald_locations__e218d646f4d5e412338d69d809e88f47
hugo-finke-strasse,"Hugo-Finke-Strasse in Greifswald, Germany",54.097433,13.4399059,1,,,,,,Organization,"Hugo-Finke-Strasse in Greifswald, Germany",,german_fires_greifswald_locations,cf066c823e625cb6be460c89aa16b029,german_fires_greifswald_locations__cf066c823e625cb6be460c89aa16b029
hugo-helfritz-strasse,"Hugo-Helfritz-Strasse in Greifswald, Germany",54.0954894,13.4024113,1,,,,,,Organization,"Hugo-Helfritz-Strasse in Greifswald, Germany",,german_fires_greifswald_locations,e6ca14bf8e77f519073a80e436b9f927,german_fires_greifswald_locations__e6ca14bf8e77f519073a80e436b9f927
hunnenstrasse,"Hunnenstrasse in Greifswald, Germany",54.0970728,13.3771746,1,,,,,,Wells,"Hunnenstrasse in Greifswald, Germany",,german_fires_greifswald_locations,5983b10841d013d6c3de40e086104f47,german_fires_greifswald_locations__5983b10841d013d6c3de40e086104f47
inselweg,"Inselweg in Greifswald, Germany",54.1634864,13.3970267,1,,,,,,ForeignMinistry,"Inselweg in Greifswald, Germany",,german_fires_greifswald_locations,839c18934b23d8c58b21a7101ffff713,german_fires_greifswald_locations__839c18934b23d8c58b21a7101ffff713
jasmunder weg,"Jasmunder Weg in Greifswald, Germany",54.0928794,13.4246353,1,,,,,,ForeignMinister,"Jasmunder Weg in Greifswald, Germany",,german_fires_greifswald_locations,f80b54286ca7978ba810b5cac498bb6b,german_fires_greifswald_locations__f80b54286ca7978ba810b5cac498bb6b
johann-sebastian-bach-strasse,"Johann-Sebastian-Bach-Strasse in Greifswald, Germany",54.0973682,13.3810777,1,,,,,,Person,"Johann-Sebastian-Bach-Strasse in Greifswald, Germany",,german_fires_greifswald_locations,afb73cc8a7682a343e00075ee50b1ecf,german_fires_greifswald_locations__afb73cc8a7682a343e00075ee50b1ecf
johann-stelling-strasse,"Johann-Stelling-Strasse in Greifswald, Germany",54.0922439,13.3966363,1,,,,,,Wells,"Johann-Stelling-Strasse in Greifswald, Germany",,german_fires_greifswald_locations,1d65db6a2a2f5a18277ff332aea4fad0,german_fires_greifswald_locations__1d65db6a2a2f5a18277ff332aea4fad0
johannes-bobrowski-strasse,"Johannes-Bobrowski-Strasse in Greifswald, Germany",54.0831535,13.3608591,1,,,,,,LegislativeCommittee,"Johannes-Bobrowski-Strasse in Greifswald, Germany",,german_fires_greifswald_locations,533b7faa3143039f31fa71ee3e6036ad,german_fires_greifswald_locations__533b7faa3143039f31fa71ee3e6036ad
joliot-curie-strasse,"Joliot-Curie-Strasse in Greifswald, Germany",54.0777639,13.4029386,1,,,,,,Wells,"Joliot-Curie-Strasse in Greifswald, Germany",,german_fires_greifswald_locations,f1cb5e08122600405dffde781081d3b8,german_fires_greifswald_locations__f1cb5e08122600405dffde781081d3b8
kathe-kollwitz-strasse,"Kathe-Kollwitz-Strasse in Greifswald, Germany",54.0942387,13.3917768,1,,,,,,Organization,"Kathe-Kollwitz-Strasse in Greifswald, Germany",,german_fires_greifswald_locations,e073f520e6dea871cda56808b79d6001,german_fires_greifswald_locations__e073f520e6dea871cda56808b79d6001
kampswiese,"Kampswiese in Greifswald, Germany",54.0941469,13.346726,1,,,,,,Pipeline,"Kampswiese in Greifswald, Germany",,german_fires_greifswald_locations,cbc6836e865e18387847a8258a1225c8,german_fires_greifswald_locations__cbc6836e865e18387847a8258a1225c8
kapaunenstrasse,"Kapaunenstrasse in Greifswald, Germany",54.0967911,13.3738377,1,,,,,,Person,"Kapaunenstrasse in Greifswald, Germany",,german_fires_greifswald_locations,05c84a3903616f908e4b6672802e7569,german_fires_greifswald_locations__05c84a3903616f908e4b6672802e7569
karl-behrendt-weg,"Karl-Behrendt-Weg in Greifswald, Germany",54.0833397,13.3984315,1,,,,,,Exec,"Karl-Behrendt-Weg in Greifswald, Germany",,german_fires_greifswald_locations,5435f8b24460256f15b30f83fe3d2f43,german_fires_greifswald_locations__5435f8b24460256f15b30f83fe3d2f43
karl-krull-strasse,"Karl-Krull-Strasse in Greifswald, Germany",54.0853704,13.402184,1,,,,,,Shipping,"Karl-Krull-Strasse in Greifswald, Germany",,german_fires_greifswald_locations,c9dd7e62f9d4d4d6ab11928412c145ab,german_fires_greifswald_locations__c9dd7e62f9d4d4d6ab11928412c145ab
karl-liebknecht-ring,"Karl-Liebknecht-Ring in Greifswald, Germany",54.0868396,13.4064929,1,,,,,,Shipping,"Karl-Liebknecht-Ring in Greifswald, Germany",,german_fires_greifswald_locations,55bb823a72c1e2c9606500428ab0057e,german_fires_greifswald_locations__55bb823a72c1e2c9606500428ab0057e
karl-marx-platz,"Karl-Marx-Platz in Greifswald, Germany",54.095336,13.3679402,1,,,,,,Refinery,"Karl-Marx-Platz in Greifswald, Germany",,german_fires_greifswald_locations,d685e6a716a9c26bedb4f0fe5784f0ba,german_fires_greifswald_locations__d685e6a716a9c26bedb4f0fe5784f0ba
karl-schildener-strasse,"Karl-Schildener-Strasse in Greifswald, Germany",54.0662519,13.4285463,1,,,,,,Pipeline,"Karl-Schildener-Strasse in Greifswald, Germany",,german_fires_greifswald_locations,d51df163732d9f345a20c3297bc3e606,german_fires_greifswald_locations__d51df163732d9f345a20c3297bc3e606
kastanienstrasse,"Kastanienstrasse in Greifswald, Germany",54.0882566,13.4419874,1,,,,,,FTO,"Kastanienstrasse in Greifswald, Germany",,german_fires_greifswald_locations,f65119fa8996ee17a7f1f8c57040813a,german_fires_greifswald_locations__f65119fa8996ee17a7f1f8c57040813a
kegelkamp,"Kegelkamp in Greifswald, Germany",54.0985897,13.4365656,1,,,,,,Refinery,"Kegelkamp in Greifswald, Germany",,german_fires_greifswald_locations,a4a416a97bac39e25efe3b5129105eb5,german_fires_greifswald_locations__a4a416a97bac39e25efe3b5129105eb5
kemnitzer wende,"Kemnitzer Wende in Greifswald, Germany",54.0781065,13.4138807,1,,,,,,ForeignMinister,"Kemnitzer Wende in Greifswald, Germany",,german_fires_greifswald_locations,4001ee92f3baae3fd989f56f9be204a7,german_fires_greifswald_locations__4001ee92f3baae3fd989f56f9be204a7
kiebitzhorn,"Kiebitzhorn in Greifswald, Germany",54.0943576,13.3508723,1,,,,,,LegislativeCommittee,"Kiebitzhorn in Greifswald, Germany",,german_fires_greifswald_locations,afcf701c873f3f132b9da6d9d2580809,german_fires_greifswald_locations__afcf701c873f3f132b9da6d9d2580809
kirchstrasse,"Kirchstrasse in Greifswald, Germany",54.0963805,13.4475504,1,,,,,,Wells,"Kirchstrasse in Greifswald, Germany",,german_fires_greifswald_locations,6fc1ebd11cff193794c3d8fcd7999aaf,german_fires_greifswald_locations__6fc1ebd11cff193794c3d8fcd7999aaf
kirschenweg,"Kirschenweg in Greifswald, Germany",54.0817594,13.3928788,1,,,,,,Diplomat,"Kirschenweg in Greifswald, Germany",,german_fires_greifswald_locations,c994c8ec3aa7875c5cdfeb467804c06a,german_fires_greifswald_locations__c994c8ec3aa7875c5cdfeb467804c06a
klaus-groth-strasse,"Klaus-Groth-Strasse in Greifswald, Germany",54.0789896,13.361168,1,,,,,,Shipping,"Klaus-Groth-Strasse in Greifswald, Germany",,german_fires_greifswald_locations,6a4bf81a43ff14fc4ce3ab52d068e9a3,german_fires_greifswald_locations__6a4bf81a43ff14fc4ce3ab52d068e9a3
kleine hafenstrasse,"Kleine Hafenstrasse in Greifswald, Germany",54.0988641,13.3997898,1,,,,,,Organization,"Kleine Hafenstrasse in Greifswald, Germany",,german_fires_greifswald_locations,27e399e7b1523b54733b9043aa38ac1b,german_fires_greifswald_locations__27e399e7b1523b54733b9043aa38ac1b
knopfstrasse,"Knopfstrasse in Greifswald, Germany",54.0973631,13.3823495,1,,,,,,CompanyKeyword,"Knopfstrasse in Greifswald, Germany",,german_fires_greifswald_locations,7e3b6379cde59782e2604b2c5c012746,german_fires_greifswald_locations__7e3b6379cde59782e2604b2c5c012746
knud-rasmussen-strasse,"Knud-Rasmussen-Strasse in Greifswald, Germany",54.0923328,13.4244027,1,,,,,,Person,"Knud-Rasmussen-Strasse in Greifswald, Germany",,german_fires_greifswald_locations,dc80d580e97e52735a4068f6e666705a,german_fires_greifswald_locations__dc80d580e97e52735a4068f6e666705a
koitenhager landstrasse,"Koitenhager Landstrasse in Greifswald, Germany",54.0821019,13.428407,1,,,,,,FTO,"Koitenhager Landstrasse in Greifswald, Germany",,german_fires_greifswald_locations,1cfc61b172bea904e8029e4eeef2d190,german_fires_greifswald_locations__1cfc61b172bea904e8029e4eeef2d190
kooser weg,"Kooser Weg in Greifswald, Germany",54.0897567,13.4313984,1,,,,,,Media,"Kooser Weg in Greifswald, Germany",,german_fires_greifswald_locations,81d4814eed06b92cba503b63352eac12,german_fires_greifswald_locations__81d4814eed06b92cba503b63352eac12
kopenhagener strasse,"Kopenhagener Strasse in Greifswald, Germany",54.0899482,13.4235413,1,,,,,,Person,"Kopenhagener Strasse in Greifswald, Germany",,german_fires_greifswald_locations,f8fd7d195657910c0a0910847e30e586,german_fires_greifswald_locations__f8fd7d195657910c0a0910847e30e586
kornblumenweg,"Kornblumenweg in Greifswald, Germany",54.0775162,13.4267953,1,,,,,,CompanyKeyword,"Kornblumenweg in Greifswald, Germany",,german_fires_greifswald_locations,bc7c8edd184e9a618a8f130fe091ee5c,german_fires_greifswald_locations__bc7c8edd184e9a618a8f130fe091ee5c
kosegartenstrasse,"Kosegartenstrasse in Greifswald, Germany",54.0858342,13.3661049,1,,,,,,News,"Kosegartenstrasse in Greifswald, Germany",,german_fires_greifswald_locations,71e690f71db078a233eb71bb27d4ee58,german_fires_greifswald_locations__71e690f71db078a233eb71bb27d4ee58
kotkaring,"Kotkaring in Greifswald, Germany",54.0884123,13.4243972,1,,,,,,LegislativeCommittee,"Kotkaring in Greifswald, Germany",,german_fires_greifswald_locations,2c661172391cf693fa5ab8905659b6e6,german_fires_greifswald_locations__2c661172391cf693fa5ab8905659b6e6
krapeliner wende,"Krapeliner Wende in Greifswald, Germany",54.0797559,13.4144166,1,,,,,,Wells,"Krapeliner Wende in Greifswald, Germany",,german_fires_greifswald_locations,67261ff67ebbef326c87100675aadbe0,german_fires_greifswald_locations__67261ff67ebbef326c87100675aadbe0
kuhstrasse,"Kuhstrasse in Greifswald, Germany",54.0968011,13.3848343,1,,,,,,Refinery,"Kuhstrasse in Greifswald, Germany",,german_fires_greifswald_locations,2ce520985ca10eecdca907cf8f3a3e7f,german_fires_greifswald_locations__2ce520985ca10eecdca907cf8f3a3e7f
kurt-tucholsky-strasse,"Kurt-Tucholsky-Strasse in Greifswald, Germany",54.0844246,13.3608091,1,,,,,,Consulates,"Kurt-Tucholsky-Strasse in Greifswald, Germany",,german_fires_greifswald_locations,b64436ce7308d788af60fe8880a0bc8a,german_fires_greifswald_locations__b64436ce7308d788af60fe8880a0bc8a
kurtschatowweg,"Kurtschatowweg in Greifswald, Germany",54.0799228,13.4097334,1,,,,,,Diplomat,"Kurtschatowweg in Greifswald, Germany",,german_fires_greifswald_locations,d1adabf43ec35125d52fddf253b3e509,german_fires_greifswald_locations__d1adabf43ec35125d52fddf253b3e509
kurzer weg,"Kurzer Weg in Greifswald, Germany",54.0852177,13.4491997,1,,,,,,Diplomat,"Kurzer Weg in Greifswald, Germany",,german_fires_greifswald_locations,95a74a799e0eae1563bc5b1b768a9990,german_fires_greifswald_locations__95a74a799e0eae1563bc5b1b768a9990
ladebower chaussee,"Ladebower Chaussee in Greifswald, Germany",54.1054998,13.4060942,1,,,,,,Exec,"Ladebower Chaussee in Greifswald, Germany",,german_fires_greifswald_locations,4e861fd9bf0fdd2e2bc0e13bc68d1a05,german_fires_greifswald_locations__4e861fd9bf0fdd2e2bc0e13bc68d1a05
langsfuhr,"Langsfuhr in Greifswald, Germany",54.0751987,13.3911463,1,,,,,,CompanyKeyword,"Langsfuhr in Greifswald, Germany",,german_fires_greifswald_locations,71c74a882fa2ba3713b231398351052c,german_fires_greifswald_locations__71c74a882fa2ba3713b231398351052c
lange reihe,"Lange Reihe in Greifswald, Germany",54.0910167,13.3847496,1,,,,,,Pipeline,"Lange Reihe in Greifswald, Germany",,german_fires_greifswald_locations,191e8c86ef4e8745379d41655f84d01c,german_fires_greifswald_locations__191e8c86ef4e8745379d41655f84d01c
lange strasse,"Lange Strasse in Greifswald, Germany",54.0959505,13.3752545,1,,,,,,FTO,"Lange Strasse in Greifswald, Germany",,german_fires_greifswald_locations,00a1ee34962bdbee8dd11e33451b80b9,german_fires_greifswald_locations__00a1ee34962bdbee8dd11e33451b80b9
lappstrasse,"Lappstrasse in Greifswald, Germany",54.0954832,13.3789515,1,,,,,,News,"Lappstrasse in Greifswald, Germany",,german_fires_greifswald_locations,d3652acadad2c965ac31b2815c08ad2b,german_fires_greifswald_locations__d3652acadad2c965ac31b2815c08ad2b
lessingstrasse,"Lessingstrasse in Greifswald, Germany",54.0806384,13.3695249,1,,,,,,space,"Lessingstrasse in Greifswald, Germany",,german_fires_greifswald_locations,ce7257bdb51795cf0af24444901635bb,german_fires_greifswald_locations__ce7257bdb51795cf0af24444901635bb
lindenstrasse,"Lindenstrasse in Greifswald, Germany",54.0855217,13.441741,1,,,,,,ForeignMinistry,"Lindenstrasse in Greifswald, Germany",,german_fires_greifswald_locations,224ccfcbc3a035f73cc74aca34d61c19,german_fires_greifswald_locations__224ccfcbc3a035f73cc74aca34d61c19
lise-meitner-strasse,"Lise-Meitner-Strasse in Greifswald, Germany",54.0772906,13.4136027,1,,,,,,Person,"Lise-Meitner-Strasse in Greifswald, Germany",,german_fires_greifswald_locations,8f3db90ed1ff02500d5b551ae92ba936,german_fires_greifswald_locations__8f3db90ed1ff02500d5b551ae92ba936
loissiner wende,"Loissiner Wende in Greifswald, Germany",54.0820209,13.4113348,1,,,,,,ForeignMinistry,"Loissiner Wende in Greifswald, Germany",,german_fires_greifswald_locations,40948021a942bedce061f5f86003c7c7,german_fires_greifswald_locations__40948021a942bedce061f5f86003c7c7
loitzer landstrasse,"Loitzer Landstrasse in Greifswald, Germany",54.0856531,13.3595713,1,,,,,,Person,"Loitzer Landstrasse in Greifswald, Germany",,german_fires_greifswald_locations,9b192b69aaa1f2dd2943cd015c395b66,german_fires_greifswald_locations__9b192b69aaa1f2dd2943cd015c395b66
loitzer strasse,"Loitzer Strasse in Greifswald, Germany",54.0921978,13.3631941,1,,,,,,Person,"Loitzer Strasse in Greifswald, Germany",,german_fires_greifswald_locations,1be64562b1a8b11f1bdda3ae954c55fe,german_fires_greifswald_locations__1be64562b1a8b11f1bdda3ae954c55fe
lomonossowallee,"Lomonossowallee in Greifswald, Germany",54.0794119,13.4058029,1,,,,,,Pipeline,"Lomonossowallee in Greifswald, Germany",,german_fires_greifswald_locations,857847d358699981005d62620b5c4eff,german_fires_greifswald_locations__857847d358699981005d62620b5c4eff
lubecker strasse,"Lubecker Strasse in Greifswald, Germany",54.0865214,13.4555192,1,,,,,,News,"Lubecker Strasse in Greifswald, Germany",,german_fires_greifswald_locations,c4593d73e2eb71657207d04b8f8420fc,german_fires_greifswald_locations__c4593d73e2eb71657207d04b8f8420fc
lubminer platz,"Lubminer Platz in Greifswald, Germany",54.0875553,13.431035,1,,,,,,Consulates,"Lubminer Platz in Greifswald, Germany",,german_fires_greifswald_locations,a47d14f16e47397a926437e5676a7a71,german_fires_greifswald_locations__a47d14f16e47397a926437e5676a7a71
ludwigsburger wende,"Ludwigsburger Wende in Greifswald, Germany",54.0823183,13.4095297,1,,,,,,Keyphrase,"Ludwigsburger Wende in Greifswald, Germany",,german_fires_greifswald_locations,9d320eb5d015a03d06a4defa276d367b,german_fires_greifswald_locations__9d320eb5d015a03d06a4defa276d367b
makarenkostrasse,"Makarenkostrasse in Greifswald, Germany",54.0842389,13.4133727,1,,,,,,FTO,"Makarenkostrasse in Greifswald, Germany",,german_fires_greifswald_locations,9c3cd24aabb283fc52397e4325d9ccda,german_fires_greifswald_locations__9c3cd24aabb283fc52397e4325d9ccda
margarethe-lachmund-strasse,"Margarethe-Lachmund-Strasse in Greifswald, Germany",54.1019069,13.4303953,1,,,,,,Refinery,"Margarethe-Lachmund-Strasse in Greifswald, Germany",,german_fires_greifswald_locations,a0d4a47c4fc16fcf383a5ba7c9c69afe,german_fires_greifswald_locations__a0d4a47c4fc16fcf383a5ba7c9c69afe
marienkirchplatz,"Marienkirchplatz in Greifswald, Germany",54.0966226,13.3835151,1,,,,,,FTO,"Marienkirchplatz in Greifswald, Germany",,german_fires_greifswald_locations,95853e4112c95811390356cc43541414,german_fires_greifswald_locations__95853e4112c95811390356cc43541414
marienstrasse,"Marienstrasse in Greifswald, Germany",54.0968686,13.3895932,1,,,,,,Refinery,"Marienstrasse in Greifswald, Germany",,german_fires_greifswald_locations,d3bc76197031d72a9ab22dd0a4163207,german_fires_greifswald_locations__d3bc76197031d72a9ab22dd0a4163207
markt,"Markt in Greifswald, Germany",54.0961268,13.3816683,1,,,,,,DiplomaticFacilities,"Markt in Greifswald, Germany",,german_fires_greifswald_locations,e060bbb0336126998cd7fb3ab0ec7bea,german_fires_greifswald_locations__e060bbb0336126998cd7fb3ab0ec7bea
martin-andersen-nexo-platz,"Martin-Andersen-Nexo-Platz in Greifswald, Germany",54.0927471,13.3877897,1,,,,,,Exec,"Martin-Andersen-Nexo-Platz in Greifswald, Germany",,german_fires_greifswald_locations,8497925fd199cef8eae2f5cbcb963cf4,german_fires_greifswald_locations__8497925fd199cef8eae2f5cbcb963cf4
martin-luther-strasse,"Martin-Luther-Strasse in Greifswald, Germany",54.0943472,13.378215,1,,,,,,ForeignMinistry,"Martin-Luther-Strasse in Greifswald, Germany",,german_fires_greifswald_locations,dac0dd3370e4159d017d5c1fc0f91827,german_fires_greifswald_locations__dac0dd3370e4159d017d5c1fc0f91827
max-born-strasse,"Max-Born-Strasse in Greifswald, Germany",54.0781325,13.4149751,1,,,,,,Diplomat,"Max-Born-Strasse in Greifswald, Germany",,german_fires_greifswald_locations,79a4570c7615b78d760ec90352bdcbdc,german_fires_greifswald_locations__79a4570c7615b78d760ec90352bdcbdc
max-hagen-weg,"Max-Hagen-Weg in Greifswald, Germany",54.0834334,13.4008117,1,,,,,,Refinery,"Max-Hagen-Weg in Greifswald, Germany",,german_fires_greifswald_locations,b7ec2817308c37f60240d6e7b494040b,german_fires_greifswald_locations__b7ec2817308c37f60240d6e7b494040b
max-planck-strasse,"Max-Planck-Strasse in Greifswald, Germany",54.0812635,13.4076959,1,,,,,,Keyphrase,"Max-Planck-Strasse in Greifswald, Germany",,german_fires_greifswald_locations,5c28a83251ec4727cd2f33fb8bb5bc83,german_fires_greifswald_locations__5c28a83251ec4727cd2f33fb8bb5bc83
max-reimann-strasse,"Max-Reimann-Strasse in Greifswald, Germany",54.0991432,13.4389696,1,,,,,,Organization,"Max-Reimann-Strasse in Greifswald, Germany",,german_fires_greifswald_locations,25cc74468f99d16223288596a2b72ef7,german_fires_greifswald_locations__25cc74468f99d16223288596a2b72ef7
maxim-gorki-strasse,"Maxim-Gorki-Strasse in Greifswald, Germany",54.0817524,13.4237122,1,,,,,,News,"Maxim-Gorki-Strasse in Greifswald, Germany",,german_fires_greifswald_locations,f3d919fe412dfbda9e43c14fa569f15a,german_fires_greifswald_locations__f3d919fe412dfbda9e43c14fa569f15a
mendelejewweg,"Mendelejewweg in Greifswald, Germany",54.0779376,13.4176892,1,,,,,,ForeignMinistry,"Mendelejewweg in Greifswald, Germany",,german_fires_greifswald_locations,2f341980881c4e6bb8613fb5efbc295e,german_fires_greifswald_locations__2f341980881c4e6bb8613fb5efbc295e
mittelstrasse,"Mittelstrasse in Greifswald, Germany",54.0905357,13.3910915,1,,,,,,ForeignMinistry,"Mittelstrasse in Greifswald, Germany",,german_fires_greifswald_locations,ed289ccf3044b2e8c471ea31cd2cf18d,german_fires_greifswald_locations__ed289ccf3044b2e8c471ea31cd2cf18d
monchguter weg,"Monchguter Weg in Greifswald, Germany",54.0925621,13.4232609,1,,,,,,DiplomaticFacilities,"Monchguter Weg in Greifswald, Germany",,german_fires_greifswald_locations,bd86847f942528f093ff9d1945b33f3e,german_fires_greifswald_locations__bd86847f942528f093ff9d1945b33f3e
moorweide,"Moorweide in Greifswald, Germany",54.0992022,13.4398655,1,,,,,,Organization,"Moorweide in Greifswald, Germany",,german_fires_greifswald_locations,96ffa70e0bfa65af23efafdf58a2111d,german_fires_greifswald_locations__96ffa70e0bfa65af23efafdf58a2111d
moritz-becherer-strasse,"Moritz-Becherer-Strasse in Greifswald, Germany",54.0625676,13.4412524,1,,,,,,Person,"Moritz-Becherer-Strasse in Greifswald, Germany",,german_fires_greifswald_locations,58605bace9189cf7f7dc0f5fa77d63e1,german_fires_greifswald_locations__58605bace9189cf7f7dc0f5fa77d63e1
muhlenstrasse,"Muhlenstrasse in Greifswald, Germany",54.0954045,13.3835705,1,,,,,,Refinery,"Muhlenstrasse in Greifswald, Germany",,german_fires_greifswald_locations,472a0ce0209275c786ecca3ad3a31b4f,german_fires_greifswald_locations__472a0ce0209275c786ecca3ad3a31b4f
muhlenweg,"Muhlenweg in Greifswald, Germany",54.0895222,13.3530236,1,,,,,,Refinery,"Muhlenweg in Greifswald, Germany",,german_fires_greifswald_locations,ed25b1ec135adfd3ea448ebd7b8cdee8,german_fires_greifswald_locations__ed25b1ec135adfd3ea448ebd7b8cdee8
munterstrasse,"Munterstrasse in Greifswald, Germany",54.0932992,13.3679128,1,,,,,,ForeignMinister,"Munterstrasse in Greifswald, Germany",,german_fires_greifswald_locations,5501fe35c0530ceb6a71f9e026c5f302,german_fires_greifswald_locations__5501fe35c0530ceb6a71f9e026c5f302
nelkenweg,"Nelkenweg in Greifswald, Germany",54.0800787,13.3944649,1,,,,,,Organization,"Nelkenweg in Greifswald, Germany",,german_fires_greifswald_locations,dc580c2ff54b6753cf900eb451618d72,german_fires_greifswald_locations__dc580c2ff54b6753cf900eb451618d72
neue strasse,"Neue Strasse in Greifswald, Germany",54.0975378,13.4491159,1,,,,,,LegislativeCommittee,"Neue Strasse in Greifswald, Germany",,german_fires_greifswald_locations,1f391c9196c794b5dd38359427e238d0,german_fires_greifswald_locations__1f391c9196c794b5dd38359427e238d0
neuendorfer wende,"Neuendorfer Wende in Greifswald, Germany",54.079587,13.4110813,1,,,,,,AAEntity,"Neuendorfer Wende in Greifswald, Germany",,german_fires_greifswald_locations,78849eb20f34b972aff967b3fef03e6e,german_fires_greifswald_locations__78849eb20f34b972aff967b3fef03e6e
neuer brinkhof,"Neuer Brinkhof in Greifswald, Germany",54.0906776,13.3861976,1,,,,,,ForeignMinistry,"Neuer Brinkhof in Greifswald, Germany",,german_fires_greifswald_locations,c4ceb396d577f3d3436e48275d619e58,german_fires_greifswald_locations__c4ceb396d577f3d3436e48275d619e58
neunmorgenstrasse,"Neunmorgenstrasse in Greifswald, Germany",54.0882038,13.3815985,1,,,,,,space,"Neunmorgenstrasse in Greifswald, Germany",,german_fires_greifswald_locations,11ef59bd0a565536f315227f68f4e2b0,german_fires_greifswald_locations__11ef59bd0a565536f315227f68f4e2b0
newtonstrasse,"Newtonstrasse in Greifswald, Germany",54.0785169,13.4158242,1,,,,,,Refinery,"Newtonstrasse in Greifswald, Germany",,german_fires_greifswald_locations,b9f6622c2031f6e58e3facb8599ebf00,german_fires_greifswald_locations__b9f6622c2031f6e58e3facb8599ebf00
niels-bohr-strasse,"Niels-Bohr-Strasse in Greifswald, Germany",54.0801652,13.3995262,1,,,,,,LegislativeCommittee,"Niels-Bohr-Strasse in Greifswald, Germany",,german_fires_greifswald_locations,15d208da3dd19b7faa48720b11b033ab,german_fires_greifswald_locations__15d208da3dd19b7faa48720b11b033ab
nikolaikirchplatz,"Nikolaikirchplatz in Greifswald, Germany",54.0957501,13.3771219,1,,,,,,Exec,"Nikolaikirchplatz in Greifswald, Germany",,german_fires_greifswald_locations,5d6344a5eb31de0a0caab822699de788,german_fires_greifswald_locations__5d6344a5eb31de0a0caab822699de788
nikolajewweg,"Nikolajewweg in Greifswald, Germany",54.0828335,13.4082587,1,,,,,,Exec,"Nikolajewweg in Greifswald, Germany",,german_fires_greifswald_locations,e1b7f29d0edc28aa2a12f2ed7d0e8dfc,german_fires_greifswald_locations__e1b7f29d0edc28aa2a12f2ed7d0e8dfc
nordstrasse,"Nordstrasse in Greifswald, Germany",54.1041765,13.4431021,1,,,,,,LegislativeCommittee,"Nordstrasse in Greifswald, Germany",,german_fires_greifswald_locations,5f6a648c6d4aa2eacb9b4dd5adda9866,german_fires_greifswald_locations__5f6a648c6d4aa2eacb9b4dd5adda9866
ochsensteg,"Ochsensteg in Greifswald, Germany",54.0950839,13.4443154,1,,,,,,News,"Ochsensteg in Greifswald, Germany",,german_fires_greifswald_locations,f3d3cea982e8c958dc9dd36f295ccd8d,german_fires_greifswald_locations__f3d3cea982e8c958dc9dd36f295ccd8d
osloer strasse,"Osloer Strasse in Greifswald, Germany",54.088853,13.4218307,1,,,,,,Wells,"Osloer Strasse in Greifswald, Germany",,german_fires_greifswald_locations,906bbbb38473de5730bd3ed961739cda,german_fires_greifswald_locations__906bbbb38473de5730bd3ed961739cda
osnabrucker strasse,"Osnabrucker Strasse in Greifswald, Germany",54.0899211,13.3745216,1,,,,,,ForeignMinister,"Osnabrucker Strasse in Greifswald, Germany",,german_fires_greifswald_locations,c4bbdec6c3f91500f988bc7767389dd6,german_fires_greifswald_locations__c4bbdec6c3f91500f988bc7767389dd6
ostrowskistrasse,"Ostrowskistrasse in Greifswald, Germany",54.0802208,13.4216163,1,,,,,,Shipping,"Ostrowskistrasse in Greifswald, Germany",,german_fires_greifswald_locations,c287836ea3ab360e576b73be50569947,german_fires_greifswald_locations__c287836ea3ab360e576b73be50569947
ostseestrasse,"Ostseestrasse in Greifswald, Germany",54.0902363,13.4218019,1,,,,,,ForeignMinister,"Ostseestrasse in Greifswald, Germany",,german_fires_greifswald_locations,f424f55583f8e4674ba14051d3da692e,german_fires_greifswald_locations__f424f55583f8e4674ba14051d3da692e
pappelallee,"Pappelallee in Greifswald, Germany",54.0850468,13.4264292,1,,,,,,Media,"Pappelallee in Greifswald, Germany",,german_fires_greifswald_locations,896d4a81fd086a448cf47104c79799b3,german_fires_greifswald_locations__896d4a81fd086a448cf47104c79799b3
paul-uhlenhuth-strasse,"Paul-Uhlenhuth-Strasse in Greifswald, Germany",54.0866728,13.3956896,1,,,,,,IndustryTerm,"Paul-Uhlenhuth-Strasse in Greifswald, Germany",,german_fires_greifswald_locations,4669025c6003fb9b275820efd1e4b0a7,german_fires_greifswald_locations__4669025c6003fb9b275820efd1e4b0a7
pestalozzistrasse,"Pestalozzistrasse in Greifswald, Germany",54.0873488,13.3831492,1,,,,,,Refinery,"Pestalozzistrasse in Greifswald, Germany",,german_fires_greifswald_locations,93d55b2a664c3c6eff08b85f721e389f,german_fires_greifswald_locations__93d55b2a664c3c6eff08b85f721e389f
peter-warschow-strasse,"Peter-Warschow-Strasse in Greifswald, Germany",54.0894286,13.3907009,1,,,,,,Legislator,"Peter-Warschow-Strasse in Greifswald, Germany",,german_fires_greifswald_locations,fe90114a9c954c98781a5d5bec90e591,german_fires_greifswald_locations__fe90114a9c954c98781a5d5bec90e591
pfarrer-wachsmann-strasse,"Pfarrer-Wachsmann-Strasse in Greifswald, Germany",54.0921612,13.3761118,1,,,,,,space,"Pfarrer-Wachsmann-Strasse in Greifswald, Germany",,german_fires_greifswald_locations,921ef449c99b6926349a0c39bf3e4390,german_fires_greifswald_locations__921ef449c99b6926349a0c39bf3e4390
platz der freiheit,"Platz der Freiheit in Greifswald, Germany",54.0951281,13.3878452,1,,,,,,LegislativeCommittee,"Platz der Freiheit in Greifswald, Germany",,german_fires_greifswald_locations,bd540fab0687e99e6fd9017731ff66db,german_fires_greifswald_locations__bd540fab0687e99e6fd9017731ff66db
poeler weg,"Poeler Weg in Greifswald, Germany",54.092172,13.4266019,1,,,,,,FTO,"Poeler Weg in Greifswald, Germany",,german_fires_greifswald_locations,c01757f60a1b09bc6e712473b5dc763b,german_fires_greifswald_locations__c01757f60a1b09bc6e712473b5dc763b
poggenweg,"Poggenweg in Greifswald, Germany",54.0886796,13.3504835,1,,,,,,Exec,"Poggenweg in Greifswald, Germany",,german_fires_greifswald_locations,ff2f763cc561cd14230e25c356c33963,german_fires_greifswald_locations__ff2f763cc561cd14230e25c356c33963
pomeroder platz,"Pomeroder Platz in Greifswald, Germany",54.0865463,13.3923414,1,,,,,,FTO,"Pomeroder Platz in Greifswald, Germany",,german_fires_greifswald_locations,cdebbd6d4e31e38533afce97f008487c,german_fires_greifswald_locations__cdebbd6d4e31e38533afce97f008487c
prokofjewstrasse,"Prokofjewstrasse in Greifswald, Germany",54.084326,13.4099728,1,,,,,,CompanyKeyword,"Prokofjewstrasse in Greifswald, Germany",,german_fires_greifswald_locations,ec85bd202603aa139c0e8001b3303d59,german_fires_greifswald_locations__ec85bd202603aa139c0e8001b3303d59
puschkinring,"Puschkinring in Greifswald, Germany",54.0843315,13.4230546,1,,,,,,Diplomat,"Puschkinring in Greifswald, Germany",,german_fires_greifswald_locations,c6a9c39b7b65bfa9f2a7a0d54101f3ee,german_fires_greifswald_locations__c6a9c39b7b65bfa9f2a7a0d54101f3ee
querfeld,"Querfeld in Greifswald, Germany",54.0751645,13.3897255,1,,,,,,Organization,"Querfeld in Greifswald, Germany",,german_fires_greifswald_locations,aec6f3a5bc747f1c6223082271c17847,german_fires_greifswald_locations__aec6f3a5bc747f1c6223082271c17847
quistorpweg,"Quistorpweg in Greifswald, Germany",54.0659048,13.4337278,1,,,,,,Wells,"Quistorpweg in Greifswald, Germany",,german_fires_greifswald_locations,a73f94b2591ab232c80b2a5561a5ca8d,german_fires_greifswald_locations__a73f94b2591ab232c80b2a5561a5ca8d
rakower strasse,"Rakower Strasse in Greifswald, Germany",54.0947909,13.3818031,1,,,,,,Exec,"Rakower Strasse in Greifswald, Germany",,german_fires_greifswald_locations,d816805f5e0ef0addc30f7bfb6378ec2,german_fires_greifswald_locations__d816805f5e0ef0addc30f7bfb6378ec2
ratswiese,"Ratswiese in Greifswald, Germany",54.0939215,13.3532136,1,,,,,,DiplomaticFacilities,"Ratswiese in Greifswald, Germany",,german_fires_greifswald_locations,70262c6aad331e3f7c17c9aa2853e347,german_fires_greifswald_locations__70262c6aad331e3f7c17c9aa2853e347
reitweg,"Reitweg in Greifswald, Germany",54.0773078,13.4253498,1,,,,,,Organization,"Reitweg in Greifswald, Germany",,german_fires_greifswald_locations,33c73d4ef3120039eadea3e6e84cb3f2,german_fires_greifswald_locations__33c73d4ef3120039eadea3e6e84cb3f2
riemser weg,"Riemser Weg in Greifswald, Germany",54.089015,13.4343214,1,,,,,,DiplomaticFacilities,"Riemser Weg in Greifswald, Germany",,german_fires_greifswald_locations,99a57cc92081bfcee53f53f8956698a0,german_fires_greifswald_locations__99a57cc92081bfcee53f53f8956698a0
rigaer strasse,"Rigaer Strasse in Greifswald, Germany",54.0872062,13.4324831,1,,,,,,Wells,"Rigaer Strasse in Greifswald, Germany",,german_fires_greifswald_locations,96f720e366c0e4c0154ba6c3b8f6c221,german_fires_greifswald_locations__96f720e366c0e4c0154ba6c3b8f6c221
ringstrasse,"Ringstrasse in Greifswald, Germany",54.1777045,13.3341836,1,,,,,,Refinery,"Ringstrasse in Greifswald, Germany",,german_fires_greifswald_locations,a491d9f13864cdb4bd35830738959547,german_fires_greifswald_locations__a491d9f13864cdb4bd35830738959547
rontgenstrasse,"Rontgenstrasse in Greifswald, Germany",54.0781334,13.4117156,1,,,,,,CompanyKeyword,"Rontgenstrasse in Greifswald, Germany",,german_fires_greifswald_locations,df6b01226ea3b29822f0291966a1f335,german_fires_greifswald_locations__df6b01226ea3b29822f0291966a1f335
roald-amundsen-strasse,"Roald-Amundsen-Strasse in Greifswald, Germany",54.0920822,13.4282592,1,,,,,,Exec,"Roald-Amundsen-Strasse in Greifswald, Germany",,german_fires_greifswald_locations,46716de9da7bcd2f916a08ad8ed117a1,german_fires_greifswald_locations__46716de9da7bcd2f916a08ad8ed117a1
robert-blum-strasse,"Robert-Blum-Strasse in Greifswald, Germany",54.0937015,13.3903467,1,,,,,,FTO,"Robert-Blum-Strasse in Greifswald, Germany",,german_fires_greifswald_locations,f59226aaf3bdeae61e9ff64782bfdb6d,german_fires_greifswald_locations__f59226aaf3bdeae61e9ff64782bfdb6d
rossmuhlenstrasse,"Rossmuhlenstrasse in Greifswald, Germany",54.098356,13.3810531,1,,,,,,Shipping,"Rossmuhlenstrasse in Greifswald, Germany",,german_fires_greifswald_locations,4fc7e982a6e954980386247a242d5020,german_fires_greifswald_locations__4fc7e982a6e954980386247a242d5020
rosa-luxemburg-strasse,"Rosa-Luxemburg-Strasse in Greifswald, Germany",54.0936922,13.3851017,1,,,,,,FTO,"Rosa-Luxemburg-Strasse in Greifswald, Germany",,german_fires_greifswald_locations,500a7bc8d83dd8c5b81ed5c2f5c548b1,german_fires_greifswald_locations__500a7bc8d83dd8c5b81ed5c2f5c548b1
rosenstrasse,"Rosenstrasse in Greifswald, Germany",54.0960049,13.4478228,1,,,,,,Legislator,"Rosenstrasse in Greifswald, Germany",,german_fires_greifswald_locations,e5df58a2201ff387631f56f48e6dff53,german_fires_greifswald_locations__e5df58a2201ff387631f56f48e6dff53
rosenweg,"Rosenweg in Greifswald, Germany",54.0824147,13.3927884,1,,,,,,Diplomat,"Rosenweg in Greifswald, Germany",,german_fires_greifswald_locations,8c5544533051e6ce41973f275bf90518,german_fires_greifswald_locations__8c5544533051e6ce41973f275bf90518
rostocker strasse,"Rostocker Strasse in Greifswald, Germany",54.0858967,13.4577163,1,,,,,,IndustryTerm,"Rostocker Strasse in Greifswald, Germany",,german_fires_greifswald_locations,1e882f8fd666d658853504ee55bbb0fb,german_fires_greifswald_locations__1e882f8fd666d658853504ee55bbb0fb
rotdornweg,"Rotdornweg in Greifswald, Germany",54.0877429,13.440423,1,,,,,,ForeignMinistry,"Rotdornweg in Greifswald, Germany",,german_fires_greifswald_locations,e7c1e0398d4a4e0bfbc722e71a8e3174,german_fires_greifswald_locations__e7c1e0398d4a4e0bfbc722e71a8e3174
rotgerberstrasse,"Rotgerberstrasse in Greifswald, Germany",54.0962346,13.3752416,1,,,,,,Keyphrase,"Rotgerberstrasse in Greifswald, Germany",,german_fires_greifswald_locations,97c4c698d958d8ee3726ba7880799f3f,german_fires_greifswald_locations__97c4c698d958d8ee3726ba7880799f3f
rugener weg,"Rugener Weg in Greifswald, Germany",54.0912725,13.4300911,1,,,,,,News,"Rugener Weg in Greifswald, Germany",,german_fires_greifswald_locations,7ffb56232a0872707aff30da4e5e44ce,german_fires_greifswald_locations__7ffb56232a0872707aff30da4e5e44ce
rubenowplatz,"Rubenowplatz in Greifswald, Germany",54.095566,13.3745731,1,,,,,,Wells,"Rubenowplatz in Greifswald, Germany",,german_fires_greifswald_locations,de839d59220dce0b1475f50e4ea6dc28,german_fires_greifswald_locations__de839d59220dce0b1475f50e4ea6dc28
rubenowstrasse,"Rubenowstrasse in Greifswald, Germany",54.0939777,13.3756644,1,,,,,,space,"Rubenowstrasse in Greifswald, Germany",,german_fires_greifswald_locations,aa50e4520b8312b24e5a662deec84f45,german_fires_greifswald_locations__aa50e4520b8312b24e5a662deec84f45
rudolf-breitscheid-strasse,"Rudolf-Breitscheid-Strasse in Greifswald, Germany",54.0936272,13.3927045,1,,,,,,Diplomat,"Rudolf-Breitscheid-Strasse in Greifswald, Germany",,german_fires_greifswald_locations,92b960c2c1e69c0d8c1753358c95a348,german_fires_greifswald_locations__92b960c2c1e69c0d8c1753358c95a348
rudolf-petershagen-allee,"Rudolf-Petershagen-Allee in Greifswald, Germany",54.0924514,13.3966799,1,,,,,,Shipping,"Rudolf-Petershagen-Allee in Greifswald, Germany",,german_fires_greifswald_locations,0f56d23ca7d8138010b36f3f32f7a1c8,german_fires_greifswald_locations__0f56d23ca7d8138010b36f3f32f7a1c8
rudolf-seeliger-strasse,"Rudolf-Seeliger-Strasse in Greifswald, Germany",54.0773499,13.4311499,1,,,,,,Person,"Rudolf-Seeliger-Strasse in Greifswald, Germany",,german_fires_greifswald_locations,8e8ea8288ab77c0f3fc31446eb2e37b6,german_fires_greifswald_locations__8e8ea8288ab77c0f3fc31446eb2e37b6
runde wiese,"Runde Wiese in Greifswald, Germany",54.0770235,13.4193623,1,,,,,,FTO,"Runde Wiese in Greifswald, Germany",,german_fires_greifswald_locations,60c30e1f22ede9d86dbb7c1b12f334e6,german_fires_greifswald_locations__60c30e1f22ede9d86dbb7c1b12f334e6
salinenstrasse,"Salinenstrasse in Greifswald, Germany",54.100516,13.3837333,1,,,,,,Person,"Salinenstrasse in Greifswald, Germany",,german_fires_greifswald_locations,c35433e053b6527d90c3e34d0f6eaf18,german_fires_greifswald_locations__c35433e053b6527d90c3e34d0f6eaf18
sandfuhr,"Sandfuhr in Greifswald, Germany",54.0748309,13.4060023,1,,,,,,space,"Sandfuhr in Greifswald, Germany",,german_fires_greifswald_locations,dbb15f285f58c2aa0253ac1b7d172a5c,german_fires_greifswald_locations__dbb15f285f58c2aa0253ac1b7d172a5c
sassnitzer weg,"Sassnitzer Weg in Greifswald, Germany",54.0881346,13.4212686,1,,,,,,ForeignMinister,"Sassnitzer Weg in Greifswald, Germany",,german_fires_greifswald_locations,35343d1ce1e7584d06737e738008a28b,german_fires_greifswald_locations__35343d1ce1e7584d06737e738008a28b
scharnhorststrasse,"Scharnhorststrasse in Greifswald, Germany",54.0884797,13.3789201,1,,,,,,Exec,"Scharnhorststrasse in Greifswald, Germany",,german_fires_greifswald_locations,4e1760ba41dd7c2122a9dd252dfb50e8,german_fires_greifswald_locations__4e1760ba41dd7c2122a9dd252dfb50e8
schillerplatz,"Schillerplatz in Greifswald, Germany",54.0805214,13.3637352,1,,,,,,space,"Schillerplatz in Greifswald, Germany",,german_fires_greifswald_locations,75f19b7420fcd8147526e87edd9ccb4f,german_fires_greifswald_locations__75f19b7420fcd8147526e87edd9ccb4f
schillerstrasse,"Schillerstrasse in Greifswald, Germany",54.080707,13.365198,1,,,,,,FTO,"Schillerstrasse in Greifswald, Germany",,german_fires_greifswald_locations,5b4b7220b4f18aa50fe8bf65c3f29f23,german_fires_greifswald_locations__5b4b7220b4f18aa50fe8bf65c3f29f23
schillstrasse,"Schillstrasse in Greifswald, Germany",54.0938945,13.3947668,1,,,,,,News,"Schillstrasse in Greifswald, Germany",,german_fires_greifswald_locations,9c31703832a82034d079da08a4214a6e,german_fires_greifswald_locations__9c31703832a82034d079da08a4214a6e
schlehdornweg,"Schlehdornweg in Greifswald, Germany",54.0887625,13.4416209,1,,,,,,Wells,"Schlehdornweg in Greifswald, Germany",,german_fires_greifswald_locations,3c78414d27e1cde2f45352daa6686e3e,german_fires_greifswald_locations__3c78414d27e1cde2f45352daa6686e3e
schonwalder landstrasse,"Schonwalder Landstrasse in Greifswald, Germany",54.0755685,13.4011294,1,,,,,,AAEntity,"Schonwalder Landstrasse in Greifswald, Germany",,german_fires_greifswald_locations,fbdc7d22d6ab15e30fce9b5192ac63d9,german_fires_greifswald_locations__fbdc7d22d6ab15e30fce9b5192ac63d9
schutzenstrasse,"Schutzenstrasse in Greifswald, Germany",54.0972794,13.3860252,1,,,,,,AAEntity,"Schutzenstrasse in Greifswald, Germany",,german_fires_greifswald_locations,0cc1530c0b9224d7c50af852d24f552a,german_fires_greifswald_locations__0cc1530c0b9224d7c50af852d24f552a
schuhhagen,"Schuhhagen in Greifswald, Germany",54.0961019,13.383796,1,,,,,,LegislativeCommittee,"Schuhhagen in Greifswald, Germany",,german_fires_greifswald_locations,a58ca1f7577908f4cadba6c71c9f3a7a,german_fires_greifswald_locations__a58ca1f7577908f4cadba6c71c9f3a7a
schulstrasse,"Schulstrasse in Greifswald, Germany",54.180574,13.3389542,1,,,,,,AAEntity,"Schulstrasse in Greifswald, Germany",,german_fires_greifswald_locations,9d7a266cfa2a617f8aafa7f2558278be,german_fires_greifswald_locations__9d7a266cfa2a617f8aafa7f2558278be
selma-lagerlof-strasse,"Selma-Lagerlof-Strasse in Greifswald, Germany",54.0774395,13.3656983,1,,,,,,Person,"Selma-Lagerlof-Strasse in Greifswald, Germany",,german_fires_greifswald_locations,95c6a2e42dfa88962f378a581b1a4eeb,german_fires_greifswald_locations__95c6a2e42dfa88962f378a581b1a4eeb
sibylla-schwarz-strasse,"Sibylla-Schwarz-Strasse in Greifswald, Germany",54.085672,13.364412,1,,,,,,Diplomat,"Sibylla-Schwarz-Strasse in Greifswald, Germany",,german_fires_greifswald_locations,a3321576a9e1c229edb52f266c32c914,german_fires_greifswald_locations__a3321576a9e1c229edb52f266c32c914
siemensallee,"Siemensallee in Greifswald, Germany",54.0803325,13.3770749,1,,,,,,Legislator,"Siemensallee in Greifswald, Germany",,german_fires_greifswald_locations,f2f31a84e0a2b8aa6e972281a556c22a,german_fires_greifswald_locations__f2f31a84e0a2b8aa6e972281a556c22a
soldmannstrasse,"Soldmannstrasse in Greifswald, Germany",54.0926154,13.3651243,1,,,,,,CompanyKeyword,"Soldmannstrasse in Greifswald, Germany",,german_fires_greifswald_locations,b9b24b46e892e7694cf74dc9b800c8b3,german_fires_greifswald_locations__b9b24b46e892e7694cf74dc9b800c8b3
spiegelsdorfer wende,"Spiegelsdorfer Wende in Greifswald, Germany",54.0769317,13.4011947,1,,,,,,Media,"Spiegelsdorfer Wende in Greifswald, Germany",,german_fires_greifswald_locations,d4211609e26953e8a5d829a873cf4098,german_fires_greifswald_locations__d4211609e26953e8a5d829a873cf4098
sprosserweg,"Sprosserweg in Greifswald, Germany",54.08384,13.4406719,1,,,,,,DiplomaticFacilities,"Sprosserweg in Greifswald, Germany",,german_fires_greifswald_locations,4112b4b27166f276adf576c71ba30952,german_fires_greifswald_locations__4112b4b27166f276adf576c71ba30952
st. petersburger strasse,"St. Petersburger Strasse in Greifswald, Germany",54.0895116,13.4225848,1,,,,,,Exec,"St. Petersburger Strasse in Greifswald, Germany",,german_fires_greifswald_locations,2c5f61e6fcd371c790d10e4a23c7cb50,german_fires_greifswald_locations__2c5f61e6fcd371c790d10e4a23c7cb50
steinbeckerstrasse,"Steinbeckerstrasse in Greifswald, Germany",54.0973871,13.3785423,1,,,,,,FTO,"Steinbeckerstrasse in Greifswald, Germany",,german_fires_greifswald_locations,056bd3398ecd109cfe64fc494211af01,german_fires_greifswald_locations__056bd3398ecd109cfe64fc494211af01
steinstrasse,"Steinstrasse in Greifswald, Germany",54.0902998,13.3826607,1,,,,,,Refinery,"Steinstrasse in Greifswald, Germany",,german_fires_greifswald_locations,b4a2412dffe5efeb026ee43261f2f993,german_fires_greifswald_locations__b4a2412dffe5efeb026ee43261f2f993
stephanistrasse,"Stephanistrasse in Greifswald, Germany",54.0926945,13.384321,1,,,,,,Keyphrase,"Stephanistrasse in Greifswald, Germany",,german_fires_greifswald_locations,35681ca2baf0d7a5d8bc27e60a5b99ea,german_fires_greifswald_locations__35681ca2baf0d7a5d8bc27e60a5b99ea
stettiner strasse,"Stettiner Strasse in Greifswald, Germany",54.0883833,13.4291226,1,,,,,,IndustryTerm,"Stettiner Strasse in Greifswald, Germany",,german_fires_greifswald_locations,f95096d641cc05fa1da037a6640abac7,german_fires_greifswald_locations__f95096d641cc05fa1da037a6640abac7
stilower wende,"Stilower Wende in Greifswald, Germany",54.0789841,13.4163782,1,,,,,,LegislativeCommittee,"Stilower Wende in Greifswald, Germany",,german_fires_greifswald_locations,c861c169586ab9cb5d3a479b494486aa,german_fires_greifswald_locations__c861c169586ab9cb5d3a479b494486aa
stralsunder landstrasse,"Stralsunder Landstrasse in Greifswald, Germany",54.1057746,13.3759817,1,,,,,,Diplomat,"Stralsunder Landstrasse in Greifswald, Germany",,german_fires_greifswald_locations,54a7002fa4870d2ebc6c070172fe9dc7,german_fires_greifswald_locations__54a7002fa4870d2ebc6c070172fe9dc7
stralsunder strasse,"Stralsunder Strasse in Greifswald, Germany",54.1010469,13.3785651,1,,,,,,News,"Stralsunder Strasse in Greifswald, Germany",,german_fires_greifswald_locations,8c768267c7fddabc9d2b2d3622e53c00,german_fires_greifswald_locations__8c768267c7fddabc9d2b2d3622e53c00
strandstrasse,"Strandstrasse in Greifswald, Germany",54.0986066,13.45069,1,,,,,,Shipping,"Strandstrasse in Greifswald, Germany",,german_fires_greifswald_locations,344afd91d5c982fe6c88a5e10ccfac61,german_fires_greifswald_locations__344afd91d5c982fe6c88a5e10ccfac61
strasse des friedens,"Strasse des Friedens in Greifswald, Germany",54.0894378,13.4235037,1,,,,,,LegislativeCommittee,"Strasse des Friedens in Greifswald, Germany",,german_fires_greifswald_locations,39833dc11ad3b1714f5efffddd581e3c,german_fires_greifswald_locations__39833dc11ad3b1714f5efffddd581e3c
studentenberg,"Studentenberg in Greifswald, Germany",54.0662821,13.3785807,1,,,,,,Refinery,"Studentenberg in Greifswald, Germany",,german_fires_greifswald_locations,132ace1a47d5315770bb64c026019a96,german_fires_greifswald_locations__132ace1a47d5315770bb64c026019a96
studentensteig,"Studentensteig in Greifswald, Germany",54.0910567,13.4490277,1,,,,,,Consulates,"Studentensteig in Greifswald, Germany",,german_fires_greifswald_locations,6845963d9820d6d348c8112e14733d99,german_fires_greifswald_locations__6845963d9820d6d348c8112e14733d99
sudufer,"Sudufer in Greifswald, Germany",54.1831574,13.3593668,1,,,,,,ForeignMinistry,"Sudufer in Greifswald, Germany",,german_fires_greifswald_locations,edfd349ebbed01410e67bc2910c67fd4,german_fires_greifswald_locations__edfd349ebbed01410e67bc2910c67fd4
tallinner strasse,"Tallinner Strasse in Greifswald, Germany",54.0886469,13.4301816,1,,,,,,Shipping,"Tallinner Strasse in Greifswald, Germany",,german_fires_greifswald_locations,2bb721cd47bb86a37d219c5e6ad15cb3,german_fires_greifswald_locations__2bb721cd47bb86a37d219c5e6ad15cb3
theodor-fontane-strasse,"Theodor-Fontane-Strasse in Greifswald, Germany",54.0785026,13.3616033,1,,,,,,IndustryTerm,"Theodor-Fontane-Strasse in Greifswald, Germany",,german_fires_greifswald_locations,004d93c4ba5388f0fddbdb57fb6de3bf,german_fires_greifswald_locations__004d93c4ba5388f0fddbdb57fb6de3bf
theodor-pyl-strasse,"Theodor-Pyl-Strasse in Greifswald, Germany",54.0952139,13.3825521,1,,,,,,ForeignMinistry,"Theodor-Pyl-Strasse in Greifswald, Germany",,german_fires_greifswald_locations,7ed001da325c18735934383618261536,german_fires_greifswald_locations__7ed001da325c18735934383618261536
theodor-storm-strasse,"Theodor-Storm-Strasse in Greifswald, Germany",54.0799468,13.3608312,1,,,,,,ForeignMinister,"Theodor-Storm-Strasse in Greifswald, Germany",,german_fires_greifswald_locations,a0818d9e84f3c0b91bfd0acb4358c40e,german_fires_greifswald_locations__a0818d9e84f3c0b91bfd0acb4358c40e
thomas-muntzer-strasse,"Thomas-Muntzer-Strasse in Greifswald, Germany",54.1071195,13.4386343,1,,,,,,ForeignMinister,"Thomas-Muntzer-Strasse in Greifswald, Germany",,german_fires_greifswald_locations,b27915998cb744595dc3969a417aa9b1,german_fires_greifswald_locations__b27915998cb744595dc3969a417aa9b1
tolstoistrasse,"Tolstoistrasse in Greifswald, Germany",54.0822103,13.4242822,1,,,,,,space,"Tolstoistrasse in Greifswald, Germany",,german_fires_greifswald_locations,da5f20111c2abd7712b9012fea230f23,german_fires_greifswald_locations__da5f20111c2abd7712b9012fea230f23
trelleborger weg,"Trelleborger Weg in Greifswald, Germany",54.0881263,13.4258883,1,,,,,,FTO,"Trelleborger Weg in Greifswald, Germany",,german_fires_greifswald_locations,8c0a23b95e49976f90039549ed80501f,german_fires_greifswald_locations__8c0a23b95e49976f90039549ed80501f
treppenberg,"Treppenberg in Greifswald, Germany",54.0680237,13.3757858,1,,,,,,Keyphrase,"Treppenberg in Greifswald, Germany",,german_fires_greifswald_locations,a419c69ac846083d3a6f707cea1aa497,german_fires_greifswald_locations__a419c69ac846083d3a6f707cea1aa497
tulpenweg,"Tulpenweg in Greifswald, Germany",54.0791636,13.3953841,1,,,,,,Diplomat,"Tulpenweg in Greifswald, Germany",,german_fires_greifswald_locations,364c66889a17d894baa7f6f7235526f4,german_fires_greifswald_locations__364c66889a17d894baa7f6f7235526f4
turmgasse,"Turmgasse in Greifswald, Germany",54.095826,13.3771258,1,,,,,,Media,"Turmgasse in Greifswald, Germany",,german_fires_greifswald_locations,428c37d58c4b197665b71c944f47fbe1,german_fires_greifswald_locations__428c37d58c4b197665b71c944f47fbe1
uferring,"Uferring in Greifswald, Germany",54.103434,13.4443896,1,,,,,,CompanyKeyword,"Uferring in Greifswald, Germany",,german_fires_greifswald_locations,7a26ea4a072a698a35e56d43f1636332,german_fires_greifswald_locations__7a26ea4a072a698a35e56d43f1636332
uhlandstrasse,"Uhlandstrasse in Greifswald, Germany",54.0883405,13.3653121,1,,,,,,space,"Uhlandstrasse in Greifswald, Germany",,german_fires_greifswald_locations,aabcb5bbab3fadfc8dccbab01d22927c,german_fires_greifswald_locations__aabcb5bbab3fadfc8dccbab01d22927c
ummanzer weg,"Ummanzer Weg in Greifswald, Germany",54.0908693,13.4268932,1,,,,,,Wells,"Ummanzer Weg in Greifswald, Germany",,german_fires_greifswald_locations,d11a7b0f021740ddd78294595a9cc9c8,german_fires_greifswald_locations__d11a7b0f021740ddd78294595a9cc9c8
usedomer weg,"Usedomer Weg in Greifswald, Germany",54.0911397,13.4313476,1,,,,,,DiplomaticFacilities,"Usedomer Weg in Greifswald, Germany",,german_fires_greifswald_locations,8da85189eb23e1132974d0fb6728f9e4,german_fires_greifswald_locations__8da85189eb23e1132974d0fb6728f9e4
verlangerte scharnhorststrasse,"Verlangerte Scharnhorststrasse in Greifswald, Germany",54.089041,13.3692029,1,,,,,,Media,"Verlangerte Scharnhorststrasse in Greifswald, Germany",,german_fires_greifswald_locations,ba506d967f6256cce66a9c547201bfc7,german_fires_greifswald_locations__ba506d967f6256cce66a9c547201bfc7
victor-klemperer-strasse,"Victor-Klemperer-Strasse in Greifswald, Germany",54.0854521,13.3915756,1,,,,,,AAEntity,"Victor-Klemperer-Strasse in Greifswald, Germany",,german_fires_greifswald_locations,9472d75aedd1b9d930360125f2d2a647,german_fires_greifswald_locations__9472d75aedd1b9d930360125f2d2a647
vierower wende,"Vierower Wende in Greifswald, Germany",54.080367,13.413194,1,,,,,,LegislativeCommittee,"Vierower Wende in Greifswald, Germany",,german_fires_greifswald_locations,e10cb7da6bc4b192080249eed364b1a0,german_fires_greifswald_locations__e10cb7da6bc4b192080249eed364b1a0
vilmer weg,"Vilmer Weg in Greifswald, Germany",54.08903949,13.43179378,1,,,,,,Keyphrase,"Vilmer Weg in Greifswald, Germany",,german_fires_greifswald_locations,16eef50c4d78922e6bc7d3372c357199,german_fires_greifswald_locations__16eef50c4d78922e6bc7d3372c357199
