german_text,caption_text,lat,lon,ranking,default location,default_lat,default_lon,ENTITY_LABEL,name,description,source,source_identifier,global_identifier
abtnaundorf,"Abtnaundorf in Leipzig, Germany",51.3549122,12.4076323,2,"Leipzig, Germany",51.34255642,12.38332883,News,"Abtnaundorf in Leipzig, Germany",,german_fires_lepzig_locations,2766cfd40c86d3c5ad5c3a8041266ded,german_fires_lepzig_locations__2766cfd40c86d3c5ad5c3a8041266ded
althen,"Althen in Leipzig, Germany",51.3369791,12.5245542,2,,,,space,"Althen in Leipzig, Germany",,german_fires_lepzig_locations,041570bcd8b0b047144b12b8708515a7,german_fires_lepzig_locations__041570bcd8b0b047144b12b8708515a7
anger,"Anger in Leipzig, Germany",51.3359628,12.4229653,2,,,,Media,"Anger in Leipzig, Germany",,german_fires_lepzig_locations,6c70b5b272fc7e8c14b61d56fb6be7f6,german_fires_lepzig_locations__6c70b5b272fc7e8c14b61d56fb6be7f6
baalsdorf,"Baalsdorf in Leipzig, Germany",51.3247917,12.4895813,2,,,,Organization,"Baalsdorf in Leipzig, Germany",,german_fires_lepzig_locations,8107f65e2ad62e5f68ec1c40d60d54e7,german_fires_lepzig_locations__8107f65e2ad62e5f68ec1c40d60d54e7
barneck,"Barneck in Leipzig, Germany",51.3385738,12.3784615,2,,,,LegislativeCommittee,"Barneck in Leipzig, Germany",,german_fires_lepzig_locations,d75c5f2b5c35fc8c2cfb4dcd9f6af907,german_fires_lepzig_locations__d75c5f2b5c35fc8c2cfb4dcd9f6af907
barneck,"Barneck in Leipzig, Germany",51.3385738,12.3784615,2,,,,DiplomaticFacilities,"Barneck in Leipzig, Germany",,german_fires_lepzig_locations,d1016cbe89e8853dddd9eb5b33a69d7d,german_fires_lepzig_locations__d1016cbe89e8853dddd9eb5b33a69d7d
bohlitz,"Bohlitz in Leipzig, Germany",51.3567237,12.2909554,2,,,,Shipping,"Bohlitz in Leipzig, Germany",,german_fires_lepzig_locations,56e1f4b404ecba94e59e362bb7e08644,german_fires_lepzig_locations__56e1f4b404ecba94e59e362bb7e08644
bosdorf,"Bosdorf in Leipzig, Germany",51.2517613,12.2990641,2,,,,Consulates,"Bosdorf in Leipzig, Germany",,german_fires_lepzig_locations,468e4fa13d4b6a1ee0f8fd44a207d43b,german_fires_lepzig_locations__468e4fa13d4b6a1ee0f8fd44a207d43b
breitenfeld,"Breitenfeld in Leipzig, Germany",51.4041521,12.3413302,2,,,,Exec,"Breitenfeld in Leipzig, Germany",,german_fires_lepzig_locations,cd3493ce4c7d95446cebde6ead640088,german_fires_lepzig_locations__cd3493ce4c7d95446cebde6ead640088
burgaue,"Burgaue in Leipzig, Germany",51.3685521,12.2997466,2,,,,Shipping,"Burgaue in Leipzig, Germany",,german_fires_lepzig_locations,e11b9b67f1be5d135fa553c21e50bb54,german_fires_lepzig_locations__e11b9b67f1be5d135fa553c21e50bb54
burghausen,"Burghausen in Leipzig, Germany",51.3546139,12.2606793,2,,,,IndustryTerm,"Burghausen in Leipzig, Germany",,german_fires_lepzig_locations,58b7340f29f2cd9b6620684469ce6a16,german_fires_lepzig_locations__58b7340f29f2cd9b6620684469ce6a16
cleuden,"Cleuden in Leipzig, Germany",51.3396955,12.3730747,2,,,,Keyphrase,"Cleuden in Leipzig, Germany",,german_fires_lepzig_locations,6a458651a4daf4b6543ae0df9f4481a1,german_fires_lepzig_locations__6a458651a4daf4b6543ae0df9f4481a1
connewitz,"Connewitz in Leipzig, Germany",51.3078032,12.375401,2,,,,Consulates,"Connewitz in Leipzig, Germany",,german_fires_lepzig_locations,1bb7d9dda10ace95137bf284867a1472,german_fires_lepzig_locations__1bb7d9dda10ace95137bf284867a1472
crottendorf,"Crottendorf in Leipzig, Germany",51.3359628,12.4229653,2,,,,AAEntity,"Crottendorf in Leipzig, Germany",,german_fires_lepzig_locations,25ac1bd7223e9b87f677297502da51d4,german_fires_lepzig_locations__25ac1bd7223e9b87f677297502da51d4
dobschutz,"Dobschutz in Leipzig, Germany",51.146401,13.272736,2,,,,Wells,"Dobschutz in Leipzig, Germany",,german_fires_lepzig_locations,efb8f9d2c0ba9769d5df4101dc78452c,german_fires_lepzig_locations__efb8f9d2c0ba9769d5df4101dc78452c
dolitz,"Dolitz in Leipzig, Germany",51.2874168,12.3918998,2,,,,space,"Dolitz in Leipzig, Germany",,german_fires_lepzig_locations,f25a91ce6db3f35c08161ec499db5903,german_fires_lepzig_locations__f25a91ce6db3f35c08161ec499db5903
dolitz,"Dolitz in Leipzig, Germany",51.2874168,12.3918998,2,,,,Media,"Dolitz in Leipzig, Germany",,german_fires_lepzig_locations,ebea424885eeed368b0eb3170fb7bba6,german_fires_lepzig_locations__ebea424885eeed368b0eb3170fb7bba6
dosen,"Dosen in Leipzig, Germany",51.2891573,12.4128558,2,,,,IndustryTerm,"Dosen in Leipzig, Germany",,german_fires_lepzig_locations,bef9fb9a90853ee406eeccb27934f7f1,german_fires_lepzig_locations__bef9fb9a90853ee406eeccb27934f7f1
ehrenberg,"Ehrenberg in Leipzig, Germany",51.3567237,12.2909554,2,,,,ForeignMinister,"Ehrenberg in Leipzig, Germany",,german_fires_lepzig_locations,939cc4d350569d85a7f63ed58577df17,german_fires_lepzig_locations__939cc4d350569d85a7f63ed58577df17
engelsdorf,"Engelsdorf in Leipzig, Germany",51.3382024,12.4799296,2,,,,AAEntity,"Engelsdorf in Leipzig, Germany",,german_fires_lepzig_locations,3c9d1717f8a2229d437ad2bbb2b61893,german_fires_lepzig_locations__3c9d1717f8a2229d437ad2bbb2b61893
eutritzsch,"Eutritzsch in Leipzig, Germany",51.3731585,12.3864518,2,,,,Consulates,"Eutritzsch in Leipzig, Germany",,german_fires_lepzig_locations,5badd7db2ec5e27e1db6a916eb29c2ee,german_fires_lepzig_locations__5badd7db2ec5e27e1db6a916eb29c2ee
eythra,"Eythra in Leipzig, Germany",51.30676,12.26991,2,,,,Media,"Eythra in Leipzig, Germany",,german_fires_lepzig_locations,56967e0ba80b60ad391e0140e46803a0,german_fires_lepzig_locations__56967e0ba80b60ad391e0140e46803a0
flickert,"Flickert in Leipzig, Germany",51.2885404,12.2788018,2,,,,ForeignMinistry,"Flickert in Leipzig, Germany",,german_fires_lepzig_locations,9df8764d2ffc1eeb107cf79ec1507a91,german_fires_lepzig_locations__9df8764d2ffc1eeb107cf79ec1507a91
gobschelwitz,"Gobschelwitz in Leipzig, Germany",51.422475,12.4234179,2,,,,CompanyKeyword,"Gobschelwitz in Leipzig, Germany",,german_fires_lepzig_locations,5f5ac693e10f5ce47d11e840fa7a1739,german_fires_lepzig_locations__5f5ac693e10f5ce47d11e840fa7a1739
gohlis,"Gohlis in Leipzig, Germany",51.364498,12.3678559,2,,,,Organization,"Gohlis in Leipzig, Germany",,german_fires_lepzig_locations,31e3fe4ef506b8e398539b1607907c15,german_fires_lepzig_locations__31e3fe4ef506b8e398539b1607907c15
gohrenz,"Gohrenz in Leipzig, Germany",51.2894303,12.2545395,2,,,,Diplomat,"Gohrenz in Leipzig, Germany",,german_fires_lepzig_locations,04c461221ee8bcbc90cf5af667a2cf9d,german_fires_lepzig_locations__04c461221ee8bcbc90cf5af667a2cf9d
gottscheina,"Gottscheina in Leipzig, Germany",51.4265874,12.4842527,2,,,,Exec,"Gottscheina in Leipzig, Germany",,german_fires_lepzig_locations,7e6aa707de0b5b03da837aaadde4ae34,german_fires_lepzig_locations__7e6aa707de0b5b03da837aaadde4ae34
grossmiltitz,"Grossmiltitz in Leipzig, Germany",51.3396955,12.3730747,2,,,,IndustryTerm,"Grossmiltitz in Leipzig, Germany",,german_fires_lepzig_locations,a0cc94b2290cf8bda386b7951c588d98,german_fires_lepzig_locations__a0cc94b2290cf8bda386b7951c588d98
grosswiederitzsch,"Grosswiederitzsch in Leipzig, Germany",51.3895728,12.3699438,2,,,,Legislator,"Grosswiederitzsch in Leipzig, Germany",,german_fires_lepzig_locations,4da1e98b7d408ac116dc4f8792692c43,german_fires_lepzig_locations__4da1e98b7d408ac116dc4f8792692c43
grosszschocher,"Grosszschocher in Leipzig, Germany",51.3014611,12.3102421,2,,,,Legislator,"Grosszschocher in Leipzig, Germany",,german_fires_lepzig_locations,66aa8095ed634aca0417da47acd07008,german_fires_lepzig_locations__66aa8095ed634aca0417da47acd07008
grosszschocher,"Grosszschocher in Leipzig, Germany",51.3014611,12.3102421,2,,,,DiplomaticFacilities,"Grosszschocher in Leipzig, Germany",,german_fires_lepzig_locations,b06d89fb5ba5295340117cc0bbbc9b85,german_fires_lepzig_locations__b06d89fb5ba5295340117cc0bbbc9b85
gundorf,"Gundorf in Leipzig, Germany",51.3647799,12.2652097,2,,,,Keyphrase,"Gundorf in Leipzig, Germany",,german_fires_lepzig_locations,ab98d213b3516d656a7c06f5c67be1c1,german_fires_lepzig_locations__ab98d213b3516d656a7c06f5c67be1c1
hanichen,"Hanichen in Leipzig, Germany",51.385143,12.2657214,2,,,,Media,"Hanichen in Leipzig, Germany",,german_fires_lepzig_locations,62a4fbfe1e4e17df3f0319cbc5f7b296,german_fires_lepzig_locations__62a4fbfe1e4e17df3f0319cbc5f7b296
hartmannsdorf,"Hartmannsdorf in Leipzig, Germany",51.261618,12.3063565,2,,,,IndustryTerm,"Hartmannsdorf in Leipzig, Germany",,german_fires_lepzig_locations,95f35ab5d0a829a18cd8fd2ad007f14e,german_fires_lepzig_locations__95f35ab5d0a829a18cd8fd2ad007f14e
heiterblick,"Heiterblick in Leipzig, Germany",51.3620034,12.4531227,2,,,,Media,"Heiterblick in Leipzig, Germany",,german_fires_lepzig_locations,ce1bb9d0fd8c727c376d27239eb3338c,german_fires_lepzig_locations__ce1bb9d0fd8c727c376d27239eb3338c
hirschfeld,"Hirschfeld in Leipzig, Germany",51.3244092,12.5273043,2,,,,News,"Hirschfeld in Leipzig, Germany",,german_fires_lepzig_locations,86ff64a00dc4e8c3ff64bbe17796d2b5,german_fires_lepzig_locations__86ff64a00dc4e8c3ff64bbe17796d2b5
hohenheida,"Hohenheida in Leipzig, Germany",51.426699,12.4584937,2,,,,News,"Hohenheida in Leipzig, Germany",,german_fires_lepzig_locations,02472a563e2d30fdcf9685fd3c343084,german_fires_lepzig_locations__02472a563e2d30fdcf9685fd3c343084
holzhausen,"Holzhausen in Leipzig, Germany",51.3074121,12.4780189,2,,,,LegislativeCommittee,"Holzhausen in Leipzig, Germany",,german_fires_lepzig_locations,8d0832a79b5a9710ace75f5fc72b4d6d,german_fires_lepzig_locations__8d0832a79b5a9710ace75f5fc72b4d6d
kaserne 106 mockern,"Kaserne 106 Mockern in Leipzig, Germany",51.3696188,12.338092,2,,,,Person,"Kaserne 106 Mockern in Leipzig, Germany",,german_fires_lepzig_locations,47063c89841d632e1ae9e2136a0fc3ed,german_fires_lepzig_locations__47063c89841d632e1ae9e2136a0fc3ed
kleinmiltitz,"Kleinmiltitz in Leipzig, Germany",51.3396955,12.3730747,2,,,,News,"Kleinmiltitz in Leipzig, Germany",,german_fires_lepzig_locations,726d33bbb0721275796f737507ef2683,german_fires_lepzig_locations__726d33bbb0721275796f737507ef2683
kleinposna,"Kleinposna in Leipzig, Germany",51.3108525,12.5200181,2,,,,FTO,"Kleinposna in Leipzig, Germany",,german_fires_lepzig_locations,e3a98dc3b0f6fa0ad196a7b05a42a69d,german_fires_lepzig_locations__e3a98dc3b0f6fa0ad196a7b05a42a69d
kleinwiederitzsch,"Kleinwiederitzsch in Leipzig, Germany",51.396489,12.367539,2,,,,Consulates,"Kleinwiederitzsch in Leipzig, Germany",,german_fires_lepzig_locations,a60fa7e5583c15a89e0205d7c5fcdb1a,german_fires_lepzig_locations__a60fa7e5583c15a89e0205d7c5fcdb1a
kleinzschocher,"Kleinzschocher in Leipzig, Germany",51.3159485,12.3240541,2,,,,Consulates,"Kleinzschocher in Leipzig, Germany",,german_fires_lepzig_locations,a8c5586f8e96ccdb6f6b32303a0f2469,german_fires_lepzig_locations__a8c5586f8e96ccdb6f6b32303a0f2469
kleinzschocher,"Kleinzschocher in Leipzig, Germany",51.3159485,12.3240541,2,,,,space,"Kleinzschocher in Leipzig, Germany",,german_fires_lepzig_locations,f8c6b13a0e54b4ddcaa89dd42c35e867,german_fires_lepzig_locations__f8c6b13a0e54b4ddcaa89dd42c35e867
knauthain,"Knauthain in Leipzig, Germany",51.2717203,12.30709,2,,,,FTO,"Knauthain in Leipzig, Germany",,german_fires_lepzig_locations,d958be3bf3857af931589ff309190d8c,german_fires_lepzig_locations__d958be3bf3857af931589ff309190d8c
knautkleeberg,"Knautkleeberg in Leipzig, Germany",51.2818452,12.310029,2,,,,Legislator,"Knautkleeberg in Leipzig, Germany",,german_fires_lepzig_locations,da21e87eaf9884b0e4b60b2af4b4cec6,german_fires_lepzig_locations__da21e87eaf9884b0e4b60b2af4b4cec6
knautnaundorf,"Knautnaundorf in Leipzig, Germany",51.2538939,12.271484,2,,,,space,"Knautnaundorf in Leipzig, Germany",,german_fires_lepzig_locations,b984bdf2de69bd38fc2dbfa66409b64b,german_fires_lepzig_locations__b984bdf2de69bd38fc2dbfa66409b64b
kulkwitz,"Kulkwitz in Leipzig, Germany",51.2874716,12.2353804,2,,,,Wells,"Kulkwitz in Leipzig, Germany",,german_fires_lepzig_locations,86251eca800b7c42cffce2f5df1247c7,german_fires_lepzig_locations__86251eca800b7c42cffce2f5df1247c7
lauer,"Lauer in Leipzig, Germany",51.2716101,12.3408267,2,,,,FTO,"Lauer in Leipzig, Germany",,german_fires_lepzig_locations,8bc584ed314455a40ded47b06d27fd83,german_fires_lepzig_locations__8bc584ed314455a40ded47b06d27fd83
lausen,"Lausen in Leipzig, Germany",51.3074032,12.2543062,2,,,,Shipping,"Lausen in Leipzig, Germany",,german_fires_lepzig_locations,7ba584dc81ebc0fff6739e0e087c8909,german_fires_lepzig_locations__7ba584dc81ebc0fff6739e0e087c8909
leutzsch,"Leutzsch in Leipzig, Germany",51.353743,12.3189719,2,,,,ForeignMinister,"Leutzsch in Leipzig, Germany",,german_fires_lepzig_locations,3a60eedadc8169f060f939792e6ce7ef,german_fires_lepzig_locations__3a60eedadc8169f060f939792e6ce7ef
leutzsch,"Leutzsch in Leipzig, Germany",51.353743,12.3189719,2,,,,Person,"Leutzsch in Leipzig, Germany",,german_fires_lepzig_locations,4688e4de03965ee055479cd0371716ff,german_fires_lepzig_locations__4688e4de03965ee055479cd0371716ff
liebertwolkwitz,"Liebertwolkwitz in Leipzig, Germany",51.2802496,12.4692059,2,,,,CompanyKeyword,"Liebertwolkwitz in Leipzig, Germany",,german_fires_lepzig_locations,77c18bce2c00e2a908f4ef8ebbec1057,german_fires_lepzig_locations__77c18bce2c00e2a908f4ef8ebbec1057
lindenau,"Lindenau in Leipzig, Germany",51.3326403,12.3296974,2,,,,Keyphrase,"Lindenau in Leipzig, Germany",,german_fires_lepzig_locations,89034cfcd3d2b584e4274bc5743a0ffa,german_fires_lepzig_locations__89034cfcd3d2b584e4274bc5743a0ffa
lindenthal,"Lindenthal in Leipzig, Germany",51.3927717,12.3286742,2,,,,Legislator,"Lindenthal in Leipzig, Germany",,german_fires_lepzig_locations,15c472820ef828f7f88bcbb6c05912d1,german_fires_lepzig_locations__15c472820ef828f7f88bcbb6c05912d1
lossnig,"Lossnig in Leipzig, Germany",51.2975654,12.3964701,2,,,,News,"Lossnig in Leipzig, Germany",,german_fires_lepzig_locations,3c011ecdf3c291c98d08978058e5cb9d,german_fires_lepzig_locations__3c011ecdf3c291c98d08978058e5cb9d
lossnig,"Lossnig in Leipzig, Germany",51.2975654,12.3964701,2,,,,Shipping,"Lossnig in Leipzig, Germany",,german_fires_lepzig_locations,c7a2f264ec43bf56b77ec70b995dd89d,german_fires_lepzig_locations__c7a2f264ec43bf56b77ec70b995dd89d
lusitz,"Lusitz in Leipzig, Germany",51.3385738,12.3784615,2,,,,Legislator,"Lusitz in Leipzig, Germany",,german_fires_lepzig_locations,5965dbdd0fb492a2c6e04c795119c751,german_fires_lepzig_locations__5965dbdd0fb492a2c6e04c795119c751
lutzschena,"Lutzschena in Leipzig, Germany",51.3820013,12.2858938,2,,,,CompanyKeyword,"Lutzschena in Leipzig, Germany",,german_fires_lepzig_locations,83a9642dc32d1c978325d589b5cfe6e1,german_fires_lepzig_locations__83a9642dc32d1c978325d589b5cfe6e1
meusdorf,"Meusdorf in Leipzig, Germany",51.2894367,12.4349963,2,,,,Person,"Meusdorf in Leipzig, Germany",,german_fires_lepzig_locations,ffb1ad7af3d6b15c4748d3d630fbedf5,german_fires_lepzig_locations__ffb1ad7af3d6b15c4748d3d630fbedf5
meusdorf,"Meusdorf in Leipzig, Germany",51.2894367,12.4349963,2,,,,ForeignMinister,"Meusdorf in Leipzig, Germany",,german_fires_lepzig_locations,20803146ab249558701b921d19b55ab9,german_fires_lepzig_locations__20803146ab249558701b921d19b55ab9
mockau,"Mockau in Leipzig, Germany",51.3868977,12.4073537,2,,,,Keyphrase,"Mockau in Leipzig, Germany",,german_fires_lepzig_locations,8844c1e8cc358e5e34ffefd260c1ae61,german_fires_lepzig_locations__8844c1e8cc358e5e34ffefd260c1ae61
mockern,"Mockern in Leipzig, Germany",51.3696188,12.338092,2,,,,Exec,"Mockern in Leipzig, Germany",,german_fires_lepzig_locations,dae2f448452144e6c4837549d78d6c56,german_fires_lepzig_locations__dae2f448452144e6c4837549d78d6c56
mockern,"Mockern in Leipzig, Germany",51.3696188,12.338092,2,,,,CompanyKeyword,"Mockern in Leipzig, Germany",,german_fires_lepzig_locations,f64d9c492751fac4a3705b34410268fc,german_fires_lepzig_locations__f64d9c492751fac4a3705b34410268fc
molkau,"Molkau in Leipzig, Germany",51.3300829,12.440517,2,,,,Refinery,"Molkau in Leipzig, Germany",,german_fires_lepzig_locations,0dc49a995eb35bae368dfec8b5e75afd,german_fires_lepzig_locations__0dc49a995eb35bae368dfec8b5e75afd
neblitz,"Neblitz in Leipzig, Germany",51.4433278,12.4642484,2,,,,Legislator,"Neblitz in Leipzig, Germany",,german_fires_lepzig_locations,ac599c952c50daa2879c046927455ddc,german_fires_lepzig_locations__ac599c952c50daa2879c046927455ddc
neureudnitz,"Neureudnitz in Leipzig, Germany",51.3385738,12.3784615,2,,,,Refinery,"Neureudnitz in Leipzig, Germany",,german_fires_lepzig_locations,53afa2fc2766c410f1a5a9577849b914,german_fires_lepzig_locations__53afa2fc2766c410f1a5a9577849b914
neuscherbitz,"Neuscherbitz in Leipzig, Germany",51.3385738,12.3784615,2,,,,Refinery,"Neuscherbitz in Leipzig, Germany",,german_fires_lepzig_locations,2b9c554b0326b140dbcfefe9ca3e8c29,german_fires_lepzig_locations__2b9c554b0326b140dbcfefe9ca3e8c29
neusellerhausen,"Neusellerhausen in Leipzig, Germany",51.3385738,12.3784615,2,,,,ForeignMinistry,"Neusellerhausen in Leipzig, Germany",,german_fires_lepzig_locations,f23e2a5a6e550a62d0a11479b245c174,german_fires_lepzig_locations__f23e2a5a6e550a62d0a11479b245c174
neuschonefeld,"Neuschonefeld in Leipzig, Germany",51.3411346,12.3995831,2,,,,Exec,"Neuschonefeld in Leipzig, Germany",,german_fires_lepzig_locations,ca4b85ad73544a3485147127ca845a44,german_fires_lepzig_locations__ca4b85ad73544a3485147127ca845a44
neustadt,"Neustadt in Leipzig, Germany",51.3467535,12.4030344,2,,,,Keyphrase,"Neustadt in Leipzig, Germany",,german_fires_lepzig_locations,5ab35d996bfe5c234d9f761ce6f27f13,german_fires_lepzig_locations__5ab35d996bfe5c234d9f761ce6f27f13
neutzsch,"Neutzsch in Leipzig, Germany",51.3396955,12.3730747,2,,,,ForeignMinistry,"Neutzsch in Leipzig, Germany",,german_fires_lepzig_locations,ef8bb22d03a37bc188cf9688f8ff086d,german_fires_lepzig_locations__ef8bb22d03a37bc188cf9688f8ff086d
paunsdorf,"Paunsdorf in Leipzig, Germany",51.3539553,12.4660314,2,,,,LegislativeCommittee,"Paunsdorf in Leipzig, Germany",,german_fires_lepzig_locations,57d58cede7a83c24cc4d87d738dd35d3,german_fires_lepzig_locations__57d58cede7a83c24cc4d87d738dd35d3
paunsdorf,"Paunsdorf in Leipzig, Germany",51.3539553,12.4660314,2,,,,IndustryTerm,"Paunsdorf in Leipzig, Germany",,german_fires_lepzig_locations,d38d233398158151c1c94fdca49d47b9,german_fires_lepzig_locations__d38d233398158151c1c94fdca49d47b9
petzscher mark,"Petzscher Mark in Leipzig, Germany",51.3605799,12.3822408,2,,,,Wells,"Petzscher Mark in Leipzig, Germany",,german_fires_lepzig_locations,7dbc6591df73a01d89b0b341d2b3d634,german_fires_lepzig_locations__7dbc6591df73a01d89b0b341d2b3d634
pfaffendorf,"Pfaffendorf in Leipzig, Germany",51.3385738,12.3784615,2,,,,FTO,"Pfaffendorf in Leipzig, Germany",,german_fires_lepzig_locations,b97c733dee9cc03eb39235b6506b9854,german_fires_lepzig_locations__b97c733dee9cc03eb39235b6506b9854
plagwitz,"Plagwitz in Leipzig, Germany",51.3261051,12.3286031,2,,,,Wells,"Plagwitz in Leipzig, Germany",,german_fires_lepzig_locations,56f86226a8361c2384950e0547ede5e4,german_fires_lepzig_locations__56f86226a8361c2384950e0547ede5e4
plaussig,"Plaussig in Leipzig, Germany",51.3946945,12.4587283,2,,,,CompanyKeyword,"Plaussig in Leipzig, Germany",,german_fires_lepzig_locations,92c3dd9643a46a5804a5f10f828a5884,german_fires_lepzig_locations__92c3dd9643a46a5804a5f10f828a5884
plosen,"Plosen in Leipzig, Germany",38.8867076,-77.0326074,2,,,,Wells,"Plosen in Leipzig, Germany",,german_fires_lepzig_locations,74a18012aa44df0c68c3838ef1742cf3,german_fires_lepzig_locations__74a18012aa44df0c68c3838ef1742cf3
portitz,"Portitz in Leipzig, Germany",51.3946945,12.4587283,2,,,,FTO,"Portitz in Leipzig, Germany",,german_fires_lepzig_locations,201f8c146a91318d60b79143760d691b,german_fires_lepzig_locations__201f8c146a91318d60b79143760d691b
probstheida,"Probstheida in Leipzig, Germany",51.3047071,12.4290486,2,,,,Pipeline,"Probstheida in Leipzig, Germany",,german_fires_lepzig_locations,12f7439431388eccea5be53a3bf80ac7,german_fires_lepzig_locations__12f7439431388eccea5be53a3bf80ac7
quasnitz,"Quasnitz in Leipzig, Germany",51.3844654,12.2758876,2,,,,Organization,"Quasnitz in Leipzig, Germany",,german_fires_lepzig_locations,7707210e0f85fa3791fe21be1135c1c3,german_fires_lepzig_locations__7707210e0f85fa3791fe21be1135c1c3
rehbach,"Rehbach in Leipzig, Germany",51.2688972,12.2664275,2,,,,AAEntity,"Rehbach in Leipzig, Germany",,german_fires_lepzig_locations,e12e4ce3323d77f43035a5c9253cb072,german_fires_lepzig_locations__e12e4ce3323d77f43035a5c9253cb072
reudnitz,"Reudnitz in Leipzig, Germany",51.3327667,12.4031568,2,,,,Media,"Reudnitz in Leipzig, Germany",,german_fires_lepzig_locations,c03fc60a914bb74c839281769f93d396,german_fires_lepzig_locations__c03fc60a914bb74c839281769f93d396
rosental,"Rosental in Leipzig, Germany",51.3492999,12.3635452,2,,,,FTO,"Rosental in Leipzig, Germany",,german_fires_lepzig_locations,0b241fa81c638ee12e589e4fae901c09,german_fires_lepzig_locations__0b241fa81c638ee12e589e4fae901c09
ruckmarsdorf,"Ruckmarsdorf in Leipzig, Germany",51.3371414,12.274882,2,,,,Diplomat,"Ruckmarsdorf in Leipzig, Germany",,german_fires_lepzig_locations,e935b3be88afce1d85dff059663d00bd,german_fires_lepzig_locations__e935b3be88afce1d85dff059663d00bd
schleussig,"Schleussig in Leipzig, Germany",51.3187862,12.347325,2,,,,space,"Schleussig in Leipzig, Germany",,german_fires_lepzig_locations,83593c1b1e49e04b1d57f6f2fa63a501,german_fires_lepzig_locations__83593c1b1e49e04b1d57f6f2fa63a501
schonau,"Schonau in Leipzig, Germany",51.3298309,12.2936089,2,,,,Refinery,"Schonau in Leipzig, Germany",,german_fires_lepzig_locations,4b2ee80a3efe35584ced0899c752f16b,german_fires_lepzig_locations__4b2ee80a3efe35584ced0899c752f16b
schonefeld,"Schonefeld in Leipzig, Germany",51.3628098,12.4332571,2,,,,Person,"Schonefeld in Leipzig, Germany",,german_fires_lepzig_locations,80fd06d0204ed549f4f5c3bcea2c0cb5,german_fires_lepzig_locations__80fd06d0204ed549f4f5c3bcea2c0cb5
seehausen,"Seehausen in Leipzig, Germany",51.4061849,12.4186447,2,,,,Organization,"Seehausen in Leipzig, Germany",,german_fires_lepzig_locations,c181667ba779a6327f0caab6e8d024da,german_fires_lepzig_locations__c181667ba779a6327f0caab6e8d024da
sellerhausen,"Sellerhausen in Leipzig, Germany",51.3475751,12.4263725,2,,,,Keyphrase,"Sellerhausen in Leipzig, Germany",,german_fires_lepzig_locations,bc433f314cd78ce1b5671019f9c12c92,german_fires_lepzig_locations__bc433f314cd78ce1b5671019f9c12c92
sommerfeld,"Sommerfeld in Leipzig, Germany",51.3450915,12.4988022,2,,,,Organization,"Sommerfeld in Leipzig, Germany",,german_fires_lepzig_locations,a44d79fd3d324702d113552a363022e4,german_fires_lepzig_locations__a44d79fd3d324702d113552a363022e4
stahmeln,"Stahmeln in Leipzig, Germany",51.3820013,12.2858938,2,,,,Diplomat,"Stahmeln in Leipzig, Germany",,german_fires_lepzig_locations,097e5c909ab791962b296acfed68185a,german_fires_lepzig_locations__097e5c909ab791962b296acfed68185a
stotteritz,"Stotteritz in Leipzig, Germany",51.3214381,12.421917,2,,,,News,"Stotteritz in Leipzig, Germany",,german_fires_lepzig_locations,585478ef2b1076a7271942dfb97da032,german_fires_lepzig_locations__585478ef2b1076a7271942dfb97da032
stunz,"Stunz in Leipzig, Germany",51.3409901,12.4380989,2,,,,FTO,"Stunz in Leipzig, Germany",,german_fires_lepzig_locations,6beeec4b5bb8a5c3718b607a5e6ce93f,german_fires_lepzig_locations__6beeec4b5bb8a5c3718b607a5e6ce93f
thonberg,"Thonberg in Leipzig, Germany",51.3214857,12.4090863,2,,,,LegislativeCommittee,"Thonberg in Leipzig, Germany",,german_fires_lepzig_locations,f56d062c3f7611b4cd5d25455c57da21,german_fires_lepzig_locations__f56d062c3f7611b4cd5d25455c57da21
volkmarsdorf,"Volkmarsdorf in Leipzig, Germany",51.3454607,12.408881,2,,,,LegislativeCommittee,"Volkmarsdorf in Leipzig, Germany",,german_fires_lepzig_locations,c6288d8701aa59deb0a5cf8977bf0849,german_fires_lepzig_locations__c6288d8701aa59deb0a5cf8977bf0849
wahren,"Wahren in Leipzig, Germany",51.3759892,12.3168477,2,,,,Refinery,"Wahren in Leipzig, Germany",,german_fires_lepzig_locations,da39bbd207e300a5165da4c01d5d6944,german_fires_lepzig_locations__da39bbd207e300a5165da4c01d5d6944
windorf,"Windorf in Leipzig, Germany",51.2941841,12.3161443,2,,,,Consulates,"Windorf in Leipzig, Germany",,german_fires_lepzig_locations,0911b5d3ebfa219a913b65ccf1bde2fd,german_fires_lepzig_locations__0911b5d3ebfa219a913b65ccf1bde2fd
zuckelhausen,"Zuckelhausen in Leipzig, Germany",51.3016913,12.4570592,2,,,,Pipeline,"Zuckelhausen in Leipzig, Germany",,german_fires_lepzig_locations,4aa13e0946fe943e7e220e901fa92620,german_fires_lepzig_locations__4aa13e0946fe943e7e220e901fa92620
zweinaundorf,"Zweinaundorf in Leipzig, Germany",51.3234982,12.4522363,2,,,,IndustryTerm,"Zweinaundorf in Leipzig, Germany",,german_fires_lepzig_locations,bd37e0da946dbc7fe5f69137aa86225e,german_fires_lepzig_locations__bd37e0da946dbc7fe5f69137aa86225e
aachener strasse,"Aachener Strasse in Leipzig, Germany",51.3395235,12.3568627,1,,,,Refinery,"Aachener Strasse in Leipzig, Germany",,german_fires_lepzig_locations,2f0317288849aa2df48d818a89576d49,german_fires_lepzig_locations__2f0317288849aa2df48d818a89576d49
abrahamstrasse,"Abrahamstrasse in Leipzig, Germany",51.3357197,12.3060206,1,,,,Organization,"Abrahamstrasse in Leipzig, Germany",,german_fires_lepzig_locations,672fc8fc726aab207dc57b1d78d56acb,german_fires_lepzig_locations__672fc8fc726aab207dc57b1d78d56acb
abtnaundorfer strasse,"Abtnaundorfer Strasse in Leipzig, Germany",51.365831,12.4196092,1,,,,Organization,"Abtnaundorfer Strasse in Leipzig, Germany",,german_fires_lepzig_locations,8cd9362760c84ec6245098b33afa99d6,german_fires_lepzig_locations__8cd9362760c84ec6245098b33afa99d6
achatstrasse,"Achatstrasse in Leipzig, Germany",51.3395499,12.4810576,1,,,,CompanyKeyword,"Achatstrasse in Leipzig, Germany",,german_fires_lepzig_locations,d92933c16a84c29b26867ecfc46ce484,german_fires_lepzig_locations__d92933c16a84c29b26867ecfc46ce484
ackerweg,"Ackerweg in Leipzig, Germany",51.3818933,12.4717709,1,,,,Media,"Ackerweg in Leipzig, Germany",,german_fires_lepzig_locations,1edc032aa425f0593a3b33c010d89034,german_fires_lepzig_locations__1edc032aa425f0593a3b33c010d89034
adamsweg,"Adamsweg in Leipzig, Germany",51.303444,12.438327,1,,,,Organization,"Adamsweg in Leipzig, Germany",,german_fires_lepzig_locations,078ac85a8083010c9a2041cf46ac1d0a,german_fires_lepzig_locations__078ac85a8083010c9a2041cf46ac1d0a
addis-abeba-platz,"Addis-Abeba-Platz in Leipzig, Germany",51.3344345,12.3791648,1,,,,AAEntity,"Addis-Abeba-Platz in Leipzig, Germany",,german_fires_lepzig_locations,3b872691973d778310c1fd5f2ce0d236,german_fires_lepzig_locations__3b872691973d778310c1fd5f2ce0d236
adelgunde-gottsched-weg,"Adelgunde-Gottsched-Weg in Leipzig, Germany",51.3511541,12.4833855,1,,,,Wells,"Adelgunde-Gottsched-Weg in Leipzig, Germany",,german_fires_lepzig_locations,f084cbadcf21ce80882803b157e7e83a,german_fires_lepzig_locations__f084cbadcf21ce80882803b157e7e83a
adenauerallee,"Adenauerallee in Leipzig, Germany",51.350097,12.4096242,1,,,,AAEntity,"Adenauerallee in Leipzig, Germany",,german_fires_lepzig_locations,24e52ca1297aa4d40a77a7ad4a698be2,german_fires_lepzig_locations__24e52ca1297aa4d40a77a7ad4a698be2
adlershelmstrasse,"Adlershelmstrasse in Leipzig, Germany",51.3392132,12.4143137,1,,,,CompanyKeyword,"Adlershelmstrasse in Leipzig, Germany",,german_fires_lepzig_locations,b7aced701faa9f5009af14ced47c4aab,german_fires_lepzig_locations__b7aced701faa9f5009af14ced47c4aab
adolf-damaschke-strasse,"Adolf-Damaschke-Strasse in Leipzig, Germany",51.3371577,12.4791601,1,,,,IndustryTerm,"Adolf-Damaschke-Strasse in Leipzig, Germany",,german_fires_lepzig_locations,1605e17927a33217887716c9580a4590,german_fires_lepzig_locations__1605e17927a33217887716c9580a4590
adolf-koppe-strasse,"Adolf-Koppe-Strasse in Leipzig, Germany",51.3237546,12.4557969,1,,,,Organization,"Adolf-Koppe-Strasse in Leipzig, Germany",,german_fires_lepzig_locations,89bb7f5a18cedea5f995d6da1024565c,german_fires_lepzig_locations__89bb7f5a18cedea5f995d6da1024565c
adolph-menzel-strasse,"Adolph-Menzel-Strasse in Leipzig, Germany",51.3694779,12.3714065,1,,,,CompanyKeyword,"Adolph-Menzel-Strasse in Leipzig, Germany",,german_fires_lepzig_locations,e8e061ee187c298531ec498598908496,german_fires_lepzig_locations__e8e061ee187c298531ec498598908496
agnesstrasse,"Agnesstrasse in Leipzig, Germany",51.3715104,12.3300912,1,,,,Wells,"Agnesstrasse in Leipzig, Germany",,german_fires_lepzig_locations,27b67a3de2cdea26a6b5138c5cfde904,german_fires_lepzig_locations__27b67a3de2cdea26a6b5138c5cfde904
agricolastrasse,"Agricolastrasse in Leipzig, Germany",51.3148176,12.3440655,1,,,,IndustryTerm,"Agricolastrasse in Leipzig, Germany",,german_fires_lepzig_locations,591ebf33598e021fcae8d81b5553688c,german_fires_lepzig_locations__591ebf33598e021fcae8d81b5553688c
ahlfeldstrasse,"Ahlfeldstrasse in Leipzig, Germany",51.3418613,12.3213518,1,,,,Person,"Ahlfeldstrasse in Leipzig, Germany",,german_fires_lepzig_locations,0555021c78f9f7aabd94ef25aea708ca,german_fires_lepzig_locations__0555021c78f9f7aabd94ef25aea708ca
ahorngasse,"Ahorngasse in Leipzig, Germany",51.4212123,12.443598,1,,,,AAEntity,"Ahorngasse in Leipzig, Germany",,german_fires_lepzig_locations,7bffe780f3b419cb666f49db7abd562e,german_fires_lepzig_locations__7bffe780f3b419cb666f49db7abd562e
ahornstrasse,"Ahornstrasse in Leipzig, Germany",51.3547657,12.4618785,1,,,,space,"Ahornstrasse in Leipzig, Germany",,german_fires_lepzig_locations,dd132e54024da2cfa482c9209350b9c3,german_fires_lepzig_locations__dd132e54024da2cfa482c9209350b9c3
ahornweg,"Ahornweg in Leipzig, Germany",51.2873357,12.3652499,1,,,,ForeignMinister,"Ahornweg in Leipzig, Germany",,german_fires_lepzig_locations,81c0345c8a0b1dda01bc500451d26c1a,german_fires_lepzig_locations__81c0345c8a0b1dda01bc500451d26c1a
akazienweg,"Akazienweg in Leipzig, Germany",51.3882349,12.3738243,1,,,,IndustryTerm,"Akazienweg in Leipzig, Germany",,german_fires_lepzig_locations,1202d3ebad278e6a713aa601c0189fc6,german_fires_lepzig_locations__1202d3ebad278e6a713aa601c0189fc6
akeleiweg,"Akeleiweg in Leipzig, Germany",51.3375928,12.4953555,1,,,,Shipping,"Akeleiweg in Leipzig, Germany",,german_fires_lepzig_locations,c1fa6d8920a757553a53e7ee16adf833,german_fires_lepzig_locations__c1fa6d8920a757553a53e7ee16adf833
albersdorfer strasse,"Albersdorfer Strasse in Leipzig, Germany",51.2850664,12.3023075,1,,,,ForeignMinister,"Albersdorfer Strasse in Leipzig, Germany",,german_fires_lepzig_locations,9466bb0fc7d66abda015575bd73c942d,german_fires_lepzig_locations__9466bb0fc7d66abda015575bd73c942d
albersdorfer weg,"Albersdorfer Weg in Leipzig, Germany",51.2745592,12.2731882,1,,,,IndustryTerm,"Albersdorfer Weg in Leipzig, Germany",,german_fires_lepzig_locations,8b17f65f297044ccd278643c64d83e59,german_fires_lepzig_locations__8b17f65f297044ccd278643c64d83e59
albert-schweitzer-strasse,"Albert-Schweitzer-Strasse in Leipzig, Germany",51.3318532,12.4041257,1,,,,Keyphrase,"Albert-Schweitzer-Strasse in Leipzig, Germany",,german_fires_lepzig_locations,9a9b8c3cc64860b5651ed3f37282a000,german_fires_lepzig_locations__9a9b8c3cc64860b5651ed3f37282a000
albert-vollsack-strasse,"Albert-Vollsack-Strasse in Leipzig, Germany",51.3067199,12.32685,1,,,,Exec,"Albert-Vollsack-Strasse in Leipzig, Germany",,german_fires_lepzig_locations,61b4dd18ff070b8baadf22aa022892ee,german_fires_lepzig_locations__61b4dd18ff070b8baadf22aa022892ee
albrecht-durer-platz,"Albrecht-Durer-Platz in Leipzig, Germany",51.3236834,12.3777277,1,,,,CompanyKeyword,"Albrecht-Durer-Platz in Leipzig, Germany",,german_fires_lepzig_locations,fbeaa3c56440b7579080c0a2642d984a,german_fires_lepzig_locations__fbeaa3c56440b7579080c0a2642d984a
albrecht-durer-weg,"Albrecht-Durer-Weg in Leipzig, Germany",51.3486017,12.4626148,1,,,,CompanyKeyword,"Albrecht-Durer-Weg in Leipzig, Germany",,german_fires_lepzig_locations,9e7e8fd7e4c3799c5cf92dd16aae63a7,german_fires_lepzig_locations__9e7e8fd7e4c3799c5cf92dd16aae63a7
albrechtshainer strasse,"Albrechtshainer Strasse in Leipzig, Germany",51.3237938,12.4440423,1,,,,Person,"Albrechtshainer Strasse in Leipzig, Germany",,german_fires_lepzig_locations,00575549e6f88e510cd3dd3cf61d7d9d,german_fires_lepzig_locations__00575549e6f88e510cd3dd3cf61d7d9d
alemannenweg,"Alemannenweg in Leipzig, Germany",51.3770203,12.339182,1,,,,ForeignMinistry,"Alemannenweg in Leipzig, Germany",,german_fires_lepzig_locations,4c73aaf6d7f6c56808807174b63f9523,german_fires_lepzig_locations__4c73aaf6d7f6c56808807174b63f9523
alexander-alesius-strasse,"Alexander-Alesius-Strasse in Leipzig, Germany",51.324813,12.4505173,1,,,,CompanyKeyword,"Alexander-Alesius-Strasse in Leipzig, Germany",,german_fires_lepzig_locations,6737fe45fbd8e600abb5e2f6c296a695,german_fires_lepzig_locations__6737fe45fbd8e600abb5e2f6c296a695
alexanderstrasse,"Alexanderstrasse in Leipzig, Germany",51.339961,12.3627107,1,,,,Person,"Alexanderstrasse in Leipzig, Germany",,german_fires_lepzig_locations,06db11d98fab698af66df087e38caa2f,german_fires_lepzig_locations__06db11d98fab698af66df087e38caa2f
alexis-schumann-platz,"Alexis-Schumann-Platz in Leipzig, Germany",51.3191963,12.37448,1,,,,CompanyKeyword,"Alexis-Schumann-Platz in Leipzig, Germany",,german_fires_lepzig_locations,d4cdf7246f7e096e915aeee38d16a193,german_fires_lepzig_locations__d4cdf7246f7e096e915aeee38d16a193
alfred-frank-platz,"Alfred-Frank-Platz in Leipzig, Germany",51.3307346,12.4100875,1,,,,Person,"Alfred-Frank-Platz in Leipzig, Germany",,german_fires_lepzig_locations,b15b318abc50f7845991ccce58d10302,german_fires_lepzig_locations__b15b318abc50f7845991ccce58d10302
alfred-frank-strasse,"Alfred-Frank-Strasse in Leipzig, Germany",51.325777,12.3434296,1,,,,Person,"Alfred-Frank-Strasse in Leipzig, Germany",,german_fires_lepzig_locations,5917723dd2547234d982e5e6143773f4,german_fires_lepzig_locations__5917723dd2547234d982e5e6143773f4
alfred-kastner-strasse,"Alfred-Kastner-Strasse in Leipzig, Germany",51.322084,12.3736208,1,,,,Organization,"Alfred-Kastner-Strasse in Leipzig, Germany",,german_fires_lepzig_locations,a4a2a753333de3f95b291cab849988aa,german_fires_lepzig_locations__a4a2a753333de3f95b291cab849988aa
alfred-schurig-strasse,"Alfred-Schurig-Strasse in Leipzig, Germany",51.3503003,12.4295191,1,,,,ForeignMinistry,"Alfred-Schurig-Strasse in Leipzig, Germany",,german_fires_lepzig_locations,11ed9db1edd45be580a4228f1f9fb1ed,german_fires_lepzig_locations__11ed9db1edd45be580a4228f1f9fb1ed
altdorferweg,"Altdorferweg in Leipzig, Germany",51.2850893,12.4424456,1,,,,Shipping,"Altdorferweg in Leipzig, Germany",,german_fires_lepzig_locations,b85739aa63bfebcab80153c73524cfb4,german_fires_lepzig_locations__b85739aa63bfebcab80153c73524cfb4
alte baumschule,"Alte Baumschule in Leipzig, Germany",51.2754768,12.478833,1,,,,Consulates,"Alte Baumschule in Leipzig, Germany",,german_fires_lepzig_locations,2847a9f8b4dbd2633e03d9510432eb7f,german_fires_lepzig_locations__2847a9f8b4dbd2633e03d9510432eb7f
alte burghausener strasse,"Alte Burghausener Strasse in Leipzig, Germany",51.3223879,12.2617359,1,,,,ForeignMinister,"Alte Burghausener Strasse in Leipzig, Germany",,german_fires_lepzig_locations,c5e407201c1daf0c623696dfedfbf5eb,german_fires_lepzig_locations__c5e407201c1daf0c623696dfedfbf5eb
alte dorfstrasse,"Alte Dorfstrasse in Leipzig, Germany",51.3441432,12.257292,1,,,,Consulates,"Alte Dorfstrasse in Leipzig, Germany",,german_fires_lepzig_locations,db64cc9528d1d5b3139029d82d0123e0,german_fires_lepzig_locations__db64cc9528d1d5b3139029d82d0123e0
alte dubener landstrasse,"Alte Dubener Landstrasse in Leipzig, Germany",51.4023963,12.3921958,1,,,,IndustryTerm,"Alte Dubener Landstrasse in Leipzig, Germany",,german_fires_lepzig_locations,45e5e556d4d1796c934fc23a96b7f987,german_fires_lepzig_locations__45e5e556d4d1796c934fc23a96b7f987
alte gartnerei,"Alte Gartnerei in Leipzig, Germany",51.2795449,12.4676316,1,,,,CompanyKeyword,"Alte Gartnerei in Leipzig, Germany",,german_fires_lepzig_locations,860a62c2821ca1cc094978662d18819d,german_fires_lepzig_locations__860a62c2821ca1cc094978662d18819d
alte hohe strasse,"Alte Hohe Strasse in Leipzig, Germany",51.3844602,12.4224121,1,,,,AAEntity,"Alte Hohe Strasse in Leipzig, Germany",,german_fires_lepzig_locations,6fa97921f5161499ffa02c9e41c26ce1,german_fires_lepzig_locations__6fa97921f5161499ffa02c9e41c26ce1
alte holzhausener strasse,"Alte Holzhausener Strasse in Leipzig, Germany",51.2846697,12.4665506,1,,,,Legislator,"Alte Holzhausener Strasse in Leipzig, Germany",,german_fires_lepzig_locations,91e2af71f616dbe7f4780e9030a12779,german_fires_lepzig_locations__91e2af71f616dbe7f4780e9030a12779
alte landsberger strasse,"Alte Landsberger Strasse in Leipzig, Germany",51.3208444,12.398013,1,,,,Legislator,"Alte Landsberger Strasse in Leipzig, Germany",,german_fires_lepzig_locations,51ebfe6c7bda8a2ad5c83b16c11892d3,german_fires_lepzig_locations__51ebfe6c7bda8a2ad5c83b16c11892d3
alte messe,"Alte Messe in Leipzig, Germany",51.3181072,12.4029049,1,,,,space,"Alte Messe in Leipzig, Germany",,german_fires_lepzig_locations,6ae5bc5edafc30fa921805b493eb04a3,german_fires_lepzig_locations__6ae5bc5edafc30fa921805b493eb04a3
alte parkstrasse,"Alte Parkstrasse in Leipzig, Germany",51.340755,12.3783706,1,,,,Keyphrase,"Alte Parkstrasse in Leipzig, Germany",,german_fires_lepzig_locations,fc2ede3a1d98b52f4c619bc9a87e59ef,german_fires_lepzig_locations__fc2ede3a1d98b52f4c619bc9a87e59ef
alte salzstrasse,"Alte Salzstrasse in Leipzig, Germany",51.3165468,12.286951,1,,,,Shipping,"Alte Salzstrasse in Leipzig, Germany",,german_fires_lepzig_locations,307e489c66906038a582c04c6c874abe,german_fires_lepzig_locations__307e489c66906038a582c04c6c874abe
alte schmiede,"Alte Schmiede in Leipzig, Germany",51.3417314,12.2522847,1,,,,Shipping,"Alte Schmiede in Leipzig, Germany",,german_fires_lepzig_locations,64d4514d3f3ced1938a9e4a3f7b4a3cf,german_fires_lepzig_locations__64d4514d3f3ced1938a9e4a3f7b4a3cf
alte seehausener strasse,"Alte Seehausener Strasse in Leipzig, Germany",51.415838,12.4393503,1,,,,Exec,"Alte Seehausener Strasse in Leipzig, Germany",,german_fires_lepzig_locations,ca9d1e694e41061f10c6e5cebcfd4c8a,german_fires_lepzig_locations__ca9d1e694e41061f10c6e5cebcfd4c8a
alte strasse,"Alte Strasse in Leipzig, Germany",51.3301821,12.3408534,1,,,,AAEntity,"Alte Strasse in Leipzig, Germany",,german_fires_lepzig_locations,ec20b6755a0187bd17ec7817355edb5d,german_fires_lepzig_locations__ec20b6755a0187bd17ec7817355edb5d
alte tauchaer strasse,"Alte Tauchaer Strasse in Leipzig, Germany",51.2882968,12.4606369,1,,,,Exec,"Alte Tauchaer Strasse in Leipzig, Germany",,german_fires_lepzig_locations,a751ae8d9aa287ee986a54e23038c667,german_fires_lepzig_locations__a751ae8d9aa287ee986a54e23038c667
alte theklaer strasse,"Alte Theklaer Strasse in Leipzig, Germany",51.3904428,12.4484109,1,,,,Exec,"Alte Theklaer Strasse in Leipzig, Germany",,german_fires_lepzig_locations,47250e03a78261da3743e2d3f799f4fc,german_fires_lepzig_locations__47250e03a78261da3743e2d3f799f4fc
altenburger strasse,"Altenburger Strasse in Leipzig, Germany",51.3175367,12.3828254,1,,,,CompanyKeyword,"Altenburger Strasse in Leipzig, Germany",,german_fires_lepzig_locations,75fb85f3fa51eef746a62fc5d4e141a8,german_fires_lepzig_locations__75fb85f3fa51eef746a62fc5d4e141a8
alter amtshof,"Alter Amtshof in Leipzig, Germany",51.3373499,12.3702838,1,,,,AAEntity,"Alter Amtshof in Leipzig, Germany",,german_fires_lepzig_locations,2162f57b91d2a08b2f784df19a890228,german_fires_lepzig_locations__2162f57b91d2a08b2f784df19a890228
alter kirchweg,"Alter Kirchweg in Leipzig, Germany",51.3769519,12.3055163,1,,,,News,"Alter Kirchweg in Leipzig, Germany",,german_fires_lepzig_locations,c7c0cbecc5768a4cbaaffb18aa71855b,german_fires_lepzig_locations__c7c0cbecc5768a4cbaaffb18aa71855b
alter marktweg,"Alter Marktweg in Leipzig, Germany",51.3450896,12.4807651,1,,,,FTO,"Alter Marktweg in Leipzig, Germany",,german_fires_lepzig_locations,bb60e97167de1a4f2185b046b012d4aa,german_fires_lepzig_locations__bb60e97167de1a4f2185b046b012d4aa
altes dorf,"Altes Dorf in Leipzig, Germany",51.3867481,12.4514438,1,,,,Refinery,"Altes Dorf in Leipzig, Germany",,german_fires_lepzig_locations,3c26496ad39a45d9bdd8029f5bac837a,german_fires_lepzig_locations__3c26496ad39a45d9bdd8029f5bac837a
althener anger,"Althener Anger in Leipzig, Germany",51.3386604,12.5162131,1,,,,Wells,"Althener Anger in Leipzig, Germany",,german_fires_lepzig_locations,b1cc7238b95fc176d6ceb1e322afb230,german_fires_lepzig_locations__b1cc7238b95fc176d6ceb1e322afb230
althener strasse,"Althener Strasse in Leipzig, Germany",51.3356896,12.4955699,1,,,,DiplomaticFacilities,"Althener Strasse in Leipzig, Germany",,german_fires_lepzig_locations,4574e827d36ae7387741f93da94951bc,german_fires_lepzig_locations__4574e827d36ae7387741f93da94951bc
altranstadter strasse,"Altranstadter Strasse in Leipzig, Germany",51.3186376,12.331443,1,,,,Consulates,"Altranstadter Strasse in Leipzig, Germany",,german_fires_lepzig_locations,7476652b1f28b7d5ff0d6d0981a8cedd,german_fires_lepzig_locations__7476652b1f28b7d5ff0d6d0981a8cedd
am alten bahnhof,"Am Alten Bahnhof in Leipzig, Germany",51.3029247,12.2633122,1,,,,Organization,"Am Alten Bahnhof in Leipzig, Germany",,german_fires_lepzig_locations,77b41825008927392e87ac31746cb92f,german_fires_lepzig_locations__77b41825008927392e87ac31746cb92f
am alten flugfeld,"Am Alten Flugfeld in Leipzig, Germany",51.3901433,12.3328246,1,,,,Refinery,"Am Alten Flugfeld in Leipzig, Germany",,german_fires_lepzig_locations,4f0938485a4ce465abea0edb5125e412,german_fires_lepzig_locations__4f0938485a4ce465abea0edb5125e412
am alten flughafen,"Am alten Flughafen in Leipzig, Germany",51.390996,12.3973237,1,,,,Exec,"Am alten Flughafen in Leipzig, Germany",,german_fires_lepzig_locations,97d75d4f393bfbc7b165d087ef7bf362,german_fires_lepzig_locations__97d75d4f393bfbc7b165d087ef7bf362
am alten gasthof,"Am alten Gasthof in Leipzig, Germany",51.3722517,12.3216662,1,,,,Consulates,"Am alten Gasthof in Leipzig, Germany",,german_fires_lepzig_locations,eadb324af6bc4539875018dd509e364d,german_fires_lepzig_locations__eadb324af6bc4539875018dd509e364d
am alten muhlgraben,"Am Alten Muhlgraben in Leipzig, Germany",51.3614384,12.2899492,1,,,,Wells,"Am Alten Muhlgraben in Leipzig, Germany",,german_fires_lepzig_locations,41d50fd6cefa4e998e4fed8fdfe5f254,german_fires_lepzig_locations__41d50fd6cefa4e998e4fed8fdfe5f254
am anger,"Am Anger in Leipzig, Germany",51.4207097,12.4494334,1,,,,IndustryTerm,"Am Anger in Leipzig, Germany",,german_fires_lepzig_locations,a1b24f78f0e6ac7a14d74c82b874ebb3,german_fires_lepzig_locations__a1b24f78f0e6ac7a14d74c82b874ebb3
am angerteich,"Am Angerteich in Leipzig, Germany",51.2839159,12.4589922,1,,,,Media,"Am Angerteich in Leipzig, Germany",,german_fires_lepzig_locations,a2f0b46b6c7ad164596922ac1f21e555,german_fires_lepzig_locations__a2f0b46b6c7ad164596922ac1f21e555
am bahndamm,"Am Bahndamm in Leipzig, Germany",51.334492,12.4572892,1,,,,Person,"Am Bahndamm in Leipzig, Germany",,german_fires_lepzig_locations,7485fcebf99c0438d0eddf8c7c055a67,german_fires_lepzig_locations__7485fcebf99c0438d0eddf8c7c055a67
am bahngraben,"Am Bahngraben in Leipzig, Germany",51.3812181,12.2967375,1,,,,Wells,"Am Bahngraben in Leipzig, Germany",,german_fires_lepzig_locations,25c8acfacb9750f724ce18924348848b,german_fires_lepzig_locations__25c8acfacb9750f724ce18924348848b
am bahnhof,"Am Bahnhof in Leipzig, Germany",51.2656486,12.4851455,1,,,,Diplomat,"Am Bahnhof in Leipzig, Germany",,german_fires_lepzig_locations,ec404be6708433f1e8f3c83f01e62239,german_fires_lepzig_locations__ec404be6708433f1e8f3c83f01e62239
am barnecker gut,"Am Barnecker Gut in Leipzig, Germany",51.3536077,12.3014514,1,,,,DiplomaticFacilities,"Am Barnecker Gut in Leipzig, Germany",,german_fires_lepzig_locations,9bf8cdae00e5a97e7fbf96e7ecebab32,german_fires_lepzig_locations__9bf8cdae00e5a97e7fbf96e7ecebab32
am bauernsteg,"Am Bauernsteg in Leipzig, Germany",51.3807872,12.2794244,1,,,,Consulates,"Am Bauernsteg in Leipzig, Germany",,german_fires_lepzig_locations,7939ca2675082c94beada0e4c8c92029,german_fires_lepzig_locations__7939ca2675082c94beada0e4c8c92029
am bauernteich,"Am Bauernteich in Leipzig, Germany",51.3465928,12.4478495,1,,,,Person,"Am Bauernteich in Leipzig, Germany",,german_fires_lepzig_locations,f4596e91666a1abd27aec765fe32185f,german_fires_lepzig_locations__f4596e91666a1abd27aec765fe32185f
am bildersaal,"Am Bildersaal in Leipzig, Germany",51.3821538,12.2825071,1,,,,ForeignMinister,"Am Bildersaal in Leipzig, Germany",,german_fires_lepzig_locations,799c002206f45d174f08575bec29d065,german_fires_lepzig_locations__799c002206f45d174f08575bec29d065
am bischofsholz,"Am Bischofsholz in Leipzig, Germany",51.2763826,12.4770443,1,,,,AAEntity,"Am Bischofsholz in Leipzig, Germany",,german_fires_lepzig_locations,eaac90ea37005bdedfe48dca2077c2d6,german_fires_lepzig_locations__eaac90ea37005bdedfe48dca2077c2d6
am bogen,"Am Bogen in Leipzig, Germany",51.309664,12.4004329,1,,,,Shipping,"Am Bogen in Leipzig, Germany",,german_fires_lepzig_locations,c8425372f11c9fed3b0d76fd7d4c1739,german_fires_lepzig_locations__c8425372f11c9fed3b0d76fd7d4c1739
am bornchen,"Am Bornchen in Leipzig, Germany",51.379979,12.3153303,1,,,,Organization,"Am Bornchen in Leipzig, Germany",,german_fires_lepzig_locations,cea68b271d50b12c5ba2bb9618cfd996,german_fires_lepzig_locations__cea68b271d50b12c5ba2bb9618cfd996
am brunnen,"Am Brunnen in Leipzig, Germany",51.382836,12.2724154,1,,,,Pipeline,"Am Brunnen in Leipzig, Germany",,german_fires_lepzig_locations,d48054a1ee0107253afeff7b18f1eb9c,german_fires_lepzig_locations__d48054a1ee0107253afeff7b18f1eb9c
am doppeladler,"Am Doppeladler in Leipzig, Germany",51.3050987,12.4687289,1,,,,IndustryTerm,"Am Doppeladler in Leipzig, Germany",,german_fires_lepzig_locations,60e0fbcc06a766dab60990a0ff3adcc1,german_fires_lepzig_locations__60e0fbcc06a766dab60990a0ff3adcc1
am dorfplatz,"Am Dorfplatz in Leipzig, Germany",51.3568079,12.265504,1,,,,Consulates,"Am Dorfplatz in Leipzig, Germany",,german_fires_lepzig_locations,0410b8448ffc3c9fd7a24af421485e1f,german_fires_lepzig_locations__0410b8448ffc3c9fd7a24af421485e1f
am dorfteich,"Am Dorfteich in Leipzig, Germany",51.3089302,12.5134048,1,,,,IndustryTerm,"Am Dorfteich in Leipzig, Germany",,german_fires_lepzig_locations,12f97e6f43da5dcd3d5e3d01d3e122a8,german_fires_lepzig_locations__12f97e6f43da5dcd3d5e3d01d3e122a8
am eichberg,"Am Eichberg in Leipzig, Germany",51.3746038,12.4496203,1,,,,space,"Am Eichberg in Leipzig, Germany",,german_fires_lepzig_locations,11fa5ac69c328c759e8db6f110512c43,german_fires_lepzig_locations__11fa5ac69c328c759e8db6f110512c43
am eichenbogen,"Am Eichenbogen in Leipzig, Germany",51.2876805,12.366395,1,,,,Media,"Am Eichenbogen in Leipzig, Germany",,german_fires_lepzig_locations,ec978af8e8b665842074f2324e5c2ad8,german_fires_lepzig_locations__ec978af8e8b665842074f2324e5c2ad8
am eichwinkel,"Am Eichwinkel in Leipzig, Germany",51.2831044,12.3978583,1,,,,FTO,"Am Eichwinkel in Leipzig, Germany",,german_fires_lepzig_locations,b80ba8d0de2a53dd6cc07ed185487bad,german_fires_lepzig_locations__b80ba8d0de2a53dd6cc07ed185487bad
am elsterbogen,"Am Elsterbogen in Leipzig, Germany",51.2664898,12.3106329,1,,,,Pipeline,"Am Elsterbogen in Leipzig, Germany",,german_fires_lepzig_locations,d951b48ec4a57deadff7887503ea662f,german_fires_lepzig_locations__d951b48ec4a57deadff7887503ea662f
am elsterwehr,"Am Elsterwehr in Leipzig, Germany",51.3353468,12.3507981,1,,,,Shipping,"Am Elsterwehr in Leipzig, Germany",,german_fires_lepzig_locations,52d034beb6d438f53b2c84222345054f,german_fires_lepzig_locations__52d034beb6d438f53b2c84222345054f
am eselshaus,"Am Eselshaus in Leipzig, Germany",51.3794013,12.3025528,1,,,,Organization,"Am Eselshaus in Leipzig, Germany",,german_fires_lepzig_locations,8c0efefa5c48c5a24de991f08eefe480,german_fires_lepzig_locations__8c0efefa5c48c5a24de991f08eefe480
am eulengraben,"Am Eulengraben in Leipzig, Germany",51.2728231,12.4829687,1,,,,News,"Am Eulengraben in Leipzig, Germany",,german_fires_lepzig_locations,32642c0818efb9d7cbf382237bb0bc23,german_fires_lepzig_locations__32642c0818efb9d7cbf382237bb0bc23
am exer,"Am Exer in Leipzig, Germany",51.3933533,12.2996995,1,,,,space,"Am Exer in Leipzig, Germany",,german_fires_lepzig_locations,e7aa1d416af9bca5b121862ace063753,german_fires_lepzig_locations__e7aa1d416af9bca5b121862ace063753
am exerzierplatz,"Am Exerzierplatz in Leipzig, Germany",51.4071687,12.3077876,1,,,,Keyphrase,"Am Exerzierplatz in Leipzig, Germany",,german_fires_lepzig_locations,cdf5e34b3f627bbd3469457c8393ba5b,german_fires_lepzig_locations__cdf5e34b3f627bbd3469457c8393ba5b
am feld,"Am Feld in Leipzig, Germany",51.4219784,12.4427802,1,,,,IndustryTerm,"Am Feld in Leipzig, Germany",,german_fires_lepzig_locations,7a342fe76570cef49c3548bd75b8a307,german_fires_lepzig_locations__7a342fe76570cef49c3548bd75b8a307
am feldrain,"Am Feldrain in Leipzig, Germany",51.3107093,12.5152268,1,,,,space,"Am Feldrain in Leipzig, Germany",,german_fires_lepzig_locations,e443487b2cbd7dec9f61b932bdf13e62,german_fires_lepzig_locations__e443487b2cbd7dec9f61b932bdf13e62
am fischerhaus,"Am Fischerhaus in Leipzig, Germany",51.3770481,12.309141,1,,,,IndustryTerm,"Am Fischerhaus in Leipzig, Germany",,german_fires_lepzig_locations,c8ec240886418fdf75592f91c115873a,german_fires_lepzig_locations__c8ec240886418fdf75592f91c115873a
am flossgen,"Am Flossgen in Leipzig, Germany",51.3550533,12.2681946,1,,,,Person,"Am Flossgen in Leipzig, Germany",,german_fires_lepzig_locations,2c81a2505b3bec1ab8a4cdce42cd1e36,german_fires_lepzig_locations__2c81a2505b3bec1ab8a4cdce42cd1e36
am flugelrad,"Am Flugelrad in Leipzig, Germany",51.3666318,12.3928716,1,,,,Shipping,"Am Flugelrad in Leipzig, Germany",,german_fires_lepzig_locations,abf8e8d98fb895750ee42b693d9cb696,german_fires_lepzig_locations__abf8e8d98fb895750ee42b693d9cb696
am freibad,"Am Freibad in Leipzig, Germany",51.3931328,12.3285579,1,,,,IndustryTerm,"Am Freibad in Leipzig, Germany",,german_fires_lepzig_locations,46da330cdf8062f922fdcfcfa96b824e,german_fires_lepzig_locations__46da330cdf8062f922fdcfcfa96b824e
am fuchsbau,"Am Fuchsbau in Leipzig, Germany",51.2892722,12.3644858,1,,,,Consulates,"Am Fuchsbau in Leipzig, Germany",,german_fires_lepzig_locations,c7e71c46466688895fd0bc9bcdea516e,german_fires_lepzig_locations__c7e71c46466688895fd0bc9bcdea516e
am ganseanger,"Am Ganseanger in Leipzig, Germany",51.2856721,12.4628234,1,,,,space,"Am Ganseanger in Leipzig, Germany",,german_fires_lepzig_locations,0649ff4d7b470edb264ef23984405837,german_fires_lepzig_locations__0649ff4d7b470edb264ef23984405837
am gartenverein,"Am Gartenverein in Leipzig, Germany",51.3466509,12.3161222,1,,,,Wells,"Am Gartenverein in Leipzig, Germany",,german_fires_lepzig_locations,2c1109a469c532d208047a4b68d6ee88,german_fires_lepzig_locations__2c1109a469c532d208047a4b68d6ee88
am geleinholz,"Am Geleinholz in Leipzig, Germany",51.2932322,12.4198647,1,,,,Wells,"Am Geleinholz in Leipzig, Germany",,german_fires_lepzig_locations,cb3233388c2c0007bba92d4b28bd6f86,german_fires_lepzig_locations__cb3233388c2c0007bba92d4b28bd6f86
am gothischen bad,"Am Gothischen Bad in Leipzig, Germany",51.351389,12.3929862,1,,,,ForeignMinistry,"Am Gothischen Bad in Leipzig, Germany",,german_fires_lepzig_locations,393d3c16da02cc6063f2bc78d544f8b5,german_fires_lepzig_locations__393d3c16da02cc6063f2bc78d544f8b5
am grund,"Am Grund in Leipzig, Germany",51.3077625,12.2634247,1,,,,ForeignMinister,"Am Grund in Leipzig, Germany",,german_fires_lepzig_locations,ab705352e60326b1325df903cbca9784,german_fires_lepzig_locations__ab705352e60326b1325df903cbca9784
am gundorfer teich,"Am Gundorfer Teich in Leipzig, Germany",51.3624549,12.2665532,1,,,,Exec,"Am Gundorfer Teich in Leipzig, Germany",,german_fires_lepzig_locations,927b4fd9a477c3d29c37a3c4caeb45d6,german_fires_lepzig_locations__927b4fd9a477c3d29c37a3c4caeb45d6
am guterring,"Am Guterring in Leipzig, Germany",51.3317575,12.418621,1,,,,Shipping,"Am Guterring in Leipzig, Germany",,german_fires_lepzig_locations,12e4efe53e4f80c11d17290c16d5aff6,german_fires_lepzig_locations__12e4efe53e4f80c11d17290c16d5aff6
am gutspark,"Am Gutspark in Leipzig, Germany",51.3246744,12.4578568,1,,,,Refinery,"Am Gutspark in Leipzig, Germany",,german_fires_lepzig_locations,c01a68b1efdf800a5049c71b85805a48,german_fires_lepzig_locations__c01a68b1efdf800a5049c71b85805a48
am hallischen tor,"Am Hallischen Tor in Leipzig, Germany",51.343887,12.3769452,1,,,,Pipeline,"Am Hallischen Tor in Leipzig, Germany",,german_fires_lepzig_locations,c51cc02c065f54f10f823a4e48f0ae38,german_fires_lepzig_locations__c51cc02c065f54f10f823a4e48f0ae38
am hasenberg,"Am Hasenberg in Leipzig, Germany",51.3218946,12.4441153,1,,,,Pipeline,"Am Hasenberg in Leipzig, Germany",,german_fires_lepzig_locations,fa5cb54e60f2fa2160b3660902d6eb28,german_fires_lepzig_locations__fa5cb54e60f2fa2160b3660902d6eb28
am hasengraben,"Am Hasengraben in Leipzig, Germany",51.4211013,12.482466,1,,,,ForeignMinistry,"Am Hasengraben in Leipzig, Germany",,german_fires_lepzig_locations,71c7b92e800a368572c084f0aaacab58,german_fires_lepzig_locations__71c7b92e800a368572c084f0aaacab58
am hegeanger,"Am Hegeanger in Leipzig, Germany",51.2993995,12.2600481,1,,,,Wells,"Am Hegeanger in Leipzig, Germany",,german_fires_lepzig_locations,ca07ddf03e906456e1ea6b88fd0f075d,german_fires_lepzig_locations__ca07ddf03e906456e1ea6b88fd0f075d
am hirtenhaus,"Am Hirtenhaus in Leipzig, Germany",51.3724727,12.322755,1,,,,Media,"Am Hirtenhaus in Leipzig, Germany",,german_fires_lepzig_locations,1280cea006286125185dae01962a2ad6,german_fires_lepzig_locations__1280cea006286125185dae01962a2ad6
am hohen graben,"Am Hohen Graben in Leipzig, Germany",51.3253531,12.4766461,1,,,,DiplomaticFacilities,"Am Hohen Graben in Leipzig, Germany",,german_fires_lepzig_locations,1be6b366e9add8927184cbcab9e7031e,german_fires_lepzig_locations__1be6b366e9add8927184cbcab9e7031e
am hohlweg,"Am Hohlweg in Leipzig, Germany",51.3810087,12.3052092,1,,,,Person,"Am Hohlweg in Leipzig, Germany",,german_fires_lepzig_locations,7df1ac15bbb2204f3d41d2caa427025b,german_fires_lepzig_locations__7df1ac15bbb2204f3d41d2caa427025b
am hufeisen,"Am Hufeisen in Leipzig, Germany",51.3462871,12.270985,1,,,,Keyphrase,"Am Hufeisen in Leipzig, Germany",,german_fires_lepzig_locations,3d04fc4c37181fd75b7df8693bce9132,german_fires_lepzig_locations__3d04fc4c37181fd75b7df8693bce9132
am jagerhaus,"Am Jagerhaus in Leipzig, Germany",51.3959026,12.2905137,1,,,,AAEntity,"Am Jagerhaus in Leipzig, Germany",,german_fires_lepzig_locations,50685727bb8d72ba110404931e5ddf91,german_fires_lepzig_locations__50685727bb8d72ba110404931e5ddf91
am kanal,"Am Kanal in Leipzig, Germany",51.3278522,12.317099,1,,,,Consulates,"Am Kanal in Leipzig, Germany",,german_fires_lepzig_locations,56677aec80da71498de81c1c180aa9ae,german_fires_lepzig_locations__56677aec80da71498de81c1c180aa9ae
am kellerberg,"Am Kellerberg in Leipzig, Germany",51.3951997,12.4559817,1,,,,space,"Am Kellerberg in Leipzig, Germany",,german_fires_lepzig_locations,40bb29ea65303aabca8eab75679e9124,german_fires_lepzig_locations__40bb29ea65303aabca8eab75679e9124
am keulenberg,"Am Keulenberg in Leipzig, Germany",51.3860864,12.4412984,1,,,,FTO,"Am Keulenberg in Leipzig, Germany",,german_fires_lepzig_locations,0de882582f3bb7fc89010f2a9781c067,german_fires_lepzig_locations__0de882582f3bb7fc89010f2a9781c067
am kirschberg,"Am Kirschberg in Leipzig, Germany",51.3192841,12.2813189,1,,,,Diplomat,"Am Kirschberg in Leipzig, Germany",,german_fires_lepzig_locations,1b5c28783629b80e901a3d73ecdb9677,german_fires_lepzig_locations__1b5c28783629b80e901a3d73ecdb9677
am kleinen feld,"Am kleinen Feld in Leipzig, Germany",51.3183358,12.2631065,1,,,,CompanyKeyword,"Am kleinen Feld in Leipzig, Germany",,german_fires_lepzig_locations,e9700feb1d887aa8ac262e799eac4950,german_fires_lepzig_locations__e9700feb1d887aa8ac262e799eac4950
am klerfeld,"Am Klerfeld in Leipzig, Germany",49.5183789,17.340771,1,,,,Consulates,"Am Klerfeld in Leipzig, Germany",,german_fires_lepzig_locations,a1d328668eb089a8769facf6a52b23a0,german_fires_lepzig_locations__a1d328668eb089a8769facf6a52b23a0
am klucksgraben,"Am Klucksgraben in Leipzig, Germany",51.2675961,12.294799,1,,,,space,"Am Klucksgraben in Leipzig, Germany",,german_fires_lepzig_locations,3f75637b6231d5b52c5cd30de35bd0d6,german_fires_lepzig_locations__3f75637b6231d5b52c5cd30de35bd0d6
am krummen graben,"Am krummen Graben in Leipzig, Germany",51.2831495,12.3173229,1,,,,Shipping,"Am krummen Graben in Leipzig, Germany",,german_fires_lepzig_locations,473429cc9ce0362e75e0cfc892d0be81,german_fires_lepzig_locations__473429cc9ce0362e75e0cfc892d0be81
am kunstlerbogen,"Am Kunstlerbogen in Leipzig, Germany",51.3824136,12.458479,1,,,,Organization,"Am Kunstlerbogen in Leipzig, Germany",,german_fires_lepzig_locations,b7823a7dc3c49a0c651dd922f4447b75,german_fires_lepzig_locations__b7823a7dc3c49a0c651dd922f4447b75
am langen felde,"Am langen Felde in Leipzig, Germany",51.3438314,12.3154276,1,,,,Consulates,"Am langen Felde in Leipzig, Germany",,german_fires_lepzig_locations,636e1daed13d2eda436227b5becd99ec,german_fires_lepzig_locations__636e1daed13d2eda436227b5becd99ec
am langen teiche,"Am langen Teiche in Leipzig, Germany",51.3847877,12.4531457,1,,,,LegislativeCommittee,"Am langen Teiche in Leipzig, Germany",,german_fires_lepzig_locations,ec6cee00f68c995794833106f56430f6,german_fires_lepzig_locations__ec6cee00f68c995794833106f56430f6
am lindeneck,"Am Lindeneck in Leipzig, Germany",51.3010313,12.2596329,1,,,,Exec,"Am Lindeneck in Leipzig, Germany",,german_fires_lepzig_locations,eb073a586c2d9ee40ac23de472b54501,german_fires_lepzig_locations__eb073a586c2d9ee40ac23de472b54501
am lindenhof,"Am Lindenhof in Leipzig, Germany",51.2998336,12.3833476,1,,,,ForeignMinistry,"Am Lindenhof in Leipzig, Germany",,german_fires_lepzig_locations,ebc2812fce26287af95e891043c2b756,german_fires_lepzig_locations__ebc2812fce26287af95e891043c2b756
am losegraben,"Am Losegraben in Leipzig, Germany",51.3814675,12.4740848,1,,,,ForeignMinistry,"Am Losegraben in Leipzig, Germany",,german_fires_lepzig_locations,d87c5995b718a1e94b04b9db43df5b24,german_fires_lepzig_locations__d87c5995b718a1e94b04b9db43df5b24
am luppedeich,"Am Luppedeich in Leipzig, Germany",51.3672648,12.3306783,1,,,,Refinery,"Am Luppedeich in Leipzig, Germany",,german_fires_lepzig_locations,2e058221ef6552c839cb8cd7e0967f32,german_fires_lepzig_locations__2e058221ef6552c839cb8cd7e0967f32
am markt,"Am Markt in Leipzig, Germany",51.3399052,12.3748035,1,,,,Diplomat,"Am Markt in Leipzig, Germany",,german_fires_lepzig_locations,06c0e3c6a96619dcd4ccaf0fecd86cb7,german_fires_lepzig_locations__06c0e3c6a96619dcd4ccaf0fecd86cb7
am meilenstein,"Am Meilenstein in Leipzig, Germany",51.3760373,12.3217281,1,,,,AAEntity,"Am Meilenstein in Leipzig, Germany",,german_fires_lepzig_locations,74189d7a5c6ff78155ee9275a87a25ce,german_fires_lepzig_locations__74189d7a5c6ff78155ee9275a87a25ce
am muckenschlosschen,"Am Muckenschlosschen in Leipzig, Germany",51.348291,12.3529924,1,,,,Shipping,"Am Muckenschlosschen in Leipzig, Germany",,german_fires_lepzig_locations,eb069ac1fdb49c8c1ed5fef4886ec0d7,german_fires_lepzig_locations__eb069ac1fdb49c8c1ed5fef4886ec0d7
am muhlengrund,"Am Muhlengrund in Leipzig, Germany",51.3004287,12.2590875,1,,,,Diplomat,"Am Muhlengrund in Leipzig, Germany",,german_fires_lepzig_locations,54d56e1b16f3c29030af02f29fb2b674,german_fires_lepzig_locations__54d56e1b16f3c29030af02f29fb2b674
am muhlgraben,"Am Muhlgraben in Leipzig, Germany",51.2725753,12.3138524,1,,,,Organization,"Am Muhlgraben in Leipzig, Germany",,german_fires_lepzig_locations,4cccb319c05d9f57e3a253fb28cbc921,german_fires_lepzig_locations__4cccb319c05d9f57e3a253fb28cbc921
am niederholz,"Am Niederholz in Leipzig, Germany",51.2754358,12.4767901,1,,,,CompanyKeyword,"Am Niederholz in Leipzig, Germany",,german_fires_lepzig_locations,ca870e030d695425c995847360284342,german_fires_lepzig_locations__ca870e030d695425c995847360284342
am ochsenwinkel,"Am Ochsenwinkel in Leipzig, Germany",51.3210473,12.5250992,1,,,,Exec,"Am Ochsenwinkel in Leipzig, Germany",,german_fires_lepzig_locations,7523cdc5aaed84a3ead769c607a87305,german_fires_lepzig_locations__7523cdc5aaed84a3ead769c607a87305
am hang,"Am hang in Leipzig, Germany",51.3385738,12.3784615,1,,,,ForeignMinistry,"Am hang in Leipzig, Germany",,german_fires_lepzig_locations,c49d7b6a1393c4adcc08ec26405bb959,german_fires_lepzig_locations__c49d7b6a1393c4adcc08ec26405bb959
am park,"Am Park in Leipzig, Germany",51.4173768,12.7259482,1,,,,LegislativeCommittee,"Am Park in Leipzig, Germany",,german_fires_lepzig_locations,c613cb1d952218b60649e3c84bb963e1,german_fires_lepzig_locations__c613cb1d952218b60649e3c84bb963e1
am parkteich,"Am Parkteich in Leipzig, Germany",51.3660648,12.3811816,1,,,,LegislativeCommittee,"Am Parkteich in Leipzig, Germany",,german_fires_lepzig_locations,0b6b03a604ea228902912519936e6a00,german_fires_lepzig_locations__0b6b03a604ea228902912519936e6a00
am pfarrfelde,"Am Pfarrfelde in Leipzig, Germany",51.3783373,12.3244241,1,,,,AAEntity,"Am Pfarrfelde in Leipzig, Germany",,german_fires_lepzig_locations,8c06f375e6219cc10e07b00e34664080,german_fires_lepzig_locations__8c06f375e6219cc10e07b00e34664080
am pfefferbruckchen,"Am Pfefferbruckchen in Leipzig, Germany",51.3729076,12.3285116,1,,,,CompanyKeyword,"Am Pfefferbruckchen in Leipzig, Germany",,german_fires_lepzig_locations,7d5e9164b6040c63f96f75fe8c264f55,german_fires_lepzig_locations__7d5e9164b6040c63f96f75fe8c264f55
am pfingstanger,"Am Pfingstanger in Leipzig, Germany",51.3777037,12.2671285,1,,,,Keyphrase,"Am Pfingstanger in Leipzig, Germany",,german_fires_lepzig_locations,800c6496a69ee60784c5e7449fc34d0e,german_fires_lepzig_locations__800c6496a69ee60784c5e7449fc34d0e
am posgraben,"Am Posgraben in Leipzig, Germany",51.3045715,12.5147518,1,,,,Refinery,"Am Posgraben in Leipzig, Germany",,german_fires_lepzig_locations,cf2955c5c009c5bbb0dac97390b4dd28,german_fires_lepzig_locations__cf2955c5c009c5bbb0dac97390b4dd28
am rain,"Am Rain in Leipzig, Germany",51.3439076,12.2682588,1,,,,ForeignMinister,"Am Rain in Leipzig, Germany",,german_fires_lepzig_locations,6c060cad0c7d47156d69b073a93f564c,german_fires_lepzig_locations__6c060cad0c7d47156d69b073a93f564c
am rennsteig,"Am Rennsteig in Leipzig, Germany",51.3455712,12.2559679,1,,,,space,"Am Rennsteig in Leipzig, Germany",,german_fires_lepzig_locations,8cc66660328aa8cc9a7377db58807d15,german_fires_lepzig_locations__8cc66660328aa8cc9a7377db58807d15
am ring,"Am Ring in Leipzig, Germany",51.4304985,12.4855408,1,,,,News,"Am Ring in Leipzig, Germany",,german_fires_lepzig_locations,a7b56af13f445ee6d8ce49df25f74ce2,german_fires_lepzig_locations__a7b56af13f445ee6d8ce49df25f74ce2
am ritterschlosschen,"Am Ritterschlosschen in Leipzig, Germany",51.3558975,12.3086091,1,,,,AAEntity,"Am Ritterschlosschen in Leipzig, Germany",,german_fires_lepzig_locations,8255ce3dc2861f8923bb15899130b47e,german_fires_lepzig_locations__8255ce3dc2861f8923bb15899130b47e
am rodeland,"Am Rodeland in Leipzig, Germany",51.2742365,12.4804538,1,,,,ForeignMinister,"Am Rodeland in Leipzig, Germany",,german_fires_lepzig_locations,83d2ec2527f20ee1e0e6db6182f9cfe2,german_fires_lepzig_locations__83d2ec2527f20ee1e0e6db6182f9cfe2
am roschenhof,"Am Roschenhof in Leipzig, Germany",51.3469063,12.4462492,1,,,,ForeignMinistry,"Am Roschenhof in Leipzig, Germany",,german_fires_lepzig_locations,ff21747e0e55cce89feedb90ccf563c1,german_fires_lepzig_locations__ff21747e0e55cce89feedb90ccf563c1
am russischen garten,"Am Russischen Garten in Leipzig, Germany",51.3804144,12.2821178,1,,,,Consulates,"Am Russischen Garten in Leipzig, Germany",,german_fires_lepzig_locations,3fa1dce009c844d47499588ec00a1344,german_fires_lepzig_locations__3fa1dce009c844d47499588ec00a1344
am sandberg,"Am Sandberg in Leipzig, Germany",51.4017936,12.3725416,1,,,,FTO,"Am Sandberg in Leipzig, Germany",,german_fires_lepzig_locations,9f4f6d5039242126119f89016243732d,german_fires_lepzig_locations__9f4f6d5039242126119f89016243732d
am schaferhugel,"Am Schaferhugel in Leipzig, Germany",51.322306,12.4615992,1,,,,AAEntity,"Am Schaferhugel in Leipzig, Germany",,german_fires_lepzig_locations,42e7083b82bf03970878ce1ae69a6f0c,german_fires_lepzig_locations__42e7083b82bf03970878ce1ae69a6f0c
am schaukelgraben,"Am Schaukelgraben in Leipzig, Germany",51.2735722,12.48146,1,,,,CompanyKeyword,"Am Schaukelgraben in Leipzig, Germany",,german_fires_lepzig_locations,998015a1e86ce8364e312e1f8aa3e0e6,german_fires_lepzig_locations__998015a1e86ce8364e312e1f8aa3e0e6
am schenkberg,"Am Schenkberg in Leipzig, Germany",51.396666,12.4484248,1,,,,IndustryTerm,"Am Schenkberg in Leipzig, Germany",,german_fires_lepzig_locations,36a9d8c25ac5d3ff994680b37eeeb2cf,german_fires_lepzig_locations__36a9d8c25ac5d3ff994680b37eeeb2cf
am schwalbennest,"Am Schwalbennest in Leipzig, Germany",51.3245172,12.2854809,1,,,,LegislativeCommittee,"Am Schwalbennest in Leipzig, Germany",,german_fires_lepzig_locations,13bdfb16d9e58d1e59049af99d545019,german_fires_lepzig_locations__13bdfb16d9e58d1e59049af99d545019
am silo,"Am Silo in Leipzig, Germany",51.3041023,12.2612263,1,,,,ForeignMinister,"Am Silo in Leipzig, Germany",,german_fires_lepzig_locations,a47dafabab30cc365a6f10091bc94db9,german_fires_lepzig_locations__a47dafabab30cc365a6f10091bc94db9
am sommerfeld,"Am Sommerfeld in Leipzig, Germany",51.3503484,12.4853739,1,,,,Refinery,"Am Sommerfeld in Leipzig, Germany",,german_fires_lepzig_locations,d790c49817a285a8f0e279272a961a91,german_fires_lepzig_locations__d790c49817a285a8f0e279272a961a91
am sonneneck,"Am Sonneneck in Leipzig, Germany",51.3007982,12.2623786,1,,,,Media,"Am Sonneneck in Leipzig, Germany",,german_fires_lepzig_locations,4e16daa89539380fbb7467032177e787,german_fires_lepzig_locations__4e16daa89539380fbb7467032177e787
am sonnenwinkel,"Am Sonnenwinkel in Leipzig, Germany",51.3915131,12.3202412,1,,,,Exec,"Am Sonnenwinkel in Leipzig, Germany",,german_fires_lepzig_locations,cb83b1266a9cebaa8f6759f56f81952b,german_fires_lepzig_locations__cb83b1266a9cebaa8f6759f56f81952b
am sperrtor,"Am Sperrtor in Leipzig, Germany",51.3561909,12.2481037,1,,,,LegislativeCommittee,"Am Sperrtor in Leipzig, Germany",,german_fires_lepzig_locations,b039c81e25908359c814d27441e7512b,german_fires_lepzig_locations__b039c81e25908359c814d27441e7512b
am sportforum,"Am Sportforum in Leipzig, Germany",51.3467037,12.3504391,1,,,,Consulates,"Am Sportforum in Leipzig, Germany",,german_fires_lepzig_locations,f095946433f76e3e6c808e2f96068198,german_fires_lepzig_locations__f095946433f76e3e6c808e2f96068198
am sportpark,"Am Sportpark in Leipzig, Germany",51.3575392,12.3085643,1,,,,FTO,"Am Sportpark in Leipzig, Germany",,german_fires_lepzig_locations,d3e0866fc584176e07400f5c6317cc56,german_fires_lepzig_locations__d3e0866fc584176e07400f5c6317cc56
am sportplatz,"Am Sportplatz in Leipzig, Germany",51.2652746,12.3085831,1,,,,Media,"Am Sportplatz in Leipzig, Germany",,german_fires_lepzig_locations,62b888b0eae2caec25e480b3a683f152,german_fires_lepzig_locations__62b888b0eae2caec25e480b3a683f152
am stausee,"Am Stausee in Leipzig, Germany",51.266087,12.3152797,1,,,,DiplomaticFacilities,"Am Stausee in Leipzig, Germany",,german_fires_lepzig_locations,dd9e674da3c783ccd830c1bd26fb4a16,german_fires_lepzig_locations__dd9e674da3c783ccd830c1bd26fb4a16
am tanzplan,"Am Tanzplan in Leipzig, Germany",51.3496791,12.3131537,1,,,,LegislativeCommittee,"Am Tanzplan in Leipzig, Germany",,german_fires_lepzig_locations,38f35b9778bcc68d511a85e4313c7fe2,german_fires_lepzig_locations__38f35b9778bcc68d511a85e4313c7fe2
am teich,"Am Teich in Leipzig, Germany",51.3027845,12.2582729,1,,,,Person,"Am Teich in Leipzig, Germany",,german_fires_lepzig_locations,5ebdb25eba0ee94d51ca11ea02a2f6d9,german_fires_lepzig_locations__5ebdb25eba0ee94d51ca11ea02a2f6d9
am teilungswehr,"Am Teilungswehr in Leipzig, Germany",51.3021937,12.3402365,1,,,,FTO,"Am Teilungswehr in Leipzig, Germany",,german_fires_lepzig_locations,01ee9a29f101c268e94c2d36316beaa0,german_fires_lepzig_locations__01ee9a29f101c268e94c2d36316beaa0
am tore,"Am Tore in Leipzig, Germany",51.3699332,12.4096417,1,,,,Media,"Am Tore in Leipzig, Germany",,german_fires_lepzig_locations,e7ebea50ac2f5d19db87c397c9253cc9,german_fires_lepzig_locations__e7ebea50ac2f5d19db87c397c9253cc9
am turnplatz,"Am Turnplatz in Leipzig, Germany",51.3542286,12.2663467,1,,,,Diplomat,"Am Turnplatz in Leipzig, Germany",,german_fires_lepzig_locations,5f930207e9586200425cda98cab0e2d2,german_fires_lepzig_locations__5f930207e9586200425cda98cab0e2d2
am ubergang,"Am ubergang in Leipzig, Germany",51.3217887,12.3045583,1,,,,Diplomat,"Am ubergang in Leipzig, Germany",,german_fires_lepzig_locations,8b433b5381f1d9f712772248c96788e2,german_fires_lepzig_locations__8b433b5381f1d9f712772248c96788e2
am viadukt,"Am Viadukt in Leipzig, Germany",51.3757146,12.3290753,1,,,,DiplomaticFacilities,"Am Viadukt in Leipzig, Germany",,german_fires_lepzig_locations,b140d71228dbe16d70ec695125ecbc59,german_fires_lepzig_locations__b140d71228dbe16d70ec695125ecbc59
am volksgut,"Am Volksgut in Leipzig, Germany",51.3493019,12.4990245,1,,,,Wells,"Am Volksgut in Leipzig, Germany",,german_fires_lepzig_locations,5ce04b7b178d15a02be067d5294ed5c1,german_fires_lepzig_locations__5ce04b7b178d15a02be067d5294ed5c1
am vorwerk,"Am Vorwerk in Leipzig, Germany",51.3525868,12.4613825,1,,,,DiplomaticFacilities,"Am Vorwerk in Leipzig, Germany",,german_fires_lepzig_locations,51a43d20909e809f67529a9d0528a7b2,german_fires_lepzig_locations__51a43d20909e809f67529a9d0528a7b2
am wassergraben,"Am Wassergraben in Leipzig, Germany",51.3818219,12.2931399,1,,,,Consulates,"Am Wassergraben in Leipzig, Germany",,german_fires_lepzig_locations,8c6c77108b6b04de6021748d91a1db4f,german_fires_lepzig_locations__8c6c77108b6b04de6021748d91a1db4f
am wasserschloss,"Am Wasserschloss in Leipzig, Germany",51.348822,12.3167032,1,,,,Pipeline,"Am Wasserschloss in Leipzig, Germany",,german_fires_lepzig_locations,03ae9e70172ab08db1660f4924fccad1,german_fires_lepzig_locations__03ae9e70172ab08db1660f4924fccad1
am wasserturm,"Am Wasserturm in Leipzig, Germany",51.3417663,12.2605258,1,,,,Keyphrase,"Am Wasserturm in Leipzig, Germany",,german_fires_lepzig_locations,496d44ed39193c3e52e466bbf253b46f,german_fires_lepzig_locations__496d44ed39193c3e52e466bbf253b46f
am wasserwerk,"Am Wasserwerk in Leipzig, Germany",51.3138591,12.4171341,1,,,,LegislativeCommittee,"Am Wasserwerk in Leipzig, Germany",,german_fires_lepzig_locations,88a5ea80b33266ff61512f712887c0c2,german_fires_lepzig_locations__88a5ea80b33266ff61512f712887c0c2
am wegekreuz,"Am Wegekreuz in Leipzig, Germany",51.380993,12.4411584,1,,,,Consulates,"Am Wegekreuz in Leipzig, Germany",,german_fires_lepzig_locations,76908e0562c74224cd68d76e47acabc4,german_fires_lepzig_locations__76908e0562c74224cd68d76e47acabc4
am weiher,"Am Weiher in Leipzig, Germany",51.2727383,12.3115918,1,,,,Refinery,"Am Weiher in Leipzig, Germany",,german_fires_lepzig_locations,f9e5fcd953bb92d6c0c72ee3129cff29,german_fires_lepzig_locations__f9e5fcd953bb92d6c0c72ee3129cff29
am wiesenblick,"Am Wiesenblick in Leipzig, Germany",51.3401796,12.5261178,1,,,,DiplomaticFacilities,"Am Wiesenblick in Leipzig, Germany",,german_fires_lepzig_locations,43a3bada9fe7526974857e3e0ee7b343,german_fires_lepzig_locations__43a3bada9fe7526974857e3e0ee7b343
am wiesengrund,"Am Wiesengrund in Leipzig, Germany",51.299773,12.25923,1,,,,Keyphrase,"Am Wiesengrund in Leipzig, Germany",,german_fires_lepzig_locations,863ac111924fa61c07aaa677067fa9fe,german_fires_lepzig_locations__863ac111924fa61c07aaa677067fa9fe
am wolfswinkel,"Am Wolfswinkel in Leipzig, Germany",51.2902159,12.3635588,1,,,,Diplomat,"Am Wolfswinkel in Leipzig, Germany",,german_fires_lepzig_locations,e46138664dd39da467856cf04b61388f,german_fires_lepzig_locations__e46138664dd39da467856cf04b61388f
am zuckmantel,"Am Zuckmantel in Leipzig, Germany",51.3738369,12.3244964,1,,,,Consulates,"Am Zuckmantel in Leipzig, Germany",,german_fires_lepzig_locations,bcab489c28355080e9ad28f7fda55b9b,german_fires_lepzig_locations__bcab489c28355080e9ad28f7fda55b9b
amalie-winter-platz,"Amalie-Winter-Platz in Leipzig, Germany",51.3326186,12.3936802,1,,,,space,"Amalie-Winter-Platz in Leipzig, Germany",,german_fires_lepzig_locations,3b2832b04d1baf274ef533bee9a90c71,german_fires_lepzig_locations__3b2832b04d1baf274ef533bee9a90c71
amalienstrasse,"Amalienstrasse in Leipzig, Germany",51.3297572,12.3387003,1,,,,Person,"Amalienstrasse in Leipzig, Germany",,german_fires_lepzig_locations,d1898e46e3ecaaef3d3498433fead036,german_fires_lepzig_locations__d1898e46e3ecaaef3d3498433fead036
amazonstrasse,"Amazonstrasse in Leipzig, Germany",51.3639155,12.4550299,1,,,,Pipeline,"Amazonstrasse in Leipzig, Germany",,german_fires_lepzig_locations,cdbffa85fc18e90411c7daf501219e52,german_fires_lepzig_locations__cdbffa85fc18e90411c7daf501219e52
amboldweg,"Amboldweg in Leipzig, Germany",51.3440961,12.2808992,1,,,,IndustryTerm,"Amboldweg in Leipzig, Germany",,german_fires_lepzig_locations,dd01168445b0360005fa7f2acf3dfc79,german_fires_lepzig_locations__dd01168445b0360005fa7f2acf3dfc79
ambrosius-barth-platz,"Ambrosius-Barth-Platz in Leipzig, Germany",51.3159451,12.4219616,1,,,,CompanyKeyword,"Ambrosius-Barth-Platz in Leipzig, Germany",,german_fires_lepzig_locations,241cee5107b090dfb26ccc0107d4dd50,german_fires_lepzig_locations__241cee5107b090dfb26ccc0107d4dd50
ameisenstrasse,"Ameisenstrasse in Leipzig, Germany",51.2967603,12.3218473,1,,,,CompanyKeyword,"Ameisenstrasse in Leipzig, Germany",,german_fires_lepzig_locations,f16cfd2be53c692f15d4532c8ebd69c7,german_fires_lepzig_locations__f16cfd2be53c692f15d4532c8ebd69c7
ammernplatz,"Ammernplatz in Leipzig, Germany",51.3497452,12.2869813,1,,,,Consulates,"Ammernplatz in Leipzig, Germany",,german_fires_lepzig_locations,38a72abe6f045d3542b092a0297ad667,german_fires_lepzig_locations__38a72abe6f045d3542b092a0297ad667
ammernweg,"Ammernweg in Leipzig, Germany",51.3497304,12.286469,1,,,,Media,"Ammernweg in Leipzig, Germany",,german_fires_lepzig_locations,fc82a87676ccfd6f7fb20af8f3cde6d8,german_fires_lepzig_locations__fc82a87676ccfd6f7fb20af8f3cde6d8
amorbacher strasse,"Amorbacher Strasse in Leipzig, Germany",51.3115471,12.2744263,1,,,,LegislativeCommittee,"Amorbacher Strasse in Leipzig, Germany",,german_fires_lepzig_locations,516c9ec0019e932d82ae4da4d57eb62b,german_fires_lepzig_locations__516c9ec0019e932d82ae4da4d57eb62b
ampreweg,"Ampreweg in Leipzig, Germany",51.3216128,12.4348412,1,,,,Exec,"Ampreweg in Leipzig, Germany",,german_fires_lepzig_locations,1e0ed3d71090c567432cae7cc6e0d429,german_fires_lepzig_locations__1e0ed3d71090c567432cae7cc6e0d429
amselgrund,"Amselgrund in Leipzig, Germany",51.383386,12.3602902,1,,,,Consulates,"Amselgrund in Leipzig, Germany",,german_fires_lepzig_locations,5ef93cd614b1e661d8c441b2471e5a8d,german_fires_lepzig_locations__5ef93cd614b1e661d8c441b2471e5a8d
amselhohe,"Amselhohe in Leipzig, Germany",51.2801148,12.4562091,1,,,,Consulates,"Amselhohe in Leipzig, Germany",,german_fires_lepzig_locations,d6acf07664a369ed2ce0cac1edc22cb8,german_fires_lepzig_locations__d6acf07664a369ed2ce0cac1edc22cb8
amselnest,"Amselnest in Leipzig, Germany",51.3147617,12.4534039,1,,,,Pipeline,"Amselnest in Leipzig, Germany",,german_fires_lepzig_locations,530827a3f3c6359e30b2e1da99aff713,german_fires_lepzig_locations__530827a3f3c6359e30b2e1da99aff713
amselstrasse,"Amselstrasse in Leipzig, Germany",51.3486685,12.2875545,1,,,,Refinery,"Amselstrasse in Leipzig, Germany",,german_fires_lepzig_locations,3afbd9ef523366f5fdcbead7c2112558,german_fires_lepzig_locations__3afbd9ef523366f5fdcbead7c2112558
amselweg,"Amselweg in Leipzig, Germany",51.4057882,12.4141686,1,,,,IndustryTerm,"Amselweg in Leipzig, Germany",,german_fires_lepzig_locations,c7df364d16f952f42f6f9b8675d72321,german_fires_lepzig_locations__c7df364d16f952f42f6f9b8675d72321
amstetter weg,"Amstetter Weg in Leipzig, Germany",51.3828333,12.4650618,1,,,,Shipping,"Amstetter Weg in Leipzig, Germany",,german_fires_lepzig_locations,bd386e80726763a9e5773b8466fa50ef,german_fires_lepzig_locations__bd386e80726763a9e5773b8466fa50ef
an den birken,"An den Birken in Leipzig, Germany",51.3580919,12.262801,1,,,,Shipping,"An den Birken in Leipzig, Germany",,german_fires_lepzig_locations,d8f43012af857ec3d230627220496422,german_fires_lepzig_locations__d8f43012af857ec3d230627220496422
an den krutschen,"An den Krutschen in Leipzig, Germany",51.3481176,12.2712136,1,,,,CompanyKeyword,"An den Krutschen in Leipzig, Germany",,german_fires_lepzig_locations,9b039b6f8992d1253ed53a5cb8003216,german_fires_lepzig_locations__9b039b6f8992d1253ed53a5cb8003216
an den linden,"An den Linden in Leipzig, Germany",51.3427971,12.2723629,1,,,,Diplomat,"An den Linden in Leipzig, Germany",,german_fires_lepzig_locations,2f76102ac3005dcd34d8958a46aba347,german_fires_lepzig_locations__2f76102ac3005dcd34d8958a46aba347
an den pferdnerkabeln,"An den Pferdnerkabeln in Leipzig, Germany",51.380668,12.4363243,1,,,,FTO,"An den Pferdnerkabeln in Leipzig, Germany",,german_fires_lepzig_locations,32a5d68d35efc948326751d34abd613a,german_fires_lepzig_locations__32a5d68d35efc948326751d34abd613a
an den platanen,"An den Platanen in Leipzig, Germany",51.3256347,12.4417013,1,,,,Wells,"An den Platanen in Leipzig, Germany",,german_fires_lepzig_locations,5fb2ff5cb28804f1cb293bfc157cf4ee,german_fires_lepzig_locations__5fb2ff5cb28804f1cb293bfc157cf4ee
an den feldern,"An den feldern in Leipzig, Germany",51.3519845,12.2014501,1,,,,Legislator,"An den feldern in Leipzig, Germany",,german_fires_lepzig_locations,b16238b541f232862ab11cb1930c9562,german_fires_lepzig_locations__b16238b541f232862ab11cb1930c9562
an den tierkliniken,"An den Tierkliniken in Leipzig, Germany",51.3197054,12.3914868,1,,,,ForeignMinistry,"An den Tierkliniken in Leipzig, Germany",,german_fires_lepzig_locations,e7c9d039506df23a92a5c2f151fedc66,german_fires_lepzig_locations__e7c9d039506df23a92a5c2f151fedc66
an der alten muhle,"An der Alten Muhle in Leipzig, Germany",51.4109166,12.4188806,1,,,,IndustryTerm,"An der Alten Muhle in Leipzig, Germany",,german_fires_lepzig_locations,df9f51e71e3c45a80a699bf1e9b89390,german_fires_lepzig_locations__df9f51e71e3c45a80a699bf1e9b89390
an der alten post,"An der Alten Post in Leipzig, Germany",51.3250872,12.2534944,1,,,,AAEntity,"An der Alten Post in Leipzig, Germany",,german_fires_lepzig_locations,fafba6bbbaee7b5a1baea0b405530d0e,german_fires_lepzig_locations__fafba6bbbaee7b5a1baea0b405530d0e
an der autobahn,"An der Autobahn in Leipzig, Germany",51.4034792,12.398341,1,,,,ForeignMinister,"An der Autobahn in Leipzig, Germany",,german_fires_lepzig_locations,cfdf8e0803db3c770ac617029fe3c7ed,german_fires_lepzig_locations__cfdf8e0803db3c770ac617029fe3c7ed
an der badeanlage,"An der Badeanlage in Leipzig, Germany",51.2789972,12.4651815,1,,,,Wells,"An der Badeanlage in Leipzig, Germany",,german_fires_lepzig_locations,fb6134ff6efea80485c1ea322fab0d46,german_fires_lepzig_locations__fb6134ff6efea80485c1ea322fab0d46
an der bahn,"An der Bahn in Leipzig, Germany",51.3454111,12.4874964,1,,,,space,"An der Bahn in Leipzig, Germany",,german_fires_lepzig_locations,66423969abb8685f88c60d38165be41e,german_fires_lepzig_locations__66423969abb8685f88c60d38165be41e
an der brauerei,"An der Brauerei in Leipzig, Germany",51.2838466,12.4572949,1,,,,ForeignMinistry,"An der Brauerei in Leipzig, Germany",,german_fires_lepzig_locations,bff48568b5f668c6170260b9e64b6f44,german_fires_lepzig_locations__bff48568b5f668c6170260b9e64b6f44
an der brucke,"An der Brucke in Leipzig, Germany",51.3539885,12.2654568,1,,,,Person,"An der Brucke in Leipzig, Germany",,german_fires_lepzig_locations,abf99b6fc128e3a05c5b6c0caa2d356c,german_fires_lepzig_locations__abf99b6fc128e3a05c5b6c0caa2d356c
an der burgaue,"An der Burgaue in Leipzig, Germany",51.3567512,12.3007973,1,,,,Organization,"An der Burgaue in Leipzig, Germany",,german_fires_lepzig_locations,c097993680794b81c9a6ef8e3f9beeeb,german_fires_lepzig_locations__c097993680794b81c9a6ef8e3f9beeeb
an der eisenbahn,"An der Eisenbahn in Leipzig, Germany",51.2830667,12.46918,1,,,,Diplomat,"An der Eisenbahn in Leipzig, Germany",,german_fires_lepzig_locations,9b4590c2307d042a4cb772097cc3f1e8,german_fires_lepzig_locations__9b4590c2307d042a4cb772097cc3f1e8
an der elster,"An der Elster in Leipzig, Germany",51.3718371,12.3116045,1,,,,Refinery,"An der Elster in Leipzig, Germany",,german_fires_lepzig_locations,051bfca161123e5ce43b361a264052b0,german_fires_lepzig_locations__051bfca161123e5ce43b361a264052b0
an der fasanerie,"An der Fasanerie in Leipzig, Germany",51.3898925,12.4455785,1,,,,DiplomaticFacilities,"An der Fasanerie in Leipzig, Germany",,german_fires_lepzig_locations,a63ea2ffe91158ce90ce3ca9deaa281b,german_fires_lepzig_locations__a63ea2ffe91158ce90ce3ca9deaa281b
an der feuerwache,"An der Feuerwache in Leipzig, Germany",51.3594248,12.2810711,1,,,,Media,"An der Feuerwache in Leipzig, Germany",,german_fires_lepzig_locations,1e1a6a6b80d969a0a6604ac9a3b1ed61,german_fires_lepzig_locations__1e1a6a6b80d969a0a6604ac9a3b1ed61
an der feuerwehr,"An der Feuerwehr in Leipzig, Germany",51.3846389,12.2806233,1,,,,DiplomaticFacilities,"An der Feuerwehr in Leipzig, Germany",,german_fires_lepzig_locations,e1b223214d03b0859b935c8118d05d3a,german_fires_lepzig_locations__e1b223214d03b0859b935c8118d05d3a
an der friedenseiche,"An der Friedenseiche in Leipzig, Germany",51.3436029,12.2519179,1,,,,Refinery,"An der Friedenseiche in Leipzig, Germany",,german_fires_lepzig_locations,9e3f6a49328b4782f9b13969575c611d,german_fires_lepzig_locations__9e3f6a49328b4782f9b13969575c611d
an der ganseweide,"An der Ganseweide in Leipzig, Germany",51.3039013,12.4688418,1,,,,FTO,"An der Ganseweide in Leipzig, Germany",,german_fires_lepzig_locations,f4f60c4f5bc938adc6decf4ab0dcfeb2,german_fires_lepzig_locations__f4f60c4f5bc938adc6decf4ab0dcfeb2
an der gartnerei,"An der Gartnerei in Leipzig, Germany",51.324017,12.2581795,1,,,,Refinery,"An der Gartnerei in Leipzig, Germany",,german_fires_lepzig_locations,a1c95627ee0a936b8ebfb02060067763,german_fires_lepzig_locations__a1c95627ee0a936b8ebfb02060067763
an der grundschule,"An der Grundschule in Leipzig, Germany",51.3414736,12.4876091,1,,,,ForeignMinistry,"An der Grundschule in Leipzig, Germany",,german_fires_lepzig_locations,925343fe8ce99624a090f9d1a631fe3f,german_fires_lepzig_locations__925343fe8ce99624a090f9d1a631fe3f
an der hainkirche,"An der Hainkirche in Leipzig, Germany",51.3846555,12.265535,1,,,,News,"An der Hainkirche in Leipzig, Germany",,german_fires_lepzig_locations,0b75b7aba3a9ac7d7ef519bf505b2b4c,german_fires_lepzig_locations__0b75b7aba3a9ac7d7ef519bf505b2b4c
an der hauptstrasse,"An der Hauptstrasse in Leipzig, Germany",51.4202496,12.4513096,1,,,,Diplomat,"An der Hauptstrasse in Leipzig, Germany",,german_fires_lepzig_locations,1a6b0ecf70df19b4a54c3700e76316fd,german_fires_lepzig_locations__1a6b0ecf70df19b4a54c3700e76316fd
an der hebemarchte,"An der Hebemarchte in Leipzig, Germany",51.3219014,12.4945565,1,,,,Legislator,"An der Hebemarchte in Leipzig, Germany",,german_fires_lepzig_locations,b73579f9516bf7b8c189f28dd957a2af,german_fires_lepzig_locations__b73579f9516bf7b8c189f28dd957a2af
an der hufschmiede,"An der Hufschmiede in Leipzig, Germany",51.3935593,12.3396761,1,,,,Exec,"An der Hufschmiede in Leipzig, Germany",,german_fires_lepzig_locations,717ca311cbd2a9090a1b7d09c47a069e,german_fires_lepzig_locations__717ca311cbd2a9090a1b7d09c47a069e
an der kaninchenfarm,"An der Kaninchenfarm in Leipzig, Germany",51.3428538,12.2942708,1,,,,ForeignMinister,"An der Kaninchenfarm in Leipzig, Germany",,german_fires_lepzig_locations,be0f939d4f0f6cba494825cf58119d2a,german_fires_lepzig_locations__be0f939d4f0f6cba494825cf58119d2a
an der kegelbahn,"An der Kegelbahn in Leipzig, Germany",51.3786851,12.3332275,1,,,,Pipeline,"An der Kegelbahn in Leipzig, Germany",,german_fires_lepzig_locations,332acefe41a17cdd25ee6c22bfd579c2,german_fires_lepzig_locations__332acefe41a17cdd25ee6c22bfd579c2
an der kirche,"An der Kirche in Leipzig, Germany",51.3080202,12.464252,1,,,,News,"An der Kirche in Leipzig, Germany",,german_fires_lepzig_locations,96d8366430c7100e13988054a5525cd2,german_fires_lepzig_locations__96d8366430c7100e13988054a5525cd2
an der kirchgasse,"An der Kirchgasse in Leipzig, Germany",51.3220708,12.2578016,1,,,,Legislator,"An der Kirchgasse in Leipzig, Germany",,german_fires_lepzig_locations,33c088f3a877c288cd48050fd187acf8,german_fires_lepzig_locations__33c088f3a877c288cd48050fd187acf8
an der kirschallee,"An der Kirschallee in Leipzig, Germany",51.3879806,12.2756448,1,,,,Wells,"An der Kirschallee in Leipzig, Germany",,german_fires_lepzig_locations,71013cd1f0bfd02b0c247ab8b8fbc8d2,german_fires_lepzig_locations__71013cd1f0bfd02b0c247ab8b8fbc8d2
an der kotsche,"An der Kotsche in Leipzig, Germany",51.3092907,12.2680837,1,,,,Wells,"An der Kotsche in Leipzig, Germany",,german_fires_lepzig_locations,83af6a299827696b11af08ac5239ca9e,german_fires_lepzig_locations__83af6a299827696b11af08ac5239ca9e
an der lautsche,"An der Lautsche in Leipzig, Germany",51.309834,12.2634793,1,,,,LegislativeCommittee,"An der Lautsche in Leipzig, Germany",,german_fires_lepzig_locations,ddc6a469c60334137527655660914b3b,german_fires_lepzig_locations__ddc6a469c60334137527655660914b3b
an der lehde,"An der Lehde in Leipzig, Germany",51.3456137,12.3213812,1,,,,Person,"An der Lehde in Leipzig, Germany",,german_fires_lepzig_locations,ddff7259343faa708610a7991540baf0,german_fires_lepzig_locations__ddff7259343faa708610a7991540baf0
an der luppe,"An der Luppe in Leipzig, Germany",51.3569356,12.3033938,1,,,,AAEntity,"An der Luppe in Leipzig, Germany",,german_fires_lepzig_locations,9e041fb0ed7f5086608807e61dd15e5e,german_fires_lepzig_locations__9e041fb0ed7f5086608807e61dd15e5e
an der marchenwiese,"An der Marchenwiese in Leipzig, Germany",51.3061752,12.3964745,1,,,,FTO,"An der Marchenwiese in Leipzig, Germany",,german_fires_lepzig_locations,b915a38f15af0e29afb06ca6d8650fe5,german_fires_lepzig_locations__b915a38f15af0e29afb06ca6d8650fe5
an der merseburger strasse,"An der Merseburger Strasse in Leipzig, Germany",51.3436138,12.2898334,1,,,,Pipeline,"An der Merseburger Strasse in Leipzig, Germany",,german_fires_lepzig_locations,f748a218abdd001452fe2667fd3c057d,german_fires_lepzig_locations__f748a218abdd001452fe2667fd3c057d
an der meusdorfer hohe,"An der Meusdorfer Hohe in Leipzig, Germany",51.2979951,12.4445836,1,,,,News,"An der Meusdorfer Hohe in Leipzig, Germany",,german_fires_lepzig_locations,22cc9ebea4741f1a6e3d3bdb82435584,german_fires_lepzig_locations__22cc9ebea4741f1a6e3d3bdb82435584
an der milchinsel,"An der Milchinsel in Leipzig, Germany",51.3430164,12.3915335,1,,,,Refinery,"An der Milchinsel in Leipzig, Germany",,german_fires_lepzig_locations,c1ab9346537bf39bb60648527979c0f8,german_fires_lepzig_locations__c1ab9346537bf39bb60648527979c0f8
an der muhle,"An der Muhle in Leipzig, Germany",51.3102299,12.455049,1,,,,IndustryTerm,"An der Muhle in Leipzig, Germany",,german_fires_lepzig_locations,a3603382e83a24ee2cebd132786b50de,german_fires_lepzig_locations__a3603382e83a24ee2cebd132786b50de
an der muhlpleisse,"An der Muhlpleisse in Leipzig, Germany",51.2914184,12.3888717,1,,,,Person,"An der Muhlpleisse in Leipzig, Germany",,german_fires_lepzig_locations,fe46fb7dbb2b5fdb829a85eb9064d6a8,german_fires_lepzig_locations__fe46fb7dbb2b5fdb829a85eb9064d6a8
an der parthe,"An der Parthe in Leipzig, Germany",51.3724466,12.4185642,1,,,,Person,"An der Parthe in Leipzig, Germany",,german_fires_lepzig_locations,df964a84f3ee321e83371f4a92f8eee5,german_fires_lepzig_locations__df964a84f3ee321e83371f4a92f8eee5
an der passage,"An der Passage in Leipzig, Germany",51.4002928,12.3973563,1,,,,Person,"An der Passage in Leipzig, Germany",,german_fires_lepzig_locations,36e7d8ab7efa12f4d3b93c4b54fe5e17,german_fires_lepzig_locations__36e7d8ab7efa12f4d3b93c4b54fe5e17
an der querbreite,"An der Querbreite in Leipzig, Germany",51.3713876,12.3882741,1,,,,Keyphrase,"An der Querbreite in Leipzig, Germany",,german_fires_lepzig_locations,814179446a13343e5aefa3b4963fff16,german_fires_lepzig_locations__814179446a13343e5aefa3b4963fff16
an der rehwiese,"An der Rehwiese in Leipzig, Germany",51.3562388,12.2601094,1,,,,Diplomat,"An der Rehwiese in Leipzig, Germany",,german_fires_lepzig_locations,6dd4909d1e65dfbdc9af4b023259f463,german_fires_lepzig_locations__6dd4909d1e65dfbdc9af4b023259f463
an der rietzschke,"An der Rietzschke in Leipzig, Germany",51.3160458,12.4426124,1,,,,IndustryTerm,"An der Rietzschke in Leipzig, Germany",,german_fires_lepzig_locations,911a28f60f5e01a4ac5d7508a4fe5079,german_fires_lepzig_locations__911a28f60f5e01a4ac5d7508a4fe5079
an der salzstrasse,"An der Salzstrasse in Leipzig, Germany",51.3981572,12.2932151,1,,,,Media,"An der Salzstrasse in Leipzig, Germany",,german_fires_lepzig_locations,b605cb1afa3766b753ae9373dbf47a30,german_fires_lepzig_locations__b605cb1afa3766b753ae9373dbf47a30
an der sandgrube,"An der Sandgrube in Leipzig, Germany",51.3401482,12.2606576,1,,,,space,"An der Sandgrube in Leipzig, Germany",,german_fires_lepzig_locations,7f311650e4315b9491462c1b7bdac6d2,german_fires_lepzig_locations__7f311650e4315b9491462c1b7bdac6d2
an der schaferei,"An der Schaferei in Leipzig, Germany",51.3819882,12.2813018,1,,,,Keyphrase,"An der Schaferei in Leipzig, Germany",,german_fires_lepzig_locations,9a9c9acfcb806e6e00082e59ef5b92d8,german_fires_lepzig_locations__9a9c9acfcb806e6e00082e59ef5b92d8
an der schule,"An der Schule in Leipzig, Germany",51.3915843,12.3333418,1,,,,Organization,"An der Schule in Leipzig, Germany",,german_fires_lepzig_locations,f9045aa156d9a91a0047baa4c8b063c7,german_fires_lepzig_locations__f9045aa156d9a91a0047baa4c8b063c7
an der siedlung,"An der Siedlung in Leipzig, Germany",51.2788383,12.4710742,1,,,,DiplomaticFacilities,"An der Siedlung in Leipzig, Germany",,german_fires_lepzig_locations,7ec1b30a96ba4e897e3485c7aa4bb413,german_fires_lepzig_locations__7ec1b30a96ba4e897e3485c7aa4bb413
an der spitze,"An der Spitze in Leipzig, Germany",51.2743409,12.4755218,1,,,,Wells,"An der Spitze in Leipzig, Germany",,german_fires_lepzig_locations,352edff33197904c24a8fae2315d1993,german_fires_lepzig_locations__352edff33197904c24a8fae2315d1993
an der streuobstwiese,"An der Streuobstwiese in Leipzig, Germany",51.3430963,12.3161681,1,,,,space,"An der Streuobstwiese in Leipzig, Germany",,german_fires_lepzig_locations,6cb6e4ee5e4b5a41e0377c7bb7d022fd,german_fires_lepzig_locations__6cb6e4ee5e4b5a41e0377c7bb7d022fd
an der tabaksmuhle,"An der Tabaksmuhle in Leipzig, Germany",51.3127692,12.4036826,1,,,,LegislativeCommittee,"An der Tabaksmuhle in Leipzig, Germany",,german_fires_lepzig_locations,e8e4e45992141b5e22e41685f5849ef5,german_fires_lepzig_locations__e8e4e45992141b5e22e41685f5849ef5
an der teichmuhle,"An der Teichmuhle in Leipzig, Germany",51.3406608,12.2514056,1,,,,Diplomat,"An der Teichmuhle in Leipzig, Germany",,german_fires_lepzig_locations,5cd87571691cce4d6a7bc560a2e24c67,german_fires_lepzig_locations__5cd87571691cce4d6a7bc560a2e24c67
an der telle,"An der Telle in Leipzig, Germany",51.3770416,12.3077411,1,,,,Organization,"An der Telle in Leipzig, Germany",,german_fires_lepzig_locations,dffadd8392ed38cc11f2ebd3cda52186,german_fires_lepzig_locations__dffadd8392ed38cc11f2ebd3cda52186
an der trift,"An der Trift in Leipzig, Germany",51.2731858,12.458978,1,,,,Pipeline,"An der Trift in Leipzig, Germany",,german_fires_lepzig_locations,35bc14e9065d047beb530dfced11a9a6,german_fires_lepzig_locations__35bc14e9065d047beb530dfced11a9a6
an der verfassungslinde,"An der Verfassungslinde in Leipzig, Germany",51.3352822,12.3850455,1,,,,Pipeline,"An der Verfassungslinde in Leipzig, Germany",,german_fires_lepzig_locations,59883e0ce311347c031945cc91c22e6c,german_fires_lepzig_locations__59883e0ce311347c031945cc91c22e6c
an der vogelweide,"An der Vogelweide in Leipzig, Germany",51.3421994,12.2700072,1,,,,Person,"An der Vogelweide in Leipzig, Germany",,german_fires_lepzig_locations,727ace40611619572a9f09de0446de16,german_fires_lepzig_locations__727ace40611619572a9f09de0446de16
an der weide,"An der Weide in Leipzig, Germany",51.3096609,12.523132,1,,,,Refinery,"An der Weide in Leipzig, Germany",,german_fires_lepzig_locations,00aed7b4345fba6843c885a4dc2a37ea,german_fires_lepzig_locations__00aed7b4345fba6843c885a4dc2a37ea
an der wendeschleife,"An der Wendeschleife in Leipzig, Germany",51.2576063,12.2999573,1,,,,ForeignMinister,"An der Wendeschleife in Leipzig, Germany",,german_fires_lepzig_locations,f7fd44f9f822b9d29e52467011272042,german_fires_lepzig_locations__f7fd44f9f822b9d29e52467011272042
an der windmuhle,"An der Windmuhle in Leipzig, Germany",51.3916453,12.3385899,1,,,,Organization,"An der Windmuhle in Leipzig, Germany",,german_fires_lepzig_locations,beb50f54c60031788d82ffc0963727d3,german_fires_lepzig_locations__beb50f54c60031788d82ffc0963727d3
andersenweg,"Andersenweg in Leipzig, Germany",51.3117927,12.3993371,1,,,,Diplomat,"Andersenweg in Leipzig, Germany",,german_fires_lepzig_locations,af090477af6d167de0f4116377d3e014,german_fires_lepzig_locations__af090477af6d167de0f4116377d3e014
andreasstrasse,"Andreasstrasse in Leipzig, Germany",51.3192967,12.3750588,1,,,,Pipeline,"Andreasstrasse in Leipzig, Germany",,german_fires_lepzig_locations,adfadac051064b1535d18650b76e9f6d,german_fires_lepzig_locations__adfadac051064b1535d18650b76e9f6d
andromedaweg,"Andromedaweg in Leipzig, Germany",51.3193325,12.2713141,1,,,,IndustryTerm,"Andromedaweg in Leipzig, Germany",,german_fires_lepzig_locations,44792dac039d6c539a74a20d61c565b8,german_fires_lepzig_locations__44792dac039d6c539a74a20d61c565b8
anemonenweg,"Anemonenweg in Leipzig, Germany",51.3323846,12.4392597,1,,,,Legislator,"Anemonenweg in Leipzig, Germany",,german_fires_lepzig_locations,e9809ecc6d888b90ebd888598b049cf1,german_fires_lepzig_locations__e9809ecc6d888b90ebd888598b049cf1
angerstrasse,"Angerstrasse in Leipzig, Germany",51.3396794,12.3369548,1,,,,space,"Angerstrasse in Leipzig, Germany",,german_fires_lepzig_locations,5cb926eab6d62723813656bdc6a3de5d,german_fires_lepzig_locations__5cb926eab6d62723813656bdc6a3de5d
anhalter strasse,"Anhalter Strasse in Leipzig, Germany",51.3635604,12.3896206,1,,,,CompanyKeyword,"Anhalter Strasse in Leipzig, Germany",,german_fires_lepzig_locations,af6752f58b7eba9216a8f9a5ee7afab6,german_fires_lepzig_locations__af6752f58b7eba9216a8f9a5ee7afab6
anna-kuhnow-strasse,"Anna-Kuhnow-Strasse in Leipzig, Germany",51.3373762,12.4025779,1,,,,Wells,"Anna-Kuhnow-Strasse in Leipzig, Germany",,german_fires_lepzig_locations,2e2e36a2e2e6a5e7c1d6a9a1c1264307,german_fires_lepzig_locations__2e2e36a2e2e6a5e7c1d6a9a1c1264307
annaberger strasse,"Annaberger Strasse in Leipzig, Germany",51.3726115,12.3314386,1,,,,Shipping,"Annaberger Strasse in Leipzig, Germany",,german_fires_lepzig_locations,e023b41d48176545223085b768e53aad,german_fires_lepzig_locations__e023b41d48176545223085b768e53aad
annenstrasse,"Annenstrasse in Leipzig, Germany",51.3440951,12.4215961,1,,,,Refinery,"Annenstrasse in Leipzig, Germany",,german_fires_lepzig_locations,4b9d3c4d15faf533b9bf50147d588541,german_fires_lepzig_locations__4b9d3c4d15faf533b9bf50147d588541
ansbacher strasse,"Ansbacher Strasse in Leipzig, Germany",51.3099427,12.2841433,1,,,,Shipping,"Ansbacher Strasse in Leipzig, Germany",,german_fires_lepzig_locations,36950399473d86e971cae4234ee036e5,german_fires_lepzig_locations__36950399473d86e971cae4234ee036e5
anton-bruckner-allee,"Anton-Bruckner-Allee in Leipzig, Germany",51.3308745,12.3564036,1,,,,Pipeline,"Anton-Bruckner-Allee in Leipzig, Germany",,german_fires_lepzig_locations,7d0ecec3ca4e0aa57433e63c41342cd2,german_fires_lepzig_locations__7d0ecec3ca4e0aa57433e63c41342cd2
anton-zickmantel-strasse,"Anton-Zickmantel-Strasse in Leipzig, Germany",51.3026042,12.3230414,1,,,,FTO,"Anton-Zickmantel-Strasse in Leipzig, Germany",,german_fires_lepzig_locations,1441a90a2c2f5a7b9ca6b24f6f53f482,german_fires_lepzig_locations__1441a90a2c2f5a7b9ca6b24f6f53f482
antonienstrasse,"Antonienstrasse in Leipzig, Germany",51.3203494,12.3247339,1,,,,FTO,"Antonienstrasse in Leipzig, Germany",,german_fires_lepzig_locations,4395634e4f1e955a1777c528b7b49766,german_fires_lepzig_locations__4395634e4f1e955a1777c528b7b49766
anzengruberstrasse,"Anzengruberstrasse in Leipzig, Germany",51.2987317,12.4323785,1,,,,Organization,"Anzengruberstrasse in Leipzig, Germany",,german_fires_lepzig_locations,99ba6629013404f660b76dcdbcda82d4,german_fires_lepzig_locations__99ba6629013404f660b76dcdbcda82d4
apels garten,"Apels Garten in Leipzig, Germany",51.3387034,12.3689144,1,,,,Legislator,"Apels Garten in Leipzig, Germany",,german_fires_lepzig_locations,28266ca504d8d4ed1217bd729143f245,german_fires_lepzig_locations__28266ca504d8d4ed1217bd729143f245
apelsteinweg,"Apelsteinweg in Leipzig, Germany",51.32061,12.4746248,1,,,,AAEntity,"Apelsteinweg in Leipzig, Germany",,german_fires_lepzig_locations,25965e37b626b4b814f09049536ff830,german_fires_lepzig_locations__25965e37b626b4b814f09049536ff830
apelstrasse,"Apelstrasse in Leipzig, Germany",51.3561181,12.3892895,1,,,,DiplomaticFacilities,"Apelstrasse in Leipzig, Germany",,german_fires_lepzig_locations,4eac59641d412e2a768ae7428f10d05b,german_fires_lepzig_locations__4eac59641d412e2a768ae7428f10d05b
apitzschgasse,"Apitzschgasse in Leipzig, Germany",51.3015144,12.3778714,1,,,,ForeignMinister,"Apitzschgasse in Leipzig, Germany",,german_fires_lepzig_locations,de5730800dc3990308b61dcd773b8b6d,german_fires_lepzig_locations__de5730800dc3990308b61dcd773b8b6d
apoldaer weg,"Apoldaer Weg in Leipzig, Germany",51.3225296,12.2833903,1,,,,Wells,"Apoldaer Weg in Leipzig, Germany",,german_fires_lepzig_locations,c2affce5bd74dd682674fc62cc24501d,german_fires_lepzig_locations__c2affce5bd74dd682674fc62cc24501d
apelstrasse,"Apelstrasse in Leipzig, Germany",51.3561181,12.3892895,1,,,,Pipeline,"Apelstrasse in Leipzig, Germany",,german_fires_lepzig_locations,b6caff88da4c8512d1a2023d5d896280,german_fires_lepzig_locations__b6caff88da4c8512d1a2023d5d896280
aprikosenweg,"Aprikosenweg in Leipzig, Germany",51.3262058,12.4432215,1,,,,Media,"Aprikosenweg in Leipzig, Germany",,german_fires_lepzig_locations,bd118ff717cf324fcf59e5477ec076db,german_fires_lepzig_locations__bd118ff717cf324fcf59e5477ec076db
ariostiweg,"Ariostiweg in Leipzig, Germany",51.3214845,12.477854,1,,,,Pipeline,"Ariostiweg in Leipzig, Germany",,german_fires_lepzig_locations,3286c7e23e6b7be64256a156e629a6af,german_fires_lepzig_locations__3286c7e23e6b7be64256a156e629a6af
arlandbogen,"Arlandbogen in Leipzig, Germany",51.3045434,12.4372797,1,,,,Shipping,"Arlandbogen in Leipzig, Germany",,german_fires_lepzig_locations,4a7f301fbbe3fdb4b7fa1eb88b8a889d,german_fires_lepzig_locations__4a7f301fbbe3fdb4b7fa1eb88b8a889d
arminiushof,"Arminiushof in Leipzig, Germany",51.3097384,12.3993034,1,,,,AAEntity,"Arminiushof in Leipzig, Germany",,german_fires_lepzig_locations,a0f310507981bfd7cfa1e4661efa53ce,german_fires_lepzig_locations__a0f310507981bfd7cfa1e4661efa53ce
arndts hufen,"Arndts Hufen in Leipzig, Germany",51.3832741,12.4443505,1,,,,Organization,"Arndts Hufen in Leipzig, Germany",,german_fires_lepzig_locations,ed106e923b4e0c8c6d7b09d520283896,german_fires_lepzig_locations__ed106e923b4e0c8c6d7b09d520283896
arndtstrasse,"Arndtstrasse in Leipzig, Germany",51.3231682,12.3734666,1,,,,Shipping,"Arndtstrasse in Leipzig, Germany",,german_fires_lepzig_locations,01d772936ff5079b98248b4ebfb1e59c,german_fires_lepzig_locations__01d772936ff5079b98248b4ebfb1e59c
arnikaweg,"Arnikaweg in Leipzig, Germany",51.3889153,12.2698468,1,,,,Consulates,"Arnikaweg in Leipzig, Germany",,german_fires_lepzig_locations,0fd3b78f6e5f2d2ba017b9ca697ace6c,german_fires_lepzig_locations__0fd3b78f6e5f2d2ba017b9ca697ace6c
arno-bruchardt-strasse,"Arno-Bruchardt-Strasse in Leipzig, Germany",51.3986839,12.3777214,1,,,,Pipeline,"Arno-Bruchardt-Strasse in Leipzig, Germany",,german_fires_lepzig_locations,b47f43a333bfdaaeffda1da66c2a865c,german_fires_lepzig_locations__b47f43a333bfdaaeffda1da66c2a865c
arno-nitzsche-strasse,"Arno-Nitzsche-Strasse in Leipzig, Germany",51.3096562,12.3842972,1,,,,Keyphrase,"Arno-Nitzsche-Strasse in Leipzig, Germany",,german_fires_lepzig_locations,882427dcee4b9466814cdd19e1792985,german_fires_lepzig_locations__882427dcee4b9466814cdd19e1792985
arnoldplatz,"Arnoldplatz in Leipzig, Germany",51.3479408,12.4928504,1,,,,IndustryTerm,"Arnoldplatz in Leipzig, Germany",,german_fires_lepzig_locations,bbd6777c655a58f2ff89e8908dab32d5,german_fires_lepzig_locations__bbd6777c655a58f2ff89e8908dab32d5
arnoldstrasse,"Arnoldstrasse in Leipzig, Germany",51.3211187,12.4190271,1,,,,Shipping,"Arnoldstrasse in Leipzig, Germany",,german_fires_lepzig_locations,6b2e6ebbc5679f984376b294fcdae2f3,german_fires_lepzig_locations__6b2e6ebbc5679f984376b294fcdae2f3
