german_text,caption_text,lat,lon,ranking,default location,default_lat,default_lon,ENTITY_LABEL,name,description,source,source_identifier,global_identifier
abtnaundorf,"Abtnaundorf in Leipzig, Germany",51.3549122,12.4076323,2,"Leipzig, Germany",51.34255642,12.38332883,AAEntity,"Abtnaundorf in Leipzig, Germany",,german_fires_lepzig_locations,bb670ebd6b943fc654d77229e3dbd915,german_fires_lepzig_locations__72179d4d2f93e89b8be9d1f4d4893a3d
althen,"Althen in Leipzig, Germany",51.3369791,12.5245542,2,,,,CompanyKeyword,"Althen in Leipzig, Germany",,german_fires_lepzig_locations,8b724edfd432b89b1b19fa6029e52df7,german_fires_lepzig_locations__18df7913dcb0e5e50fca0b6cb0a97826
anger,"Anger in Leipzig, Germany",51.3359628,12.4229653,2,,,,Organization,"Anger in Leipzig, Germany",,german_fires_lepzig_locations,c7a5dea2815bf09370badd09aed712c1,german_fires_lepzig_locations__2bb41b145cdaf1d56d25bc8c0931a44d
baalsdorf,"Baalsdorf in Leipzig, Germany",51.3247917,12.4895813,2,,,,DiplomaticFacilities,"Baalsdorf in Leipzig, Germany",,german_fires_lepzig_locations,83e84ca11b148d35622aa3e5296d8339,german_fires_lepzig_locations__2480cd1094e04c9895ad3fc4a44e8381
barneck,"Barneck in Leipzig, Germany",51.3385738,12.3784615,2,,,,ForeignMinister,"Barneck in Leipzig, Germany",,german_fires_lepzig_locations,5663e84bf87d0fa0ac535a4d7895b990,german_fires_lepzig_locations__62b1db0be1556c806d94b9386fd55242
barneck,"Barneck in Leipzig, Germany",51.3385738,12.3784615,2,,,,Media,"Barneck in Leipzig, Germany",,german_fires_lepzig_locations,2ad9804eddb64ffb118a79957e7b23a6,german_fires_lepzig_locations__62b1db0be1556c806d94b9386fd55242
bohlitz,"Bohlitz in Leipzig, Germany",51.3567237,12.2909554,2,,,,ForeignMinistry,"Bohlitz in Leipzig, Germany",,german_fires_lepzig_locations,8746921901ccffcf89460814ae068d94,german_fires_lepzig_locations__68f2d5c6ad6262dde8e2c51df7cd6765
bosdorf,"Bosdorf in Leipzig, Germany",51.2517613,12.2990641,2,,,,Shipping,"Bosdorf in Leipzig, Germany",,german_fires_lepzig_locations,d2919fbad4f0f5c645a25a0fcb5860ae,german_fires_lepzig_locations__5986732ea4df2027bac5cee9acc070b6
breitenfeld,"Breitenfeld in Leipzig, Germany",51.4041521,12.3413302,2,,,,Shipping,"Breitenfeld in Leipzig, Germany",,german_fires_lepzig_locations,77d69921750ab1390ecf0c73d377d8c0,german_fires_lepzig_locations__1f914ff34854c3465770d957e3527fec
burgaue,"Burgaue in Leipzig, Germany",51.3685521,12.2997466,2,,,,Refinery,"Burgaue in Leipzig, Germany",,german_fires_lepzig_locations,73059134f9aeecf2b1aecf4be394e5e6,german_fires_lepzig_locations__bbe1b6bea6e6d3d66e4019d02f5f2e1f
burghausen,"Burghausen in Leipzig, Germany",51.3546139,12.2606793,2,,,,Consulates,"Burghausen in Leipzig, Germany",,german_fires_lepzig_locations,944ecfd587f8903d907a080f7c9e4671,german_fires_lepzig_locations__66928005b377949d8836e5a0a6f9cb58
cleuden,"Cleuden in Leipzig, Germany",51.3396955,12.3730747,2,,,,Refinery,"Cleuden in Leipzig, Germany",,german_fires_lepzig_locations,eda7dfbd3bb888be2237922314ab38bf,german_fires_lepzig_locations__3a3493539a2db4b1b1ee7ace32d247e0
connewitz,"Connewitz in Leipzig, Germany",51.3078032,12.375401,2,,,,Organization,"Connewitz in Leipzig, Germany",,german_fires_lepzig_locations,96cf94a094273d168c316a61d747c4e9,german_fires_lepzig_locations__e847f256c865b264db798d6bf06eb165
crottendorf,"Crottendorf in Leipzig, Germany",51.3359628,12.4229653,2,,,,Person,"Crottendorf in Leipzig, Germany",,german_fires_lepzig_locations,c226f956ddfe7878a95c3f21c6b34c2c,german_fires_lepzig_locations__26c22f8014e13d375d467bfbbd12debd
dobschutz,"Dobschutz in Leipzig, Germany",51.146401,13.272736,2,,,,Exec,"Dobschutz in Leipzig, Germany",,german_fires_lepzig_locations,019ed3ef2e0269df503a4718460f734b,german_fires_lepzig_locations__254a84535dc4bb66a76409bd22f999c9
dolitz,"Dolitz in Leipzig, Germany",51.2874168,12.3918998,2,,,,CompanyKeyword,"Dolitz in Leipzig, Germany",,german_fires_lepzig_locations,0c05def6e7140af3780c0e8a0b9b1945,german_fires_lepzig_locations__18e09c21c1597070ca617366dba3ebb5
dolitz,"Dolitz in Leipzig, Germany",51.2874168,12.3918998,2,,,,FTO,"Dolitz in Leipzig, Germany",,german_fires_lepzig_locations,c664c6d7e153a5d4c025154b472ff60d,german_fires_lepzig_locations__18e09c21c1597070ca617366dba3ebb5
dosen,"Dosen in Leipzig, Germany",51.2891573,12.4128558,2,,,,space,"Dosen in Leipzig, Germany",,german_fires_lepzig_locations,ff96b3603a8a1703522af573bd58a532,german_fires_lepzig_locations__71e104460f72599668331c8cef985345
ehrenberg,"Ehrenberg in Leipzig, Germany",51.3567237,12.2909554,2,,,,IndustryTerm,"Ehrenberg in Leipzig, Germany",,german_fires_lepzig_locations,a55bfdf40ca80683e3dadefcccbbf909,german_fires_lepzig_locations__e1e086e361541ec99b68d25bdb366960
engelsdorf,"Engelsdorf in Leipzig, Germany",51.3382024,12.4799296,2,,,,Diplomat,"Engelsdorf in Leipzig, Germany",,german_fires_lepzig_locations,6b542d066bb27e9cf8d5fb506aab23b6,german_fires_lepzig_locations__71a1b56fc4b12a7104a9c011b4529ec4
eutritzsch,"Eutritzsch in Leipzig, Germany",51.3731585,12.3864518,2,,,,Exec,"Eutritzsch in Leipzig, Germany",,german_fires_lepzig_locations,b926f7a9d938556bb3748b303444e56a,german_fires_lepzig_locations__4dd23f34be3f77ff50a8c3a34754e7c8
eythra,"Eythra in Leipzig, Germany",51.30676,12.26991,2,,,,AAEntity,"Eythra in Leipzig, Germany",,german_fires_lepzig_locations,0b125bc7890c6a16a1f16a564e5a4542,german_fires_lepzig_locations__7c4ff911ca58d190c79b44212752432d
flickert,"Flickert in Leipzig, Germany",51.2885404,12.2788018,2,,,,Wells,"Flickert in Leipzig, Germany",,german_fires_lepzig_locations,2918d96d96f5c531b34e3f667648f215,german_fires_lepzig_locations__15f13b5fa1780e6b64285b1d84955d2c
gobschelwitz,"Gobschelwitz in Leipzig, Germany",51.422475,12.4234179,2,,,,Media,"Gobschelwitz in Leipzig, Germany",,german_fires_lepzig_locations,205d361b76be7d10d867065c5b31a6c2,german_fires_lepzig_locations__48a411fadb9738fe336b6d7c05f2b2b9
gohlis,"Gohlis in Leipzig, Germany",51.364498,12.3678559,2,,,,CompanyKeyword,"Gohlis in Leipzig, Germany",,german_fires_lepzig_locations,d86297b98c53b2e4b631b37f526cff62,german_fires_lepzig_locations__17e6e4f23c4eea9dedbba6649b45badc
gohrenz,"Gohrenz in Leipzig, Germany",51.2894303,12.2545395,2,,,,Exec,"Gohrenz in Leipzig, Germany",,german_fires_lepzig_locations,bafd9facccf5882e091a18d3bd1f6fc2,german_fires_lepzig_locations__aae2b6366b16b579e6c45c033842dc38
gottscheina,"Gottscheina in Leipzig, Germany",51.4265874,12.4842527,2,,,,Consulates,"Gottscheina in Leipzig, Germany",,german_fires_lepzig_locations,a26c09c7838f08da184fa644ed8b983f,german_fires_lepzig_locations__671548e1841ee05d480ab7d901681c64
grossmiltitz,"Grossmiltitz in Leipzig, Germany",51.3396955,12.3730747,2,,,,ForeignMinister,"Grossmiltitz in Leipzig, Germany",,german_fires_lepzig_locations,4c88d34360f287605c0acccd95615255,german_fires_lepzig_locations__4d8e756bc4ad2e714cab2f0ef404eac4
grosswiederitzsch,"Grosswiederitzsch in Leipzig, Germany",51.3895728,12.3699438,2,,,,ForeignMinister,"Grosswiederitzsch in Leipzig, Germany",,german_fires_lepzig_locations,527ee2f339a495b992eb6a612777f09c,german_fires_lepzig_locations__670df6a53702f9aac3dbb64d9cee2b42
grosszschocher,"Grosszschocher in Leipzig, Germany",51.3014611,12.3102421,2,,,,Consulates,"Grosszschocher in Leipzig, Germany",,german_fires_lepzig_locations,588c40cab53d1b4424eba5130dbd9b6a,german_fires_lepzig_locations__76601a5fde5107507d26093f61981a1c
grosszschocher,"Grosszschocher in Leipzig, Germany",51.3014611,12.3102421,2,,,,Shipping,"Grosszschocher in Leipzig, Germany",,german_fires_lepzig_locations,b539ed362606b5d2eee635dd20923e07,german_fires_lepzig_locations__76601a5fde5107507d26093f61981a1c
gundorf,"Gundorf in Leipzig, Germany",51.3647799,12.2652097,2,,,,Keyphrase,"Gundorf in Leipzig, Germany",,german_fires_lepzig_locations,5a5e43a6ac08c5c77c2d355b7aca0694,german_fires_lepzig_locations__f8f28cf61bbd3c628a4b084a1de0ab9d
hanichen,"Hanichen in Leipzig, Germany",51.385143,12.2657214,2,,,,Person,"Hanichen in Leipzig, Germany",,german_fires_lepzig_locations,2b6987a333a8aa4fba3d1b53a633d9d1,german_fires_lepzig_locations__913af060a23dbbca39a77ea5a9172210
hartmannsdorf,"Hartmannsdorf in Leipzig, Germany",51.261618,12.3063565,2,,,,AAEntity,"Hartmannsdorf in Leipzig, Germany",,german_fires_lepzig_locations,4bddb549464d4e852cfd48cb228ab7b6,german_fires_lepzig_locations__0e8577910d59cde22ba859f56101eb99
heiterblick,"Heiterblick in Leipzig, Germany",51.3620034,12.4531227,2,,,,AAEntity,"Heiterblick in Leipzig, Germany",,german_fires_lepzig_locations,73af59f5ddfc8ad7c580b57767b08bca,german_fires_lepzig_locations__1cf53901a88db30b916175ce5f34cc2f
hirschfeld,"Hirschfeld in Leipzig, Germany",51.3244092,12.5273043,2,,,,Organization,"Hirschfeld in Leipzig, Germany",,german_fires_lepzig_locations,53e2dcd9f1bc85f662bd090c41c83d81,german_fires_lepzig_locations__a8fc0d084bfd1afd1abcae010e6b0095
hohenheida,"Hohenheida in Leipzig, Germany",51.426699,12.4584937,2,,,,DiplomaticFacilities,"Hohenheida in Leipzig, Germany",,german_fires_lepzig_locations,672b9e7b6d6c026dec8e35b6f010fdb3,german_fires_lepzig_locations__bfa86e772c73527a87017254ab079c5e
holzhausen,"Holzhausen in Leipzig, Germany",51.3074121,12.4780189,2,,,,ForeignMinister,"Holzhausen in Leipzig, Germany",,german_fires_lepzig_locations,da9e881b9eb5fa07176a44e7c21f1979,german_fires_lepzig_locations__214db149fee55c291e4e1b1ee4cceb5b
kaserne 106 mockern,"Kaserne 106 Mockern in Leipzig, Germany",51.3696188,12.338092,2,,,,Organization,"Kaserne 106 Mockern in Leipzig, Germany",,german_fires_lepzig_locations,a26d27fb806baa47f075cf5e2a145432,german_fires_lepzig_locations__6080117a802396d8b36abbfe6d3b0d43
kleinmiltitz,"Kleinmiltitz in Leipzig, Germany",51.3396955,12.3730747,2,,,,Exec,"Kleinmiltitz in Leipzig, Germany",,german_fires_lepzig_locations,258e8acf08316cfc60c443932f974409,german_fires_lepzig_locations__e9ec06cfbc838a400269ef583cab5860
kleinposna,"Kleinposna in Leipzig, Germany",51.3108525,12.5200181,2,,,,Pipeline,"Kleinposna in Leipzig, Germany",,german_fires_lepzig_locations,86a416dd7b973b9c4ea994cb71b6c9be,german_fires_lepzig_locations__c3cb677b3326e4dff2528ac12723d7fe
kleinwiederitzsch,"Kleinwiederitzsch in Leipzig, Germany",51.396489,12.367539,2,,,,Person,"Kleinwiederitzsch in Leipzig, Germany",,german_fires_lepzig_locations,94529367742705041b0f89ecec69f5ae,german_fires_lepzig_locations__87dbbbedd1c66b36c2257472eca7c4cc
kleinzschocher,"Kleinzschocher in Leipzig, Germany",51.3159485,12.3240541,2,,,,AAEntity,"Kleinzschocher in Leipzig, Germany",,german_fires_lepzig_locations,801ace6cb5accdbf3e27c577f1b996c5,german_fires_lepzig_locations__26e6a87c4838063747966b143ef38e27
kleinzschocher,"Kleinzschocher in Leipzig, Germany",51.3159485,12.3240541,2,,,,Organization,"Kleinzschocher in Leipzig, Germany",,german_fires_lepzig_locations,0dfc2a3836a945a41a284741233a03b3,german_fires_lepzig_locations__26e6a87c4838063747966b143ef38e27
knauthain,"Knauthain in Leipzig, Germany",51.2717203,12.30709,2,,,,Wells,"Knauthain in Leipzig, Germany",,german_fires_lepzig_locations,7902686efb2e4e8ae4dd9d4d44307757,german_fires_lepzig_locations__358de03aa7b9088b1ac2217f049d925b
knautkleeberg,"Knautkleeberg in Leipzig, Germany",51.2818452,12.310029,2,,,,Wells,"Knautkleeberg in Leipzig, Germany",,german_fires_lepzig_locations,50c49dd190cf546f82096bdde100f321,german_fires_lepzig_locations__03dce387c62ebe96409026c12b99a7f3
knautnaundorf,"Knautnaundorf in Leipzig, Germany",51.2538939,12.271484,2,,,,IndustryTerm,"Knautnaundorf in Leipzig, Germany",,german_fires_lepzig_locations,10bd5a639860bfdc3653f4b191b4a15a,german_fires_lepzig_locations__b5b4b1fdd3970be4a467e624f6a02f71
kulkwitz,"Kulkwitz in Leipzig, Germany",51.2874716,12.2353804,2,,,,Keyphrase,"Kulkwitz in Leipzig, Germany",,german_fires_lepzig_locations,58cf8e2ac3df798d2697ef0065b35839,german_fires_lepzig_locations__00a413ef67e71538ea87ec031e52ce39
lauer,"Lauer in Leipzig, Germany",51.2716101,12.3408267,2,,,,ForeignMinister,"Lauer in Leipzig, Germany",,german_fires_lepzig_locations,f56c195aa85a876eb9ab5c100965253c,german_fires_lepzig_locations__4b4a223d1cfe2485b9bdd51e043a027a
lausen,"Lausen in Leipzig, Germany",51.3074032,12.2543062,2,,,,Legislator,"Lausen in Leipzig, Germany",,german_fires_lepzig_locations,2f167d6f39d45767c92948f3e81f9ead,german_fires_lepzig_locations__3e58e041a107120a07081a75966af333
leutzsch,"Leutzsch in Leipzig, Germany",51.353743,12.3189719,2,,,,Refinery,"Leutzsch in Leipzig, Germany",,german_fires_lepzig_locations,8ce5011aec391137e4491ae0be9b9450,german_fires_lepzig_locations__39fa4a915ebdf62c50cb0347a99b501e
leutzsch,"Leutzsch in Leipzig, Germany",51.353743,12.3189719,2,,,,Legislator,"Leutzsch in Leipzig, Germany",,german_fires_lepzig_locations,73ce4a19d1dbcbc9fadcd8441b91ca86,german_fires_lepzig_locations__39fa4a915ebdf62c50cb0347a99b501e
liebertwolkwitz,"Liebertwolkwitz in Leipzig, Germany",51.2802496,12.4692059,2,,,,Refinery,"Liebertwolkwitz in Leipzig, Germany",,german_fires_lepzig_locations,84c76cc4cd13f3cd3fe2745939fdf0a0,german_fires_lepzig_locations__32e36cecead4185044c084fe89759fdf
lindenau,"Lindenau in Leipzig, Germany",51.3326403,12.3296974,2,,,,ForeignMinistry,"Lindenau in Leipzig, Germany",,german_fires_lepzig_locations,393cfe8d4e064fb48e4563e9d5110abe,german_fires_lepzig_locations__f0a1de455a9e0ff2a172367b6f8bf23d
lindenthal,"Lindenthal in Leipzig, Germany",51.3927717,12.3286742,2,,,,space,"Lindenthal in Leipzig, Germany",,german_fires_lepzig_locations,e4318d0b9b63b6a75d2ec4b4d8b2a104,german_fires_lepzig_locations__11779640ea558527d64d632b37ae5d3a
lossnig,"Lossnig in Leipzig, Germany",51.2975654,12.3964701,2,,,,LegislativeCommittee,"Lossnig in Leipzig, Germany",,german_fires_lepzig_locations,3091e6e612133b8e99c216b4047cc712,german_fires_lepzig_locations__589463435ca900de2c83d6a0e44d6c4f
lossnig,"Lossnig in Leipzig, Germany",51.2975654,12.3964701,2,,,,AAEntity,"Lossnig in Leipzig, Germany",,german_fires_lepzig_locations,c8ab8f28183b451260bd1fd0c7863e4d,german_fires_lepzig_locations__589463435ca900de2c83d6a0e44d6c4f
lusitz,"Lusitz in Leipzig, Germany",51.3385738,12.3784615,2,,,,Organization,"Lusitz in Leipzig, Germany",,german_fires_lepzig_locations,c01a7efedea907beabde9f54c32d8afa,german_fires_lepzig_locations__af1265a614e0a7fa6932672c20a19e94
lutzschena,"Lutzschena in Leipzig, Germany",51.3820013,12.2858938,2,,,,Organization,"Lutzschena in Leipzig, Germany",,german_fires_lepzig_locations,7464ca058c5fa335a53bd479593ee7cd,german_fires_lepzig_locations__aae1fd811b0722c47bba003ef2ab7629
meusdorf,"Meusdorf in Leipzig, Germany",51.2894367,12.4349963,2,,,,Shipping,"Meusdorf in Leipzig, Germany",,german_fires_lepzig_locations,8468f45be970c29dd077066ec904c11c,german_fires_lepzig_locations__fbe218108fb4b653062153da3c7eca38
meusdorf,"Meusdorf in Leipzig, Germany",51.2894367,12.4349963,2,,,,Exec,"Meusdorf in Leipzig, Germany",,german_fires_lepzig_locations,1788bc736404816b54543e50a7f92410,german_fires_lepzig_locations__fbe218108fb4b653062153da3c7eca38
mockau,"Mockau in Leipzig, Germany",51.3868977,12.4073537,2,,,,Shipping,"Mockau in Leipzig, Germany",,german_fires_lepzig_locations,2a2c5ba913a12ce8510c5b325eb80de4,german_fires_lepzig_locations__502ed6d9b3991ea85d76426e0386d5e5
mockern,"Mockern in Leipzig, Germany",51.3696188,12.338092,2,,,,Exec,"Mockern in Leipzig, Germany",,german_fires_lepzig_locations,d0b428dcf1b5db80de78644c1d3d7e1b,german_fires_lepzig_locations__d13be6771918d7ca3a0d0034c55bc067
mockern,"Mockern in Leipzig, Germany",51.3696188,12.338092,2,,,,News,"Mockern in Leipzig, Germany",,german_fires_lepzig_locations,75e3be934b1e181f7d6f4e6cb06e8bb8,german_fires_lepzig_locations__d13be6771918d7ca3a0d0034c55bc067
molkau,"Molkau in Leipzig, Germany",51.3300829,12.440517,2,,,,Consulates,"Molkau in Leipzig, Germany",,german_fires_lepzig_locations,d777a70371ac792609c1167b9bb974f2,german_fires_lepzig_locations__436aee78fa71829de0570032f9d0f954
neblitz,"Neblitz in Leipzig, Germany",51.4433278,12.4642484,2,,,,Organization,"Neblitz in Leipzig, Germany",,german_fires_lepzig_locations,ee9015334831e50860d6e5a52a55044f,german_fires_lepzig_locations__b795b01db9887d5a9968cc09f35bbbc1
neureudnitz,"Neureudnitz in Leipzig, Germany",51.3385738,12.3784615,2,,,,DiplomaticFacilities,"Neureudnitz in Leipzig, Germany",,german_fires_lepzig_locations,26d6223217e0ea731c7266d5cc5afa63,german_fires_lepzig_locations__21e9e3d894583fd5e6741447e0355a84
neuscherbitz,"Neuscherbitz in Leipzig, Germany",51.3385738,12.3784615,2,,,,CompanyKeyword,"Neuscherbitz in Leipzig, Germany",,german_fires_lepzig_locations,cef384e22d41e91244097192df0ad25f,german_fires_lepzig_locations__b0e3e0bfe040855a88ba1570870ed4a9
neusellerhausen,"Neusellerhausen in Leipzig, Germany",51.3385738,12.3784615,2,,,,Diplomat,"Neusellerhausen in Leipzig, Germany",,german_fires_lepzig_locations,b16dac34c0d983d2354a3ef94496419b,german_fires_lepzig_locations__9a16a908701232e688b48e1846042a25
neuschonefeld,"Neuschonefeld in Leipzig, Germany",51.3411346,12.3995831,2,,,,Pipeline,"Neuschonefeld in Leipzig, Germany",,german_fires_lepzig_locations,02b5bda7dcae038f3e124f70d71e4999,german_fires_lepzig_locations__2a21b5774cae9f37a85e50e31788ad43
neustadt,"Neustadt in Leipzig, Germany",51.3467535,12.4030344,2,,,,Consulates,"Neustadt in Leipzig, Germany",,german_fires_lepzig_locations,13b19cdcda095195b31b2d3877f381c0,german_fires_lepzig_locations__bbf2e8c1cbe319f75032dc5538afc7b5
neutzsch,"Neutzsch in Leipzig, Germany",51.3396955,12.3730747,2,,,,space,"Neutzsch in Leipzig, Germany",,german_fires_lepzig_locations,85ce68d37eb3ddef1c0b09d39f56cf66,german_fires_lepzig_locations__7c737d2c82712732d8c51d454d729add
paunsdorf,"Paunsdorf in Leipzig, Germany",51.3539553,12.4660314,2,,,,ForeignMinistry,"Paunsdorf in Leipzig, Germany",,german_fires_lepzig_locations,109ec3b1c16dbe40325798efbe313f3f,german_fires_lepzig_locations__4fd78390b32e47ba0dfa26a868453367
paunsdorf,"Paunsdorf in Leipzig, Germany",51.3539553,12.4660314,2,,,,Diplomat,"Paunsdorf in Leipzig, Germany",,german_fires_lepzig_locations,7eb44f7150b4c8565c04edf54bf0645e,german_fires_lepzig_locations__4fd78390b32e47ba0dfa26a868453367
petzscher mark,"Petzscher Mark in Leipzig, Germany",51.3605799,12.3822408,2,,,,LegislativeCommittee,"Petzscher Mark in Leipzig, Germany",,german_fires_lepzig_locations,a0aefcf5988765466b15ff4d3df0aaaf,german_fires_lepzig_locations__6bf56c35445160e0256828d19a336b06
pfaffendorf,"Pfaffendorf in Leipzig, Germany",51.3385738,12.3784615,2,,,,ForeignMinistry,"Pfaffendorf in Leipzig, Germany",,german_fires_lepzig_locations,437a3a0795a404399378f0cb928be59f,german_fires_lepzig_locations__a5f80716ed125d48191a0e6887b67e13
plagwitz,"Plagwitz in Leipzig, Germany",51.3261051,12.3286031,2,,,,Pipeline,"Plagwitz in Leipzig, Germany",,german_fires_lepzig_locations,620c3b4ba05bea59fa56eb5a08f1ca70,german_fires_lepzig_locations__c0b7d9f4e6bcdc66b8e2cbcdcfb98bb4
plaussig,"Plaussig in Leipzig, Germany",51.3946945,12.4587283,2,,,,Consulates,"Plaussig in Leipzig, Germany",,german_fires_lepzig_locations,676f22406333dc3ab46fbdb6719d1051,german_fires_lepzig_locations__6f81d9193ddccb911037a54e9dfcdbeb
plosen,"Plosen in Leipzig, Germany",38.8867076,-77.0326074,2,,,,News,"Plosen in Leipzig, Germany",,german_fires_lepzig_locations,ac78198f5e805e1ab7a5b8fa311f9ed1,german_fires_lepzig_locations__307ad0e3f5c5364f5a7e6fdb4c9af973
portitz,"Portitz in Leipzig, Germany",51.3946945,12.4587283,2,,,,Legislator,"Portitz in Leipzig, Germany",,german_fires_lepzig_locations,1d5a43467b18185e2ef9438c1628511a,german_fires_lepzig_locations__48768711e6e19c088f3e350eb858feac
probstheida,"Probstheida in Leipzig, Germany",51.3047071,12.4290486,2,,,,DiplomaticFacilities,"Probstheida in Leipzig, Germany",,german_fires_lepzig_locations,ab4cadd6a73269a19c5258ef9e809588,german_fires_lepzig_locations__8d27ab2cae82e2bedf53738b6d02a1c2
quasnitz,"Quasnitz in Leipzig, Germany",51.3844654,12.2758876,2,,,,ForeignMinister,"Quasnitz in Leipzig, Germany",,german_fires_lepzig_locations,803c37f398dfd9e928d7a930d3a6b702,german_fires_lepzig_locations__3b6aa7e637930e746409e9f03a7d00a5
rehbach,"Rehbach in Leipzig, Germany",51.2688972,12.2664275,2,,,,Refinery,"Rehbach in Leipzig, Germany",,german_fires_lepzig_locations,4d61230bd6d35e60ecceb38d75c467ca,german_fires_lepzig_locations__76dbde63176ba41e0afa0c31fd8956f5
reudnitz,"Reudnitz in Leipzig, Germany",51.3327667,12.4031568,2,,,,Legislator,"Reudnitz in Leipzig, Germany",,german_fires_lepzig_locations,67f4295cf4adbf9433e0c2b5486aef6d,german_fires_lepzig_locations__c25379876f5c46abc962f5ae3651657a
rosental,"Rosental in Leipzig, Germany",51.3492999,12.3635452,2,,,,Organization,"Rosental in Leipzig, Germany",,german_fires_lepzig_locations,8d6be761c76fe0501228be97b847dde2,german_fires_lepzig_locations__00cca4c46c180c8d52de83187af267dc
ruckmarsdorf,"Ruckmarsdorf in Leipzig, Germany",51.3371414,12.274882,2,,,,Shipping,"Ruckmarsdorf in Leipzig, Germany",,german_fires_lepzig_locations,0a5837baca636ba001ea4c1d0ddec3e6,german_fires_lepzig_locations__0747abbd640c94773464ab595bbe8ae7
schleussig,"Schleussig in Leipzig, Germany",51.3187862,12.347325,2,,,,CompanyKeyword,"Schleussig in Leipzig, Germany",,german_fires_lepzig_locations,58e45dad24e4ac2e299c01c42849df86,german_fires_lepzig_locations__b988d476e9b2c491bc464d075e9f4b19
schonau,"Schonau in Leipzig, Germany",51.3298309,12.2936089,2,,,,CompanyKeyword,"Schonau in Leipzig, Germany",,german_fires_lepzig_locations,58044879f57ee9068b09e1366c61c8b4,german_fires_lepzig_locations__c288b298b255c20e58c43789b831c8a1
schonefeld,"Schonefeld in Leipzig, Germany",51.3628098,12.4332571,2,,,,LegislativeCommittee,"Schonefeld in Leipzig, Germany",,german_fires_lepzig_locations,77942d8e1e8259b57d78a47ed88fdaef,german_fires_lepzig_locations__a9df6f83c0f678481aeb14a5e5ddf557
seehausen,"Seehausen in Leipzig, Germany",51.4061849,12.4186447,2,,,,Wells,"Seehausen in Leipzig, Germany",,german_fires_lepzig_locations,7de58ccff1e30a346a7b7696aebf71f4,german_fires_lepzig_locations__e78ddc241a8d45633bb857e2585356a4
sellerhausen,"Sellerhausen in Leipzig, Germany",51.3475751,12.4263725,2,,,,ForeignMinistry,"Sellerhausen in Leipzig, Germany",,german_fires_lepzig_locations,068a0c18d17ffe73fd2d70ab97d4b58a,german_fires_lepzig_locations__690776b03fb907c28cb769d88812fd9a
sommerfeld,"Sommerfeld in Leipzig, Germany",51.3450915,12.4988022,2,,,,Shipping,"Sommerfeld in Leipzig, Germany",,german_fires_lepzig_locations,0dd24adfd003f68245b4b5b42fcab664,german_fires_lepzig_locations__d5e70c1de85639ad261cf463a6cdb5b3
stahmeln,"Stahmeln in Leipzig, Germany",51.3820013,12.2858938,2,,,,DiplomaticFacilities,"Stahmeln in Leipzig, Germany",,german_fires_lepzig_locations,3897611891a2b5e7efd72895dbae4b7b,german_fires_lepzig_locations__433962e3ef6a43e4bd986ed3186d38d9
stotteritz,"Stotteritz in Leipzig, Germany",51.3214381,12.421917,2,,,,Wells,"Stotteritz in Leipzig, Germany",,german_fires_lepzig_locations,27f75c08fe65943a634094052f6c0111,german_fires_lepzig_locations__f3f6bc2bbb296311b25a02edbeea5e17
stunz,"Stunz in Leipzig, Germany",51.3409901,12.4380989,2,,,,Legislator,"Stunz in Leipzig, Germany",,german_fires_lepzig_locations,24c56b355d9c460be33c80a45b3248af,german_fires_lepzig_locations__538c1cdb2293aaf6d8db8a12290ac03b
thonberg,"Thonberg in Leipzig, Germany",51.3214857,12.4090863,2,,,,FTO,"Thonberg in Leipzig, Germany",,german_fires_lepzig_locations,4652680e79c11afb4ec67a511d28b08e,german_fires_lepzig_locations__7cdab9a8d042801c71bb6d88c0783f01
volkmarsdorf,"Volkmarsdorf in Leipzig, Germany",51.3454607,12.408881,2,,,,Consulates,"Volkmarsdorf in Leipzig, Germany",,german_fires_lepzig_locations,1943dffe5929fc0b540b21e3f88c28a1,german_fires_lepzig_locations__4f26d632cb2b959cbd51c4e38bc35666
wahren,"Wahren in Leipzig, Germany",51.3759892,12.3168477,2,,,,Pipeline,"Wahren in Leipzig, Germany",,german_fires_lepzig_locations,d63b15d090bf5e65c637d4560a466200,german_fires_lepzig_locations__d0a5c5847774089451768f50808f262f
windorf,"Windorf in Leipzig, Germany",51.2941841,12.3161443,2,,,,space,"Windorf in Leipzig, Germany",,german_fires_lepzig_locations,08b29032ceec97e8b2dc2bb88d99cf8e,german_fires_lepzig_locations__2a2e4374c85b8b40a56d4f76835b12cf
zuckelhausen,"Zuckelhausen in Leipzig, Germany",51.3016913,12.4570592,2,,,,Wells,"Zuckelhausen in Leipzig, Germany",,german_fires_lepzig_locations,fc68131512c4e769644f1e41a0171116,german_fires_lepzig_locations__c0b4cf4d005a4ab51bfedc3e5a7c8e5b
zweinaundorf,"Zweinaundorf in Leipzig, Germany",51.3234982,12.4522363,2,,,,Diplomat,"Zweinaundorf in Leipzig, Germany",,german_fires_lepzig_locations,1d332c052c623032c4a17a774dd5e806,german_fires_lepzig_locations__a120852239657d64fcc452c3f80f8f2b
aachener strasse,"Aachener Strasse in Leipzig, Germany",51.3395235,12.3568627,1,,,,Wells,"Aachener Strasse in Leipzig, Germany",,german_fires_lepzig_locations,3f9262e49d6d65d5f00f63d9ded33464,german_fires_lepzig_locations__aebf408e903ab74b9ba091f0d4411127
abrahamstrasse,"Abrahamstrasse in Leipzig, Germany",51.3357197,12.3060206,1,,,,Keyphrase,"Abrahamstrasse in Leipzig, Germany",,german_fires_lepzig_locations,e1a12778bb43513e2d578ad02a1a0c99,german_fires_lepzig_locations__17ce60b132e2c779cdef287415ee4311
abtnaundorfer strasse,"Abtnaundorfer Strasse in Leipzig, Germany",51.365831,12.4196092,1,,,,ForeignMinistry,"Abtnaundorfer Strasse in Leipzig, Germany",,german_fires_lepzig_locations,1277b7b44c413f4e950c7c2e8e22deb8,german_fires_lepzig_locations__ff72e02741dd9bf8f06e44cdfdb6f3fc
achatstrasse,"Achatstrasse in Leipzig, Germany",51.3395499,12.4810576,1,,,,Media,"Achatstrasse in Leipzig, Germany",,german_fires_lepzig_locations,f65d57915eb8640cf222ea39a75431b5,german_fires_lepzig_locations__6bd40c5eb0293d2b22993f2ecdb2f22c
ackerweg,"Ackerweg in Leipzig, Germany",51.3818933,12.4717709,1,,,,News,"Ackerweg in Leipzig, Germany",,german_fires_lepzig_locations,d3dc32a33f2135e9fafcd397a0cc6c14,german_fires_lepzig_locations__f6cf2c17a96e4b0a55bec44977e67553
adamsweg,"Adamsweg in Leipzig, Germany",51.303444,12.438327,1,,,,Exec,"Adamsweg in Leipzig, Germany",,german_fires_lepzig_locations,cdf03017494d00b26705642c6597f4b9,german_fires_lepzig_locations__44b1c18e13ff216101de333de129226d
addis-abeba-platz,"Addis-Abeba-Platz in Leipzig, Germany",51.3344345,12.3791648,1,,,,Consulates,"Addis-Abeba-Platz in Leipzig, Germany",,german_fires_lepzig_locations,c125133f92706a32d896897cf0b97407,german_fires_lepzig_locations__bff95f98234c6edd4d51e6ea96bedd58
adelgunde-gottsched-weg,"Adelgunde-Gottsched-Weg in Leipzig, Germany",51.3511541,12.4833855,1,,,,Consulates,"Adelgunde-Gottsched-Weg in Leipzig, Germany",,german_fires_lepzig_locations,cb3148a52fb86d58d050b96f14be3a62,german_fires_lepzig_locations__a81e1f8453dde78b4ecd5b054de3deff
adenauerallee,"Adenauerallee in Leipzig, Germany",51.350097,12.4096242,1,,,,Organization,"Adenauerallee in Leipzig, Germany",,german_fires_lepzig_locations,e15715dd2a381d6d12a1a2736d248ca0,german_fires_lepzig_locations__05637617a273b65ea40da5a7a4388eea
adlershelmstrasse,"Adlershelmstrasse in Leipzig, Germany",51.3392132,12.4143137,1,,,,Shipping,"Adlershelmstrasse in Leipzig, Germany",,german_fires_lepzig_locations,853150a83529586279c851ecd15c7377,german_fires_lepzig_locations__41bf116533fee6af7232db934cd21fe0
adolf-damaschke-strasse,"Adolf-Damaschke-Strasse in Leipzig, Germany",51.3371577,12.4791601,1,,,,Organization,"Adolf-Damaschke-Strasse in Leipzig, Germany",,german_fires_lepzig_locations,f56f6a4e5896056441b7ff87295149bb,german_fires_lepzig_locations__311e6c1ee81f9532ad2c28af81d326cb
adolf-koppe-strasse,"Adolf-Koppe-Strasse in Leipzig, Germany",51.3237546,12.4557969,1,,,,Pipeline,"Adolf-Koppe-Strasse in Leipzig, Germany",,german_fires_lepzig_locations,5e013f70d375e877500adb142aed25f1,german_fires_lepzig_locations__fd294956d598260dfc189e1aedd1ece5
adolph-menzel-strasse,"Adolph-Menzel-Strasse in Leipzig, Germany",51.3694779,12.3714065,1,,,,Consulates,"Adolph-Menzel-Strasse in Leipzig, Germany",,german_fires_lepzig_locations,7e6363c872a24b8785b8b43f57af2293,german_fires_lepzig_locations__90dfbf944478f31615e0640cf2efe814
agnesstrasse,"Agnesstrasse in Leipzig, Germany",51.3715104,12.3300912,1,,,,DiplomaticFacilities,"Agnesstrasse in Leipzig, Germany",,german_fires_lepzig_locations,d762ac5b2f0ba798f4cb09dc8dda945d,german_fires_lepzig_locations__965a5f16d876a54c7bcd0aa7f604b529
agricolastrasse,"Agricolastrasse in Leipzig, Germany",51.3148176,12.3440655,1,,,,space,"Agricolastrasse in Leipzig, Germany",,german_fires_lepzig_locations,22c1a09e4656a2f7987b4e9bc3e2e0ed,german_fires_lepzig_locations__97dc488f3cb0c4302a02db541e355156
ahlfeldstrasse,"Ahlfeldstrasse in Leipzig, Germany",51.3418613,12.3213518,1,,,,CompanyKeyword,"Ahlfeldstrasse in Leipzig, Germany",,german_fires_lepzig_locations,9f8a215a027823e05d22524cd218a41d,german_fires_lepzig_locations__48f37188501e2f61f17e627d8fdec3a6
ahorngasse,"Ahorngasse in Leipzig, Germany",51.4212123,12.443598,1,,,,Legislator,"Ahorngasse in Leipzig, Germany",,german_fires_lepzig_locations,0628bb49a801d353c7851d3ac7308892,german_fires_lepzig_locations__4053167193709c5243689c3ca2f471cd
ahornstrasse,"Ahornstrasse in Leipzig, Germany",51.3547657,12.4618785,1,,,,ForeignMinistry,"Ahornstrasse in Leipzig, Germany",,german_fires_lepzig_locations,49e4f7fe838532bf3265bc5f94ccc75e,german_fires_lepzig_locations__f179f6c9d12878d3e8b86e3647f0d630
ahornweg,"Ahornweg in Leipzig, Germany",51.2873357,12.3652499,1,,,,AAEntity,"Ahornweg in Leipzig, Germany",,german_fires_lepzig_locations,deace76d104d81e9e8e1f6c075d7a103,german_fires_lepzig_locations__20aaf477b930778cb6d4f84fb794b6cc
akazienweg,"Akazienweg in Leipzig, Germany",51.3882349,12.3738243,1,,,,Organization,"Akazienweg in Leipzig, Germany",,german_fires_lepzig_locations,bbfad4bc561c05bcf4a12d14f6b60907,german_fires_lepzig_locations__a1dfbe324bc83545bff9428cd742465f
akeleiweg,"Akeleiweg in Leipzig, Germany",51.3375928,12.4953555,1,,,,space,"Akeleiweg in Leipzig, Germany",,german_fires_lepzig_locations,495fd1d724478071d49fbb6e56caf9a9,german_fires_lepzig_locations__6ba4a7d7b71e50006ce1bbb536969438
albersdorfer strasse,"Albersdorfer Strasse in Leipzig, Germany",51.2850664,12.3023075,1,,,,Media,"Albersdorfer Strasse in Leipzig, Germany",,german_fires_lepzig_locations,2599eb9e75437cf67cb1149eaa45cb5d,german_fires_lepzig_locations__893fbd66fff5d06f21550d88950f5394
albersdorfer weg,"Albersdorfer Weg in Leipzig, Germany",51.2745592,12.2731882,1,,,,Organization,"Albersdorfer Weg in Leipzig, Germany",,german_fires_lepzig_locations,224d7afd8f2c26ebde48ba20b0f6b125,german_fires_lepzig_locations__e23990c11209228d4f6fce9f90891da2
albert-schweitzer-strasse,"Albert-Schweitzer-Strasse in Leipzig, Germany",51.3318532,12.4041257,1,,,,CompanyKeyword,"Albert-Schweitzer-Strasse in Leipzig, Germany",,german_fires_lepzig_locations,0187b94144adccf731b89851f104ba54,german_fires_lepzig_locations__e792c5d870a9bf4f9bbd2460912b666b
albert-vollsack-strasse,"Albert-Vollsack-Strasse in Leipzig, Germany",51.3067199,12.32685,1,,,,IndustryTerm,"Albert-Vollsack-Strasse in Leipzig, Germany",,german_fires_lepzig_locations,edc37fa222121a518b21ec98b1ec00df,german_fires_lepzig_locations__eec06126c909b48b049e302db81aec16
albrecht-durer-platz,"Albrecht-Durer-Platz in Leipzig, Germany",51.3236834,12.3777277,1,,,,News,"Albrecht-Durer-Platz in Leipzig, Germany",,german_fires_lepzig_locations,170d7dd5f98b150463427bc959980105,german_fires_lepzig_locations__423ed5f3d4eaede944f696578be1fcc5
albrecht-durer-weg,"Albrecht-Durer-Weg in Leipzig, Germany",51.3486017,12.4626148,1,,,,News,"Albrecht-Durer-Weg in Leipzig, Germany",,german_fires_lepzig_locations,c2635fb39343722467a1eefa160f02be,german_fires_lepzig_locations__00c13da8e5681089e16f9f212dfbabae
albrechtshainer strasse,"Albrechtshainer Strasse in Leipzig, Germany",51.3237938,12.4440423,1,,,,space,"Albrechtshainer Strasse in Leipzig, Germany",,german_fires_lepzig_locations,06a1ce7f2d9a1e1fa4ddb36a5502b3af,german_fires_lepzig_locations__b1d6b31e448d0d05cdb5c417671edcff
alemannenweg,"Alemannenweg in Leipzig, Germany",51.3770203,12.339182,1,,,,LegislativeCommittee,"Alemannenweg in Leipzig, Germany",,german_fires_lepzig_locations,c270579269c91cab2c7bcaa3c89295f2,german_fires_lepzig_locations__71e46de763891c6de525b4d7268bbe28
alexander-alesius-strasse,"Alexander-Alesius-Strasse in Leipzig, Germany",51.324813,12.4505173,1,,,,Pipeline,"Alexander-Alesius-Strasse in Leipzig, Germany",,german_fires_lepzig_locations,b6f658c5118eb8d1b21c9605aa2a9279,german_fires_lepzig_locations__385c809ee45764ae734a29f40010176c
alexanderstrasse,"Alexanderstrasse in Leipzig, Germany",51.339961,12.3627107,1,,,,Diplomat,"Alexanderstrasse in Leipzig, Germany",,german_fires_lepzig_locations,64d50661cd871eed5d8bc201f2530a7d,german_fires_lepzig_locations__c32a794053df65af8d311a4be2ed5fd3
alexis-schumann-platz,"Alexis-Schumann-Platz in Leipzig, Germany",51.3191963,12.37448,1,,,,News,"Alexis-Schumann-Platz in Leipzig, Germany",,german_fires_lepzig_locations,9570a54f586537b208b9ab5f47d77dfc,german_fires_lepzig_locations__b0f98dd95cb416884628aa7375bb381f
alfred-frank-platz,"Alfred-Frank-Platz in Leipzig, Germany",51.3307346,12.4100875,1,,,,IndustryTerm,"Alfred-Frank-Platz in Leipzig, Germany",,german_fires_lepzig_locations,83c7a479c224229234416573a4133800,german_fires_lepzig_locations__8942cee05b763af1694f3e651e541cc6
alfred-frank-strasse,"Alfred-Frank-Strasse in Leipzig, Germany",51.325777,12.3434296,1,,,,Diplomat,"Alfred-Frank-Strasse in Leipzig, Germany",,german_fires_lepzig_locations,aa868cd42da8e31848817fddc163e4e4,german_fires_lepzig_locations__48c7fe65d095b2878a57a3b41944e75d
alfred-kastner-strasse,"Alfred-Kastner-Strasse in Leipzig, Germany",51.322084,12.3736208,1,,,,Diplomat,"Alfred-Kastner-Strasse in Leipzig, Germany",,german_fires_lepzig_locations,edba68433446ae8e2fca12c2f5c10162,german_fires_lepzig_locations__da2f858578d5a148c8b71bbc221a4cf4
alfred-schurig-strasse,"Alfred-Schurig-Strasse in Leipzig, Germany",51.3503003,12.4295191,1,,,,Shipping,"Alfred-Schurig-Strasse in Leipzig, Germany",,german_fires_lepzig_locations,1c4e17936863d049544c7ead80fabbac,german_fires_lepzig_locations__b81013f6dcac73adc0f738c8a8e78fb3
altdorferweg,"Altdorferweg in Leipzig, Germany",51.2850893,12.4424456,1,,,,News,"Altdorferweg in Leipzig, Germany",,german_fires_lepzig_locations,b2f31fdfc0f5278336ebb815c0d18eb2,german_fires_lepzig_locations__8813f32c32f9575807b21f891487720c
alte baumschule,"Alte Baumschule in Leipzig, Germany",51.2754768,12.478833,1,,,,Shipping,"Alte Baumschule in Leipzig, Germany",,german_fires_lepzig_locations,ecb81a63773adf3feeec3379dd8e8796,german_fires_lepzig_locations__a788daae3a02577dab22e73ce53f1cb4
alte burghausener strasse,"Alte Burghausener Strasse in Leipzig, Germany",51.3223879,12.2617359,1,,,,Person,"Alte Burghausener Strasse in Leipzig, Germany",,german_fires_lepzig_locations,ee34dc01964dd48f233e8e498f70222e,german_fires_lepzig_locations__0a6851e6ae4a8ef8593db6e1c68bc036
alte dorfstrasse,"Alte Dorfstrasse in Leipzig, Germany",51.3441432,12.257292,1,,,,DiplomaticFacilities,"Alte Dorfstrasse in Leipzig, Germany",,german_fires_lepzig_locations,6148c64a71d95531bf1138386707d663,german_fires_lepzig_locations__b23bb1f86339be8c3e7e2a4b2a081540
alte dubener landstrasse,"Alte Dubener Landstrasse in Leipzig, Germany",51.4023963,12.3921958,1,,,,Organization,"Alte Dubener Landstrasse in Leipzig, Germany",,german_fires_lepzig_locations,fd2ba1d9a21e3990e59bef7b1caeded8,german_fires_lepzig_locations__d1caa3e66f5620fe1f5df7ff77143843
alte gartnerei,"Alte Gartnerei in Leipzig, Germany",51.2795449,12.4676316,1,,,,Person,"Alte Gartnerei in Leipzig, Germany",,german_fires_lepzig_locations,b3ab22520e6afcfb460612bac779f434,german_fires_lepzig_locations__726fb5ce6658398db1d3a31abd33d698
alte hohe strasse,"Alte Hohe Strasse in Leipzig, Germany",51.3844602,12.4224121,1,,,,ForeignMinistry,"Alte Hohe Strasse in Leipzig, Germany",,german_fires_lepzig_locations,aa35d6fa9d14fb296b44ba5c2816d93a,german_fires_lepzig_locations__2458cbfbe6e3db35964d254a7106e1f8
alte holzhausener strasse,"Alte Holzhausener Strasse in Leipzig, Germany",51.2846697,12.4665506,1,,,,DiplomaticFacilities,"Alte Holzhausener Strasse in Leipzig, Germany",,german_fires_lepzig_locations,be1c51e8b53dbe29a223e2bee239c19a,german_fires_lepzig_locations__19467948eadedd9e2dcf11401f0e7e62
alte landsberger strasse,"Alte Landsberger Strasse in Leipzig, Germany",51.3208444,12.398013,1,,,,CompanyKeyword,"Alte Landsberger Strasse in Leipzig, Germany",,german_fires_lepzig_locations,6af6ff2ce6c4333b5ce47d9569ecfea9,german_fires_lepzig_locations__6905c2b9ea0155dc1bef41ddf9a9f026
alte messe,"Alte Messe in Leipzig, Germany",51.3181072,12.4029049,1,,,,Consulates,"Alte Messe in Leipzig, Germany",,german_fires_lepzig_locations,ac80fdabec4feb214da1ceaba0005ef4,german_fires_lepzig_locations__d4612f87a4553816b66051379a2b93bd
alte parkstrasse,"Alte Parkstrasse in Leipzig, Germany",51.340755,12.3783706,1,,,,Organization,"Alte Parkstrasse in Leipzig, Germany",,german_fires_lepzig_locations,3053a270f6f72f02ed332a0ded522aa8,german_fires_lepzig_locations__fb6c462300536265721ad3309e42efe2
alte salzstrasse,"Alte Salzstrasse in Leipzig, Germany",51.3165468,12.286951,1,,,,Keyphrase,"Alte Salzstrasse in Leipzig, Germany",,german_fires_lepzig_locations,8e829d5ba07f59262e179d4c94f2fa85,german_fires_lepzig_locations__5d8c718cc669664fb30afab006dfe32b
alte schmiede,"Alte Schmiede in Leipzig, Germany",51.3417314,12.2522847,1,,,,ForeignMinister,"Alte Schmiede in Leipzig, Germany",,german_fires_lepzig_locations,965820c738576199fdd5d2cbde5d427d,german_fires_lepzig_locations__82be602551856f61445ac342bd8b6f81
alte seehausener strasse,"Alte Seehausener Strasse in Leipzig, Germany",51.415838,12.4393503,1,,,,Wells,"Alte Seehausener Strasse in Leipzig, Germany",,german_fires_lepzig_locations,46981d0f4d1e66fc46cf3da6428ecf2b,german_fires_lepzig_locations__58bcdc4c517dcb541c7844b1a654d16f
alte strasse,"Alte Strasse in Leipzig, Germany",51.3301821,12.3408534,1,,,,Wells,"Alte Strasse in Leipzig, Germany",,german_fires_lepzig_locations,75ade8846b99d7c024aa3083987b9efc,german_fires_lepzig_locations__559a20895d531a42dcc973b1e6522dad
alte tauchaer strasse,"Alte Tauchaer Strasse in Leipzig, Germany",51.2882968,12.4606369,1,,,,Wells,"Alte Tauchaer Strasse in Leipzig, Germany",,german_fires_lepzig_locations,7c904128ce4170a70063b09100b597c1,german_fires_lepzig_locations__aa87dc43ac777a8ff5574b9367f4f5dd
alte theklaer strasse,"Alte Theklaer Strasse in Leipzig, Germany",51.3904428,12.4484109,1,,,,space,"Alte Theklaer Strasse in Leipzig, Germany",,german_fires_lepzig_locations,62cf26cfcc4197e68abaf9db5ef9411e,german_fires_lepzig_locations__a041dcf775ff403ff5cd0ecc0b5c1909
altenburger strasse,"Altenburger Strasse in Leipzig, Germany",51.3175367,12.3828254,1,,,,Pipeline,"Altenburger Strasse in Leipzig, Germany",,german_fires_lepzig_locations,68599620e8d71836482eb19e57607d2c,german_fires_lepzig_locations__b75f05bdec132eee5551265615ba3a04
alter amtshof,"Alter Amtshof in Leipzig, Germany",51.3373499,12.3702838,1,,,,Legislator,"Alter Amtshof in Leipzig, Germany",,german_fires_lepzig_locations,8e8fc8764efe0650c6d0f3f2c4fc983f,german_fires_lepzig_locations__09b6303532075b5304dc6e79562ff67f
alter kirchweg,"Alter Kirchweg in Leipzig, Germany",51.3769519,12.3055163,1,,,,AAEntity,"Alter Kirchweg in Leipzig, Germany",,german_fires_lepzig_locations,7db33bab2649e66d5f02529e3252ffa9,german_fires_lepzig_locations__d572849e9f45fb6647f2237c537c9677
alter marktweg,"Alter Marktweg in Leipzig, Germany",51.3450896,12.4807651,1,,,,ForeignMinister,"Alter Marktweg in Leipzig, Germany",,german_fires_lepzig_locations,796a1e6785ab186099fffef538d4f31a,german_fires_lepzig_locations__194f368f3e7e268d745143ba8e82c63d
altes dorf,"Altes Dorf in Leipzig, Germany",51.3867481,12.4514438,1,,,,ForeignMinistry,"Altes Dorf in Leipzig, Germany",,german_fires_lepzig_locations,f96a5146e2271ca1ef69dcd967db3b6e,german_fires_lepzig_locations__265ee37ff384d587e401b7d00ac64870
althener anger,"Althener Anger in Leipzig, Germany",51.3386604,12.5162131,1,,,,News,"Althener Anger in Leipzig, Germany",,german_fires_lepzig_locations,1393a6eb1b66cb070655460fa6ffac1a,german_fires_lepzig_locations__5c490ebd1ec7b1ee03180a00fbfeff82
althener strasse,"Althener Strasse in Leipzig, Germany",51.3356896,12.4955699,1,,,,ForeignMinistry,"Althener Strasse in Leipzig, Germany",,german_fires_lepzig_locations,b24270e4dd39bf5a95510b30f9a1d87c,german_fires_lepzig_locations__b3d3c0342b3cf41ba063d9aff8152319
altranstadter strasse,"Altranstadter Strasse in Leipzig, Germany",51.3186376,12.331443,1,,,,Person,"Altranstadter Strasse in Leipzig, Germany",,german_fires_lepzig_locations,3d85d5dc713646a32d571da6d0de4b0f,german_fires_lepzig_locations__3a00e6026a6c043723f9e873f465a9a1
am alten bahnhof,"Am Alten Bahnhof in Leipzig, Germany",51.3029247,12.2633122,1,,,,DiplomaticFacilities,"Am Alten Bahnhof in Leipzig, Germany",,german_fires_lepzig_locations,5e3f492bbc00e77640974248f8e46487,german_fires_lepzig_locations__08495bf3ad2e58cfb6f77653260f532a
am alten flugfeld,"Am Alten Flugfeld in Leipzig, Germany",51.3901433,12.3328246,1,,,,CompanyKeyword,"Am Alten Flugfeld in Leipzig, Germany",,german_fires_lepzig_locations,c257998ffa5391f3318dda2a636dde08,german_fires_lepzig_locations__609426085b371d2a81078bf27d4aac65
am alten flughafen,"Am alten Flughafen in Leipzig, Germany",51.390996,12.3973237,1,,,,CompanyKeyword,"Am alten Flughafen in Leipzig, Germany",,german_fires_lepzig_locations,76c4feae88e5a167ab52934858151880,german_fires_lepzig_locations__574c26aa2927b9d14e615d8d7e0cdccd
am alten gasthof,"Am alten Gasthof in Leipzig, Germany",51.3722517,12.3216662,1,,,,ForeignMinistry,"Am alten Gasthof in Leipzig, Germany",,german_fires_lepzig_locations,378fc17a35050afc77bd4e337ae07705,german_fires_lepzig_locations__5c39790072f81e08698b946e34baec5e
am alten muhlgraben,"Am Alten Muhlgraben in Leipzig, Germany",51.3614384,12.2899492,1,,,,Legislator,"Am Alten Muhlgraben in Leipzig, Germany",,german_fires_lepzig_locations,dfac8cb37080896a185bbb93a16b8765,german_fires_lepzig_locations__f8d39eb8e90421a2df8ce3a09776d545
am anger,"Am Anger in Leipzig, Germany",51.4207097,12.4494334,1,,,,Keyphrase,"Am Anger in Leipzig, Germany",,german_fires_lepzig_locations,1554af7c6652c417e0dfa21654989c31,german_fires_lepzig_locations__a6f8fb5470ab8a401b7bd926bef9cb60
am angerteich,"Am Angerteich in Leipzig, Germany",51.2839159,12.4589922,1,,,,LegislativeCommittee,"Am Angerteich in Leipzig, Germany",,german_fires_lepzig_locations,74b2f8627d3ca779144ae76cb3c1c21a,german_fires_lepzig_locations__2c4a8abdccf6ef881d48b6de645e9564
am bahndamm,"Am Bahndamm in Leipzig, Germany",51.334492,12.4572892,1,,,,Pipeline,"Am Bahndamm in Leipzig, Germany",,german_fires_lepzig_locations,76425d21c3d1443267019027ddf04ee1,german_fires_lepzig_locations__21ecead2dd23a1da0126072acc6b04c2
am bahngraben,"Am Bahngraben in Leipzig, Germany",51.3812181,12.2967375,1,,,,Person,"Am Bahngraben in Leipzig, Germany",,german_fires_lepzig_locations,8168dd2f7090cfd9496a1450244f25e2,german_fires_lepzig_locations__557fb2b7fee146ab1ebcbb593d3ee309
am bahnhof,"Am Bahnhof in Leipzig, Germany",51.2656486,12.4851455,1,,,,Media,"Am Bahnhof in Leipzig, Germany",,german_fires_lepzig_locations,774e955df5fb1b9394ede0a193e7e498,german_fires_lepzig_locations__f24d5f7aad2a3de5cdbb2b9deb83a1c2
am barnecker gut,"Am Barnecker Gut in Leipzig, Germany",51.3536077,12.3014514,1,,,,IndustryTerm,"Am Barnecker Gut in Leipzig, Germany",,german_fires_lepzig_locations,e8a6192a5d9bf01e33829ddb4b34bd64,german_fires_lepzig_locations__75614bb0f5ab020a141face0073abcb9
am bauernsteg,"Am Bauernsteg in Leipzig, Germany",51.3807872,12.2794244,1,,,,Exec,"Am Bauernsteg in Leipzig, Germany",,german_fires_lepzig_locations,4bb541484fe44802b9f4775da293d00b,german_fires_lepzig_locations__8b039bf14b0166b0000737fdd5817272
am bauernteich,"Am Bauernteich in Leipzig, Germany",51.3465928,12.4478495,1,,,,News,"Am Bauernteich in Leipzig, Germany",,german_fires_lepzig_locations,bac76d05a841e90fec1983a24228b7ab,german_fires_lepzig_locations__52a9bf13d97ab07a99c295fb5864687c
am bildersaal,"Am Bildersaal in Leipzig, Germany",51.3821538,12.2825071,1,,,,Media,"Am Bildersaal in Leipzig, Germany",,german_fires_lepzig_locations,456999d815565a5e519c8383982679b3,german_fires_lepzig_locations__afd36c688c07b0b2c16aebdabac459ed
am bischofsholz,"Am Bischofsholz in Leipzig, Germany",51.2763826,12.4770443,1,,,,News,"Am Bischofsholz in Leipzig, Germany",,german_fires_lepzig_locations,708eabb5e1738415008d8f04ab5a5ba7,german_fires_lepzig_locations__0e495b7175e6be8ff8fc65cf59d8d06c
am bogen,"Am Bogen in Leipzig, Germany",51.309664,12.4004329,1,,,,Wells,"Am Bogen in Leipzig, Germany",,german_fires_lepzig_locations,ba91768d3fbcd35f212c0f7486b0a10d,german_fires_lepzig_locations__b5fd979837c57461eb8fc7e53c16e9da
am bornchen,"Am Bornchen in Leipzig, Germany",51.379979,12.3153303,1,,,,DiplomaticFacilities,"Am Bornchen in Leipzig, Germany",,german_fires_lepzig_locations,cea3aec0f534d53b0980022c1512d659,german_fires_lepzig_locations__ac890bff1010685c0b73fbe877955883
am brunnen,"Am Brunnen in Leipzig, Germany",51.382836,12.2724154,1,,,,ForeignMinistry,"Am Brunnen in Leipzig, Germany",,german_fires_lepzig_locations,0f777ebcb9c78b75abead47d4801aa66,german_fires_lepzig_locations__9ff4f578db5546050902f2ee0d9f4156
am doppeladler,"Am Doppeladler in Leipzig, Germany",51.3050987,12.4687289,1,,,,IndustryTerm,"Am Doppeladler in Leipzig, Germany",,german_fires_lepzig_locations,3b35e55d0008ded37067f429f2652070,german_fires_lepzig_locations__888f5b1ca4e58aa4fda12a933abe1fe7
am dorfplatz,"Am Dorfplatz in Leipzig, Germany",51.3568079,12.265504,1,,,,News,"Am Dorfplatz in Leipzig, Germany",,german_fires_lepzig_locations,9a1d1955198fd5556de4c12797bd19ae,german_fires_lepzig_locations__6aca2e0263f1f3e8e93f9fb603e53015
am dorfteich,"Am Dorfteich in Leipzig, Germany",51.3089302,12.5134048,1,,,,Organization,"Am Dorfteich in Leipzig, Germany",,german_fires_lepzig_locations,e31804418b17fbc87a9e31e8b277e879,german_fires_lepzig_locations__2db248d29c495388c3208d010ff9d5d1
am eichberg,"Am Eichberg in Leipzig, Germany",51.3746038,12.4496203,1,,,,Refinery,"Am Eichberg in Leipzig, Germany",,german_fires_lepzig_locations,76c3fab1b1df8c99e2767981a6420708,german_fires_lepzig_locations__519cc712b77a8f76b6dd8d770f58d3c5
am eichenbogen,"Am Eichenbogen in Leipzig, Germany",51.2876805,12.366395,1,,,,Consulates,"Am Eichenbogen in Leipzig, Germany",,german_fires_lepzig_locations,5a177e63b63487bbeaeeb1c14b9841dc,german_fires_lepzig_locations__bc507d65374cc222def8d5b5d1d2a1c7
am eichwinkel,"Am Eichwinkel in Leipzig, Germany",51.2831044,12.3978583,1,,,,Organization,"Am Eichwinkel in Leipzig, Germany",,german_fires_lepzig_locations,92ec1552fdf33ab44fc0b081c9402bc8,german_fires_lepzig_locations__4baa4494e3e281b9fc55d736d86b8b74
am elsterbogen,"Am Elsterbogen in Leipzig, Germany",51.2664898,12.3106329,1,,,,News,"Am Elsterbogen in Leipzig, Germany",,german_fires_lepzig_locations,494521ce91ccc818ad32d780bf97eaa8,german_fires_lepzig_locations__46967d5a81631e6d0ea8af552f156dd6
am elsterwehr,"Am Elsterwehr in Leipzig, Germany",51.3353468,12.3507981,1,,,,space,"Am Elsterwehr in Leipzig, Germany",,german_fires_lepzig_locations,21e2be67b33f512072c44c3de4798f04,german_fires_lepzig_locations__5d8525a4d59675bb4ec68c2da1238e70
am eselshaus,"Am Eselshaus in Leipzig, Germany",51.3794013,12.3025528,1,,,,LegislativeCommittee,"Am Eselshaus in Leipzig, Germany",,german_fires_lepzig_locations,0cac1d758acf3fac6baf837ad6b99a04,german_fires_lepzig_locations__f185ba341b10d1ee29e893d842c9241c
am eulengraben,"Am Eulengraben in Leipzig, Germany",51.2728231,12.4829687,1,,,,Pipeline,"Am Eulengraben in Leipzig, Germany",,german_fires_lepzig_locations,9543de532349917d7984228ced1023c2,german_fires_lepzig_locations__5e14c5ff8c357bfe227c7bb6efa26932
am exer,"Am Exer in Leipzig, Germany",51.3933533,12.2996995,1,,,,News,"Am Exer in Leipzig, Germany",,german_fires_lepzig_locations,8d3173b976e1093d82bb3d74814de529,german_fires_lepzig_locations__c316822c72280ca6bfe850ed198d1ada
am exerzierplatz,"Am Exerzierplatz in Leipzig, Germany",51.4071687,12.3077876,1,,,,Legislator,"Am Exerzierplatz in Leipzig, Germany",,german_fires_lepzig_locations,7c8699d5cd9c5f9620b02b83f98c1363,german_fires_lepzig_locations__9ab1e80bd01c47d3197df11a5d15c5a0
am feld,"Am Feld in Leipzig, Germany",51.4219784,12.4427802,1,,,,Pipeline,"Am Feld in Leipzig, Germany",,german_fires_lepzig_locations,a821dc190735c57beb9815a1a3eab280,german_fires_lepzig_locations__b1be0aca832bb319c133626bcf60c72e
am feldrain,"Am Feldrain in Leipzig, Germany",51.3107093,12.5152268,1,,,,Refinery,"Am Feldrain in Leipzig, Germany",,german_fires_lepzig_locations,b81ab384f6ead94770648cd3afa3d2f1,german_fires_lepzig_locations__770b257088a811cb39f4322237461ad5
am fischerhaus,"Am Fischerhaus in Leipzig, Germany",51.3770481,12.309141,1,,,,Refinery,"Am Fischerhaus in Leipzig, Germany",,german_fires_lepzig_locations,a81f183640435cbf5a30ffaed8fdc779,german_fires_lepzig_locations__a811dd53b56e8bfd4c2164c69e65e5ee
am flossgen,"Am Flossgen in Leipzig, Germany",51.3550533,12.2681946,1,,,,Exec,"Am Flossgen in Leipzig, Germany",,german_fires_lepzig_locations,9832c01813708b0ddf65b320e672b07a,german_fires_lepzig_locations__c76060d54b4732d06a30f6dd0b34f427
am flugelrad,"Am Flugelrad in Leipzig, Germany",51.3666318,12.3928716,1,,,,FTO,"Am Flugelrad in Leipzig, Germany",,german_fires_lepzig_locations,6b77238515d033ab437ff9c1d3271e0a,german_fires_lepzig_locations__d40f2b0a677ddaf4f3afb5c2bca84827
am freibad,"Am Freibad in Leipzig, Germany",51.3931328,12.3285579,1,,,,Person,"Am Freibad in Leipzig, Germany",,german_fires_lepzig_locations,10dd792827b9c863d7a02d587deb04b7,german_fires_lepzig_locations__e431a6df9377948f56340eca644c532a
am fuchsbau,"Am Fuchsbau in Leipzig, Germany",51.2892722,12.3644858,1,,,,CompanyKeyword,"Am Fuchsbau in Leipzig, Germany",,german_fires_lepzig_locations,d0f7a4b07f9cb731c4464819cb89c71a,german_fires_lepzig_locations__a935f128a165af5bdc452750da1e9119
am ganseanger,"Am Ganseanger in Leipzig, Germany",51.2856721,12.4628234,1,,,,Person,"Am Ganseanger in Leipzig, Germany",,german_fires_lepzig_locations,e3cd6238ad1743040f7d56a1b6c53568,german_fires_lepzig_locations__d448ce16c916d31f40e1e7b9b55c151a
am gartenverein,"Am Gartenverein in Leipzig, Germany",51.3466509,12.3161222,1,,,,DiplomaticFacilities,"Am Gartenverein in Leipzig, Germany",,german_fires_lepzig_locations,41c7d2500f3d4412649a14c01d37b6fe,german_fires_lepzig_locations__e646a9e2958507989f69ffc19ac42b68
am geleinholz,"Am Geleinholz in Leipzig, Germany",51.2932322,12.4198647,1,,,,IndustryTerm,"Am Geleinholz in Leipzig, Germany",,german_fires_lepzig_locations,053112529a11a253188213e4250b17fc,german_fires_lepzig_locations__557bdbb3bcf152f3626444f277081989
am gothischen bad,"Am Gothischen Bad in Leipzig, Germany",51.351389,12.3929862,1,,,,Person,"Am Gothischen Bad in Leipzig, Germany",,german_fires_lepzig_locations,386eee4cc8459797e0bdef653bf1b3f5,german_fires_lepzig_locations__8ec3350f08290f0ccd8ac28d86e7306d
am grund,"Am Grund in Leipzig, Germany",51.3077625,12.2634247,1,,,,Organization,"Am Grund in Leipzig, Germany",,german_fires_lepzig_locations,efdb0af95ef508e109b93503960d9c9f,german_fires_lepzig_locations__2b4f44d6c00d021bb4a9f36c5653c4fe
am gundorfer teich,"Am Gundorfer Teich in Leipzig, Germany",51.3624549,12.2665532,1,,,,Refinery,"Am Gundorfer Teich in Leipzig, Germany",,german_fires_lepzig_locations,383ea01e87a2ee59bd826cad32ea1b25,german_fires_lepzig_locations__a32b4900b395a8ac281733b36dc90469
am guterring,"Am Guterring in Leipzig, Germany",51.3317575,12.418621,1,,,,Refinery,"Am Guterring in Leipzig, Germany",,german_fires_lepzig_locations,a792a523f7f650011ae3185005e9f050,german_fires_lepzig_locations__a7fd958da849370cddebc88c4da56d03
am gutspark,"Am Gutspark in Leipzig, Germany",51.3246744,12.4578568,1,,,,Organization,"Am Gutspark in Leipzig, Germany",,german_fires_lepzig_locations,66111c172accefb1188c820db7f6a3c2,german_fires_lepzig_locations__475c6c2b8fd63b1f217602e57b69fac4
am hallischen tor,"Am Hallischen Tor in Leipzig, Germany",51.343887,12.3769452,1,,,,DiplomaticFacilities,"Am Hallischen Tor in Leipzig, Germany",,german_fires_lepzig_locations,860dff1b937dd89e825074873ea98dc2,german_fires_lepzig_locations__3cd12f608dbef61c658d6eb3e9a9e5be
am hasenberg,"Am Hasenberg in Leipzig, Germany",51.3218946,12.4441153,1,,,,Pipeline,"Am Hasenberg in Leipzig, Germany",,german_fires_lepzig_locations,fd8298e254a0c661e0171ca274db9b19,german_fires_lepzig_locations__c84739d2f272055bce86eec799095863
am hasengraben,"Am Hasengraben in Leipzig, Germany",51.4211013,12.482466,1,,,,ForeignMinister,"Am Hasengraben in Leipzig, Germany",,german_fires_lepzig_locations,f1de668e58ce44abb2b0b7b005aa86cc,german_fires_lepzig_locations__4582640e1dc05af7339d902a580c6ab8
am hegeanger,"Am Hegeanger in Leipzig, Germany",51.2993995,12.2600481,1,,,,Media,"Am Hegeanger in Leipzig, Germany",,german_fires_lepzig_locations,6446416184998eb4135469cf30511c53,german_fires_lepzig_locations__0737432ab06dbfce6dd0c0b57673f6eb
am hirtenhaus,"Am Hirtenhaus in Leipzig, Germany",51.3724727,12.322755,1,,,,LegislativeCommittee,"Am Hirtenhaus in Leipzig, Germany",,german_fires_lepzig_locations,2b9802693b021bb2b8bdd6e74d151820,german_fires_lepzig_locations__8a9d550e22c0df096bfbc521aa292b22
am hohen graben,"Am Hohen Graben in Leipzig, Germany",51.3253531,12.4766461,1,,,,Shipping,"Am Hohen Graben in Leipzig, Germany",,german_fires_lepzig_locations,edab81e4fe7e814a4dca512f0076b78e,german_fires_lepzig_locations__e2682a928eb4e0c5c1bf028acc85c02e
am hohlweg,"Am Hohlweg in Leipzig, Germany",51.3810087,12.3052092,1,,,,Shipping,"Am Hohlweg in Leipzig, Germany",,german_fires_lepzig_locations,6a9f7f921823bf6252b675fd886d729e,german_fires_lepzig_locations__90870affd597a7e572236c38bafbc295
am hufeisen,"Am Hufeisen in Leipzig, Germany",51.3462871,12.270985,1,,,,FTO,"Am Hufeisen in Leipzig, Germany",,german_fires_lepzig_locations,6a78609d1446d58f7fea6000c6da59b6,german_fires_lepzig_locations__3efe2430c1c85c3c0b2beb2eaff6831d
am jagerhaus,"Am Jagerhaus in Leipzig, Germany",51.3959026,12.2905137,1,,,,Wells,"Am Jagerhaus in Leipzig, Germany",,german_fires_lepzig_locations,3a3f7fe929a44f3ec39e80b40f1f2d08,german_fires_lepzig_locations__ae494172d7150007818a02b9b3d14288
am kanal,"Am Kanal in Leipzig, Germany",51.3278522,12.317099,1,,,,ForeignMinistry,"Am Kanal in Leipzig, Germany",,german_fires_lepzig_locations,9cfc5fa2cf670994f91428da8167f7f2,german_fires_lepzig_locations__05a69fbf2635fb2d8b72cf5f90d01097
am kellerberg,"Am Kellerberg in Leipzig, Germany",51.3951997,12.4559817,1,,,,Refinery,"Am Kellerberg in Leipzig, Germany",,german_fires_lepzig_locations,a247029a46b8017f7ad5f4bd4a38b5ff,german_fires_lepzig_locations__9b534d26abab5f2565e7e2a60e727d7e
am keulenberg,"Am Keulenberg in Leipzig, Germany",51.3860864,12.4412984,1,,,,ForeignMinistry,"Am Keulenberg in Leipzig, Germany",,german_fires_lepzig_locations,b14ed4d018ce610a852e3e41acd45d61,german_fires_lepzig_locations__7e105691460ed64e07277588feaa4d77
am kirschberg,"Am Kirschberg in Leipzig, Germany",51.3192841,12.2813189,1,,,,Person,"Am Kirschberg in Leipzig, Germany",,german_fires_lepzig_locations,3c0fd96faca9afa53577204d86470cea,german_fires_lepzig_locations__5ba45b0363096164138fe820a750f51b
am kleinen feld,"Am kleinen Feld in Leipzig, Germany",51.3183358,12.2631065,1,,,,FTO,"Am kleinen Feld in Leipzig, Germany",,german_fires_lepzig_locations,528377193280adf066faca836706d9a8,german_fires_lepzig_locations__5013fc9f3293cea8e648f25927f7235d
am klerfeld,"Am Klerfeld in Leipzig, Germany",49.5183789,17.340771,1,,,,Wells,"Am Klerfeld in Leipzig, Germany",,german_fires_lepzig_locations,b18c7915e2efee83762cfcf00b2475bd,german_fires_lepzig_locations__9899fd64604ca74d8c50462f1b7902e7
am klucksgraben,"Am Klucksgraben in Leipzig, Germany",51.2675961,12.294799,1,,,,LegislativeCommittee,"Am Klucksgraben in Leipzig, Germany",,german_fires_lepzig_locations,8f8966fd3d7d6144fbeac9d004aaf477,german_fires_lepzig_locations__9e0a09be5840f6d182b20f6a74f3c299
am krummen graben,"Am krummen Graben in Leipzig, Germany",51.2831495,12.3173229,1,,,,Wells,"Am krummen Graben in Leipzig, Germany",,german_fires_lepzig_locations,33c9640d07430a98522da54aa08a5366,german_fires_lepzig_locations__b6d48f72515dba5005c643d482582ca5
am kunstlerbogen,"Am Kunstlerbogen in Leipzig, Germany",51.3824136,12.458479,1,,,,DiplomaticFacilities,"Am Kunstlerbogen in Leipzig, Germany",,german_fires_lepzig_locations,aa13195c4742d53f7574dd26c012548b,german_fires_lepzig_locations__969f0f8800605638238c653fcf7aa0fc
am langen felde,"Am langen Felde in Leipzig, Germany",51.3438314,12.3154276,1,,,,Diplomat,"Am langen Felde in Leipzig, Germany",,german_fires_lepzig_locations,0d33489f72c274514c9e94ab38f62908,german_fires_lepzig_locations__3fd00547594261d425019d5fc3e0634a
am langen teiche,"Am langen Teiche in Leipzig, Germany",51.3847877,12.4531457,1,,,,Legislator,"Am langen Teiche in Leipzig, Germany",,german_fires_lepzig_locations,de0a87ed309d72d4effe3b6d14ea104c,german_fires_lepzig_locations__063e2447842a70890564ff2af075a5ce
am lindeneck,"Am Lindeneck in Leipzig, Germany",51.3010313,12.2596329,1,,,,ForeignMinistry,"Am Lindeneck in Leipzig, Germany",,german_fires_lepzig_locations,51d994603a40df48feaad6f5e60a4028,german_fires_lepzig_locations__a2204a3c9727bb9ca2b4b02d18045856
am lindenhof,"Am Lindenhof in Leipzig, Germany",51.2998336,12.3833476,1,,,,Diplomat,"Am Lindenhof in Leipzig, Germany",,german_fires_lepzig_locations,660dfee045bec3db2e0b0b3601bd629f,german_fires_lepzig_locations__11cfdf73d7ae8d4f060602bc5751b912
am losegraben,"Am Losegraben in Leipzig, Germany",51.3814675,12.4740848,1,,,,Legislator,"Am Losegraben in Leipzig, Germany",,german_fires_lepzig_locations,35a7d5db87fa678b4574e97b9cd7498b,german_fires_lepzig_locations__d5f3be8c41655bfc4d487f609a8da12e
am luppedeich,"Am Luppedeich in Leipzig, Germany",51.3672648,12.3306783,1,,,,Person,"Am Luppedeich in Leipzig, Germany",,german_fires_lepzig_locations,51a4d8e82726d3fda8c2407ae2e68e26,german_fires_lepzig_locations__264f0474d8939b3746c1f829ee5b86e6
am markt,"Am Markt in Leipzig, Germany",51.3399052,12.3748035,1,,,,Media,"Am Markt in Leipzig, Germany",,german_fires_lepzig_locations,f0288acbb3e3ca2a211d94bbc375cd29,german_fires_lepzig_locations__2b12acb46ce47a947fe6984e7e141ad9
am meilenstein,"Am Meilenstein in Leipzig, Germany",51.3760373,12.3217281,1,,,,Refinery,"Am Meilenstein in Leipzig, Germany",,german_fires_lepzig_locations,72f54f6d23d9523d5650d3067440e5cc,german_fires_lepzig_locations__5b1455378de38a036ba588f331c02221
am muckenschlosschen,"Am Muckenschlosschen in Leipzig, Germany",51.348291,12.3529924,1,,,,Diplomat,"Am Muckenschlosschen in Leipzig, Germany",,german_fires_lepzig_locations,2af1a314906ba394ab730027727aa53c,german_fires_lepzig_locations__a21b7eaa3b85dbf8b68353422e695ca1
am muhlengrund,"Am Muhlengrund in Leipzig, Germany",51.3004287,12.2590875,1,,,,ForeignMinister,"Am Muhlengrund in Leipzig, Germany",,german_fires_lepzig_locations,efa538fdfef5cddbef0f194632f3f5ec,german_fires_lepzig_locations__9e7988e3d352f4d508a41582c1d91ffa
am muhlgraben,"Am Muhlgraben in Leipzig, Germany",51.2725753,12.3138524,1,,,,Wells,"Am Muhlgraben in Leipzig, Germany",,german_fires_lepzig_locations,11a18fa0e67e54502ac5ebfb313f9110,german_fires_lepzig_locations__69d28ad2f65e6a90dc809dc0da159e0d
am niederholz,"Am Niederholz in Leipzig, Germany",51.2754358,12.4767901,1,,,,Consulates,"Am Niederholz in Leipzig, Germany",,german_fires_lepzig_locations,323d893852393d7b2713c3c837d1d951,german_fires_lepzig_locations__a0ec3151561a22dbc7c03444b8a3cab2
am ochsenwinkel,"Am Ochsenwinkel in Leipzig, Germany",51.3210473,12.5250992,1,,,,ForeignMinister,"Am Ochsenwinkel in Leipzig, Germany",,german_fires_lepzig_locations,da4bbead6e9f146101ef58688d23068a,german_fires_lepzig_locations__eac85ed7d9aabd61edc6b57bc3435a7f
am hang,"Am hang in Leipzig, Germany",51.3385738,12.3784615,1,,,,AAEntity,"Am hang in Leipzig, Germany",,german_fires_lepzig_locations,2d5e28eded4e29bf9486a266d50421f3,german_fires_lepzig_locations__b20c8bce89f86c71a3272d8c6bc00852
am park,"Am Park in Leipzig, Germany",51.4173768,12.7259482,1,,,,Exec,"Am Park in Leipzig, Germany",,german_fires_lepzig_locations,e1e69f46c84f744d2864a033d28f4084,german_fires_lepzig_locations__980fc28d612b866fba8ab36eed59ce14
am parkteich,"Am Parkteich in Leipzig, Germany",51.3660648,12.3811816,1,,,,LegislativeCommittee,"Am Parkteich in Leipzig, Germany",,german_fires_lepzig_locations,4204394eb4974b918b528711affe7d59,german_fires_lepzig_locations__d64656a39cd60432b853ae65430c014e
am pfarrfelde,"Am Pfarrfelde in Leipzig, Germany",51.3783373,12.3244241,1,,,,News,"Am Pfarrfelde in Leipzig, Germany",,german_fires_lepzig_locations,ac4cb5718368263551e33588c6dc7a92,german_fires_lepzig_locations__b707327ef178b3102cc6854079c5e9fd
am pfefferbruckchen,"Am Pfefferbruckchen in Leipzig, Germany",51.3729076,12.3285116,1,,,,Pipeline,"Am Pfefferbruckchen in Leipzig, Germany",,german_fires_lepzig_locations,02ccb5fb7848399b046365d8ad74c8e0,german_fires_lepzig_locations__3684b4aec2ae70928cf3e75aef92ccde
am pfingstanger,"Am Pfingstanger in Leipzig, Germany",51.3777037,12.2671285,1,,,,space,"Am Pfingstanger in Leipzig, Germany",,german_fires_lepzig_locations,cedbd24cef32a7bee5aafa6dcce7bb83,german_fires_lepzig_locations__c0906eb6c43ae61283dac375ec0c9d33
am posgraben,"Am Posgraben in Leipzig, Germany",51.3045715,12.5147518,1,,,,LegislativeCommittee,"Am Posgraben in Leipzig, Germany",,german_fires_lepzig_locations,aeb89ed7bed15ebf2ec1a7a75f0fb558,german_fires_lepzig_locations__ccad09c5d3a2ca207eb95230d6c01db6
am rain,"Am Rain in Leipzig, Germany",51.3439076,12.2682588,1,,,,CompanyKeyword,"Am Rain in Leipzig, Germany",,german_fires_lepzig_locations,0cf6a26b3d255c199bf2c6dffdd5278e,german_fires_lepzig_locations__1ac3a987242c0a1a11c8e753c067addf
am rennsteig,"Am Rennsteig in Leipzig, Germany",51.3455712,12.2559679,1,,,,Consulates,"Am Rennsteig in Leipzig, Germany",,german_fires_lepzig_locations,22809c3d19e5633fb81780f602b18514,german_fires_lepzig_locations__a638d4d15a1ef0b448d82da489f588a0
am ring,"Am Ring in Leipzig, Germany",51.4304985,12.4855408,1,,,,Consulates,"Am Ring in Leipzig, Germany",,german_fires_lepzig_locations,e668f81197376c8de5ac8c859625eedc,german_fires_lepzig_locations__61b97658f3c0245d85bb892a01167fdb
am ritterschlosschen,"Am Ritterschlosschen in Leipzig, Germany",51.3558975,12.3086091,1,,,,Media,"Am Ritterschlosschen in Leipzig, Germany",,german_fires_lepzig_locations,3d0cd994d245085b6e2aac864cdcffe3,german_fires_lepzig_locations__f7ef70e9f06d08d0fc711cd22ba8604e
am rodeland,"Am Rodeland in Leipzig, Germany",51.2742365,12.4804538,1,,,,DiplomaticFacilities,"Am Rodeland in Leipzig, Germany",,german_fires_lepzig_locations,c1f4a5525e3532d5ddb895c1be4dcd69,german_fires_lepzig_locations__0f890d2c4e67af9f2a9af0d127c9eca9
am roschenhof,"Am Roschenhof in Leipzig, Germany",51.3469063,12.4462492,1,,,,Wells,"Am Roschenhof in Leipzig, Germany",,german_fires_lepzig_locations,0b5d522da03837c53577a4b5da2d0293,german_fires_lepzig_locations__145da36987a5e1014849378cb4f21ef3
am russischen garten,"Am Russischen Garten in Leipzig, Germany",51.3804144,12.2821178,1,,,,Organization,"Am Russischen Garten in Leipzig, Germany",,german_fires_lepzig_locations,0c1bb3008e0b06ffca20d872d7a375b2,german_fires_lepzig_locations__6b6c60b6e25ac5e718abe021d9f1a327
am sandberg,"Am Sandberg in Leipzig, Germany",51.4017936,12.3725416,1,,,,FTO,"Am Sandberg in Leipzig, Germany",,german_fires_lepzig_locations,5ae9e3c557e3c2ddcd26fe76bff3c419,german_fires_lepzig_locations__3f50627424119f2c51e1c41c3dc558e2
am schaferhugel,"Am Schaferhugel in Leipzig, Germany",51.322306,12.4615992,1,,,,DiplomaticFacilities,"Am Schaferhugel in Leipzig, Germany",,german_fires_lepzig_locations,ad10c2ca9366a5a78cfdec1774be393a,german_fires_lepzig_locations__d24713d4e7a54babf90697960d0fbad0
am schaukelgraben,"Am Schaukelgraben in Leipzig, Germany",51.2735722,12.48146,1,,,,Media,"Am Schaukelgraben in Leipzig, Germany",,german_fires_lepzig_locations,61286356cc6a1ed64a84e5a2c0726435,german_fires_lepzig_locations__9dbadc68916fffb08afaec90dbd7c3e1
am schenkberg,"Am Schenkberg in Leipzig, Germany",51.396666,12.4484248,1,,,,Consulates,"Am Schenkberg in Leipzig, Germany",,german_fires_lepzig_locations,88cbddccb83bebcc34256721e0184868,german_fires_lepzig_locations__e088546cf899a334415555d6aef83c25
am schwalbennest,"Am Schwalbennest in Leipzig, Germany",51.3245172,12.2854809,1,,,,Consulates,"Am Schwalbennest in Leipzig, Germany",,german_fires_lepzig_locations,5136ca6712ee3fa272ab1f0ec90be310,german_fires_lepzig_locations__1c19cd1d82e04951a39bb4bb02e21834
am silo,"Am Silo in Leipzig, Germany",51.3041023,12.2612263,1,,,,Consulates,"Am Silo in Leipzig, Germany",,german_fires_lepzig_locations,256e1760dea11a636c55c967bd49b38c,german_fires_lepzig_locations__33482ba4e22afe3ed9d1b03310f5d963
am sommerfeld,"Am Sommerfeld in Leipzig, Germany",51.3503484,12.4853739,1,,,,AAEntity,"Am Sommerfeld in Leipzig, Germany",,german_fires_lepzig_locations,6649ce85f131b8eee4880c1f365b8b4c,german_fires_lepzig_locations__02c3f7ce0b3091479d12247a8b27caa9
am sonneneck,"Am Sonneneck in Leipzig, Germany",51.3007982,12.2623786,1,,,,DiplomaticFacilities,"Am Sonneneck in Leipzig, Germany",,german_fires_lepzig_locations,b7da5740d0cd1a59b7d8d22c1d465d7a,german_fires_lepzig_locations__8528714f4155c9ce21918f1124a4c626
am sonnenwinkel,"Am Sonnenwinkel in Leipzig, Germany",51.3915131,12.3202412,1,,,,IndustryTerm,"Am Sonnenwinkel in Leipzig, Germany",,german_fires_lepzig_locations,f87d9461d9067a9d46fe00e139ca30e9,german_fires_lepzig_locations__35e4d8e47eb6aff8249779eb34717621
am sperrtor,"Am Sperrtor in Leipzig, Germany",51.3561909,12.2481037,1,,,,Pipeline,"Am Sperrtor in Leipzig, Germany",,german_fires_lepzig_locations,d658df70dd0be6b58ef6c4bfe494c7c1,german_fires_lepzig_locations__e2e29effcdfc1c72530402ec8cb1bd4b
am sportforum,"Am Sportforum in Leipzig, Germany",51.3467037,12.3504391,1,,,,Consulates,"Am Sportforum in Leipzig, Germany",,german_fires_lepzig_locations,ee2d8a1fbfb07e69f12de5dd81b4e4d3,german_fires_lepzig_locations__20cc541a92d0b3dfefae9e4d53154277
am sportpark,"Am Sportpark in Leipzig, Germany",51.3575392,12.3085643,1,,,,Legislator,"Am Sportpark in Leipzig, Germany",,german_fires_lepzig_locations,f9abeaeef99215a19a38410685b35a5a,german_fires_lepzig_locations__f63a751fabcd5cb264f0fd13839e4f95
am sportplatz,"Am Sportplatz in Leipzig, Germany",51.2652746,12.3085831,1,,,,LegislativeCommittee,"Am Sportplatz in Leipzig, Germany",,german_fires_lepzig_locations,807173bd7aa9b698b747a74af0aa7fb3,german_fires_lepzig_locations__d554f4ee99d7e24bfa7a5208f0927db0
am stausee,"Am Stausee in Leipzig, Germany",51.266087,12.3152797,1,,,,space,"Am Stausee in Leipzig, Germany",,german_fires_lepzig_locations,877e3f47ddbb6f82cc88aa299328423c,german_fires_lepzig_locations__003dad76a110891c9e51b932dc3de818
am tanzplan,"Am Tanzplan in Leipzig, Germany",51.3496791,12.3131537,1,,,,Pipeline,"Am Tanzplan in Leipzig, Germany",,german_fires_lepzig_locations,739deec97d01910235943edaf916146f,german_fires_lepzig_locations__ee774ec1157cd64ca439a9ad77f0d158
am teich,"Am Teich in Leipzig, Germany",51.3027845,12.2582729,1,,,,IndustryTerm,"Am Teich in Leipzig, Germany",,german_fires_lepzig_locations,bfed38ffb9a91a5495057f900a8805b9,german_fires_lepzig_locations__11d3f02329ab733b49be9b05b963d39f
am teilungswehr,"Am Teilungswehr in Leipzig, Germany",51.3021937,12.3402365,1,,,,Wells,"Am Teilungswehr in Leipzig, Germany",,german_fires_lepzig_locations,6ebfc0a92c005f3f632c87dbc7ee5eda,german_fires_lepzig_locations__d3cbdd73fabefdc32e9a5ad6f0460943
am tore,"Am Tore in Leipzig, Germany",51.3699332,12.4096417,1,,,,Refinery,"Am Tore in Leipzig, Germany",,german_fires_lepzig_locations,26faf60f3b04ab3d38ad9fd15d62b0bd,german_fires_lepzig_locations__19156950dc6001cdcd11e937d5538ba6
am turnplatz,"Am Turnplatz in Leipzig, Germany",51.3542286,12.2663467,1,,,,AAEntity,"Am Turnplatz in Leipzig, Germany",,german_fires_lepzig_locations,94a852932dfb41cdfef762ee42047214,german_fires_lepzig_locations__19c8000c3d2e059b849ce17441b4fd8b
am ubergang,"Am ubergang in Leipzig, Germany",51.3217887,12.3045583,1,,,,Pipeline,"Am ubergang in Leipzig, Germany",,german_fires_lepzig_locations,6e6fc07083efe32251812ad54a82b0d4,german_fires_lepzig_locations__5fe610648c71d758b65253be13a561a4
am viadukt,"Am Viadukt in Leipzig, Germany",51.3757146,12.3290753,1,,,,Media,"Am Viadukt in Leipzig, Germany",,german_fires_lepzig_locations,0abe6e6a76ba1c893374ce25cbbc87e2,german_fires_lepzig_locations__6c36b9f2bee2d7baa177c6d32812d302
am volksgut,"Am Volksgut in Leipzig, Germany",51.3493019,12.4990245,1,,,,Legislator,"Am Volksgut in Leipzig, Germany",,german_fires_lepzig_locations,edccb781676ec948b6255b1eb812b7f0,german_fires_lepzig_locations__5715a66441afe66c4010191e75af5445
am vorwerk,"Am Vorwerk in Leipzig, Germany",51.3525868,12.4613825,1,,,,Diplomat,"Am Vorwerk in Leipzig, Germany",,german_fires_lepzig_locations,a3037e1832ab29671081e805a7d1bf6b,german_fires_lepzig_locations__57d135475d74be147c4a601ee30e2f24
am wassergraben,"Am Wassergraben in Leipzig, Germany",51.3818219,12.2931399,1,,,,Wells,"Am Wassergraben in Leipzig, Germany",,german_fires_lepzig_locations,b296b726b1dc1d4b17ab1583db3abf71,german_fires_lepzig_locations__78b493029f3c35ac181255d99269d9d8
am wasserschloss,"Am Wasserschloss in Leipzig, Germany",51.348822,12.3167032,1,,,,LegislativeCommittee,"Am Wasserschloss in Leipzig, Germany",,german_fires_lepzig_locations,cef48951974cfc1f70b594196f6079b0,german_fires_lepzig_locations__489eb066ba4910c16f2963f80113ebda
am wasserturm,"Am Wasserturm in Leipzig, Germany",51.3417663,12.2605258,1,,,,space,"Am Wasserturm in Leipzig, Germany",,german_fires_lepzig_locations,593051aed07c2a980cb6e12feb8955ff,german_fires_lepzig_locations__8ef9933f88fd739a906f22f73f1b5db3
am wasserwerk,"Am Wasserwerk in Leipzig, Germany",51.3138591,12.4171341,1,,,,Media,"Am Wasserwerk in Leipzig, Germany",,german_fires_lepzig_locations,34b02dea0055dbc92adf5af07a3e60bc,german_fires_lepzig_locations__e43fe411fa452b9d9ed0778d5c2b5693
am wegekreuz,"Am Wegekreuz in Leipzig, Germany",51.380993,12.4411584,1,,,,space,"Am Wegekreuz in Leipzig, Germany",,german_fires_lepzig_locations,aa630edc2becd3a66219cc17ecd53910,german_fires_lepzig_locations__b1b7319116738b679bfcb9edd414efd9
am weiher,"Am Weiher in Leipzig, Germany",51.2727383,12.3115918,1,,,,ForeignMinister,"Am Weiher in Leipzig, Germany",,german_fires_lepzig_locations,eccea78c799aa5d8c362cd37bf4ffdca,german_fires_lepzig_locations__f1abca7a3c4a09e84344c4c468699b17
am wiesenblick,"Am Wiesenblick in Leipzig, Germany",51.3401796,12.5261178,1,,,,Organization,"Am Wiesenblick in Leipzig, Germany",,german_fires_lepzig_locations,18be4930e5512e1746e7abdc3b82edab,german_fires_lepzig_locations__a6510ec0ec1905f2b1d135b8b7f90c47
am wiesengrund,"Am Wiesengrund in Leipzig, Germany",51.299773,12.25923,1,,,,Wells,"Am Wiesengrund in Leipzig, Germany",,german_fires_lepzig_locations,bfff356ab46721bb506271506e14069c,german_fires_lepzig_locations__69feec8cd19497a6e217ce6a0b044e55
am wolfswinkel,"Am Wolfswinkel in Leipzig, Germany",51.2902159,12.3635588,1,,,,Refinery,"Am Wolfswinkel in Leipzig, Germany",,german_fires_lepzig_locations,2f44c1156d0d3745aaeebb8224549be8,german_fires_lepzig_locations__668f3f204afb122476d34adaafd1937a
am zuckmantel,"Am Zuckmantel in Leipzig, Germany",51.3738369,12.3244964,1,,,,Keyphrase,"Am Zuckmantel in Leipzig, Germany",,german_fires_lepzig_locations,f149180ec3000e81671f1430689087c9,german_fires_lepzig_locations__eb8dd1178881b77d8674a4e3c8f96d31
amalie-winter-platz,"Amalie-Winter-Platz in Leipzig, Germany",51.3326186,12.3936802,1,,,,DiplomaticFacilities,"Amalie-Winter-Platz in Leipzig, Germany",,german_fires_lepzig_locations,a034f744bf632d13f59d49352775f20c,german_fires_lepzig_locations__be547a566f50eb903763c0b43988f683
amalienstrasse,"Amalienstrasse in Leipzig, Germany",51.3297572,12.3387003,1,,,,Pipeline,"Amalienstrasse in Leipzig, Germany",,german_fires_lepzig_locations,09165462ab3c755fe6e4793e2f57ff0a,german_fires_lepzig_locations__0e80573d4f75b7f1dba3ed2f2798c74e
amazonstrasse,"Amazonstrasse in Leipzig, Germany",51.3639155,12.4550299,1,,,,Person,"Amazonstrasse in Leipzig, Germany",,german_fires_lepzig_locations,319e590d154f3f491808be07d37a6b2f,german_fires_lepzig_locations__db538dc2b11b17ae5aec6ec673f6b41f
amboldweg,"Amboldweg in Leipzig, Germany",51.3440961,12.2808992,1,,,,Shipping,"Amboldweg in Leipzig, Germany",,german_fires_lepzig_locations,1e92e4793270436012875dcefadab1bc,german_fires_lepzig_locations__f67f21f9a38710c4f8a997baafe284d0
ambrosius-barth-platz,"Ambrosius-Barth-Platz in Leipzig, Germany",51.3159451,12.4219616,1,,,,News,"Ambrosius-Barth-Platz in Leipzig, Germany",,german_fires_lepzig_locations,b410448b59d4360311adbda584c42024,german_fires_lepzig_locations__6050fd5825abfa0567414bcf090912ca
ameisenstrasse,"Ameisenstrasse in Leipzig, Germany",51.2967603,12.3218473,1,,,,Legislator,"Ameisenstrasse in Leipzig, Germany",,german_fires_lepzig_locations,45e6e86ae730af824e21cdb6df71901f,german_fires_lepzig_locations__98b0f7c458de644f96025bf36993b25f
ammernplatz,"Ammernplatz in Leipzig, Germany",51.3497452,12.2869813,1,,,,LegislativeCommittee,"Ammernplatz in Leipzig, Germany",,german_fires_lepzig_locations,3226892558ddbdc886d4c56780ea048f,german_fires_lepzig_locations__70c079d7eb63bc5b0ce3fa93c3afb9ca
ammernweg,"Ammernweg in Leipzig, Germany",51.3497304,12.286469,1,,,,space,"Ammernweg in Leipzig, Germany",,german_fires_lepzig_locations,9bd1ad024153a7e5eae94cafa2b3194e,german_fires_lepzig_locations__23718bc239708645ed1bac1c4ea71dbe
amorbacher strasse,"Amorbacher Strasse in Leipzig, Germany",51.3115471,12.2744263,1,,,,Legislator,"Amorbacher Strasse in Leipzig, Germany",,german_fires_lepzig_locations,3b3d50c6cb58d37b39c84330349cbf39,german_fires_lepzig_locations__d3230a153bd7789f192b869ada10e5e0
ampreweg,"Ampreweg in Leipzig, Germany",51.3216128,12.4348412,1,,,,Wells,"Ampreweg in Leipzig, Germany",,german_fires_lepzig_locations,cc34f84cae4376d0f20373e0afd605a3,german_fires_lepzig_locations__93c297da07e9b61cb0349cd7c5147faa
amselgrund,"Amselgrund in Leipzig, Germany",51.383386,12.3602902,1,,,,IndustryTerm,"Amselgrund in Leipzig, Germany",,german_fires_lepzig_locations,acfeef33610f8d696261830ad539d515,german_fires_lepzig_locations__b3c6f438684ee7fd34d1c16a4bfe7daf
amselhohe,"Amselhohe in Leipzig, Germany",51.2801148,12.4562091,1,,,,Pipeline,"Amselhohe in Leipzig, Germany",,german_fires_lepzig_locations,65e96f63d5445fb9b289b740cbca026c,german_fires_lepzig_locations__3dd142526696697792148c06aef0887f
amselnest,"Amselnest in Leipzig, Germany",51.3147617,12.4534039,1,,,,FTO,"Amselnest in Leipzig, Germany",,german_fires_lepzig_locations,8c548dbf6b7a3e767deccffacfd94327,german_fires_lepzig_locations__8b9b1f31a7f8feae2fb16d897d9bfc3f
amselstrasse,"Amselstrasse in Leipzig, Germany",51.3486685,12.2875545,1,,,,Refinery,"Amselstrasse in Leipzig, Germany",,german_fires_lepzig_locations,47d719310d5890707c4b51d0563467e9,german_fires_lepzig_locations__f5d80ff60f48cf3055ba2b80968f87ec
amselweg,"Amselweg in Leipzig, Germany",51.4057882,12.4141686,1,,,,CompanyKeyword,"Amselweg in Leipzig, Germany",,german_fires_lepzig_locations,154fdf7e30a9f6af39c43d4f2587c91f,german_fires_lepzig_locations__fb2b91263ec964f26063cc3c8c82d5d7
amstetter weg,"Amstetter Weg in Leipzig, Germany",51.3828333,12.4650618,1,,,,ForeignMinister,"Amstetter Weg in Leipzig, Germany",,german_fires_lepzig_locations,e39ff74818bd66e96bab91269eefd70c,german_fires_lepzig_locations__0b6cc0e47ca6f1cd1c4ba10882e815f0
an den birken,"An den Birken in Leipzig, Germany",51.3580919,12.262801,1,,,,Wells,"An den Birken in Leipzig, Germany",,german_fires_lepzig_locations,b5236ba24c781770a9407108b8f0a432,german_fires_lepzig_locations__c302a01a99833466d8315238105c7832
an den krutschen,"An den Krutschen in Leipzig, Germany",51.3481176,12.2712136,1,,,,Diplomat,"An den Krutschen in Leipzig, Germany",,german_fires_lepzig_locations,1c589952b58fccc6ec34e775ca2dc5c9,german_fires_lepzig_locations__07aa64ad34d57835b1481a65b6d9df01
an den linden,"An den Linden in Leipzig, Germany",51.3427971,12.2723629,1,,,,Media,"An den Linden in Leipzig, Germany",,german_fires_lepzig_locations,a121968a1e35c442f9e3455127dcc41e,german_fires_lepzig_locations__05000ed786b1670a7d37af1dde203d53
an den pferdnerkabeln,"An den Pferdnerkabeln in Leipzig, Germany",51.380668,12.4363243,1,,,,ForeignMinistry,"An den Pferdnerkabeln in Leipzig, Germany",,german_fires_lepzig_locations,30a6d5867f20eb3226bd868925da54a8,german_fires_lepzig_locations__2addcce2c0bad4f98b1e48e44646fc8c
an den platanen,"An den Platanen in Leipzig, Germany",51.3256347,12.4417013,1,,,,space,"An den Platanen in Leipzig, Germany",,german_fires_lepzig_locations,793d61edb8d11dd1800f04d91b6f87e4,german_fires_lepzig_locations__6e58d0fb316e3e84493eb4621346dec6
an den feldern,"An den feldern in Leipzig, Germany",51.3519845,12.2014501,1,,,,IndustryTerm,"An den feldern in Leipzig, Germany",,german_fires_lepzig_locations,4f83d450a8abee930f20e1c1add4f4e7,german_fires_lepzig_locations__4b9adfca6363169c0f71790b31646395
an den tierkliniken,"An den Tierkliniken in Leipzig, Germany",51.3197054,12.3914868,1,,,,Diplomat,"An den Tierkliniken in Leipzig, Germany",,german_fires_lepzig_locations,e89e8f432695264279b0b1d478a0688a,german_fires_lepzig_locations__a57d8bf868b810657ac35d499cb23949
an der alten muhle,"An der Alten Muhle in Leipzig, Germany",51.4109166,12.4188806,1,,,,Legislator,"An der Alten Muhle in Leipzig, Germany",,german_fires_lepzig_locations,09c3562093f28cedd17506c79998b5e2,german_fires_lepzig_locations__1d3f7d8cb9d8032fd0daef3c80a8fc3a
an der alten post,"An der Alten Post in Leipzig, Germany",51.3250872,12.2534944,1,,,,ForeignMinister,"An der Alten Post in Leipzig, Germany",,german_fires_lepzig_locations,e876802884cdcabcdc01f8794f5e7973,german_fires_lepzig_locations__64baeb84a65441f7b74a97ed969c53af
an der autobahn,"An der Autobahn in Leipzig, Germany",51.4034792,12.398341,1,,,,Exec,"An der Autobahn in Leipzig, Germany",,german_fires_lepzig_locations,c7575bb41cc5da79bc8bb13e0e8153a0,german_fires_lepzig_locations__79553f398c271a08c4873b35ec52cad4
an der badeanlage,"An der Badeanlage in Leipzig, Germany",51.2789972,12.4651815,1,,,,LegislativeCommittee,"An der Badeanlage in Leipzig, Germany",,german_fires_lepzig_locations,e72c3df4813c430da08a11f6a82e0ffd,german_fires_lepzig_locations__edf1c293b4cb2291244f1ceb2ffba5d3
an der bahn,"An der Bahn in Leipzig, Germany",51.3454111,12.4874964,1,,,,FTO,"An der Bahn in Leipzig, Germany",,german_fires_lepzig_locations,36cfb603327606ebbc7223b073e43807,german_fires_lepzig_locations__115c0dcb47bd2f3a0f2590c83658fc21
an der brauerei,"An der Brauerei in Leipzig, Germany",51.2838466,12.4572949,1,,,,Consulates,"An der Brauerei in Leipzig, Germany",,german_fires_lepzig_locations,d08e8e7d93f0a79340cae9c48152cf91,german_fires_lepzig_locations__1c5f9a22ca18b78e3e57b209af3aa730
an der brucke,"An der Brucke in Leipzig, Germany",51.3539885,12.2654568,1,,,,Media,"An der Brucke in Leipzig, Germany",,german_fires_lepzig_locations,362133349306418cbf6acb6d7fe6f23d,german_fires_lepzig_locations__08250420f9b5f74bc0d1b169643b1748
an der burgaue,"An der Burgaue in Leipzig, Germany",51.3567512,12.3007973,1,,,,space,"An der Burgaue in Leipzig, Germany",,german_fires_lepzig_locations,6127e26bcf3941fb50d230124abbf613,german_fires_lepzig_locations__ffe26c82da2777a62ae3ff700d6824ad
an der eisenbahn,"An der Eisenbahn in Leipzig, Germany",51.2830667,12.46918,1,,,,AAEntity,"An der Eisenbahn in Leipzig, Germany",,german_fires_lepzig_locations,fbe61d853a0726ed4eba27f261265f8e,german_fires_lepzig_locations__77b8972a0246b11c9fbddfb275c3e9f3
an der elster,"An der Elster in Leipzig, Germany",51.3718371,12.3116045,1,,,,AAEntity,"An der Elster in Leipzig, Germany",,german_fires_lepzig_locations,34ea37cf17decb9a7b20cba228a10f71,german_fires_lepzig_locations__047d6d360149c762d4993103e6b6f8e3
an der fasanerie,"An der Fasanerie in Leipzig, Germany",51.3898925,12.4455785,1,,,,Person,"An der Fasanerie in Leipzig, Germany",,german_fires_lepzig_locations,62e869d90905798ccffaf34581dd3fa2,german_fires_lepzig_locations__e9622310579d880e6ac73445f04bd8f7
an der feuerwache,"An der Feuerwache in Leipzig, Germany",51.3594248,12.2810711,1,,,,Keyphrase,"An der Feuerwache in Leipzig, Germany",,german_fires_lepzig_locations,722550755a1638fa6da9291e0f4088f8,german_fires_lepzig_locations__9e2336a2f7e11411300e814eaaa1accf
an der feuerwehr,"An der Feuerwehr in Leipzig, Germany",51.3846389,12.2806233,1,,,,CompanyKeyword,"An der Feuerwehr in Leipzig, Germany",,german_fires_lepzig_locations,b1dfedc0aa7eca7ba8b3179a3f3cbffb,german_fires_lepzig_locations__8080d91e687af3435191d4f527ae4bca
an der friedenseiche,"An der Friedenseiche in Leipzig, Germany",51.3436029,12.2519179,1,,,,ForeignMinister,"An der Friedenseiche in Leipzig, Germany",,german_fires_lepzig_locations,241ac5c0651d09f48404346158af997f,german_fires_lepzig_locations__7ff490502afb67468c714e1a0c461324
an der ganseweide,"An der Ganseweide in Leipzig, Germany",51.3039013,12.4688418,1,,,,Exec,"An der Ganseweide in Leipzig, Germany",,german_fires_lepzig_locations,dcfa0c7452a4a30424eeba7f7a4dc6a0,german_fires_lepzig_locations__4e11ebeafd809d963bee23e04ae4272e
an der gartnerei,"An der Gartnerei in Leipzig, Germany",51.324017,12.2581795,1,,,,Keyphrase,"An der Gartnerei in Leipzig, Germany",,german_fires_lepzig_locations,fb7102142e4566215283e145d586b8d1,german_fires_lepzig_locations__95d566ca6a063d7c298a402ace04b855
an der grundschule,"An der Grundschule in Leipzig, Germany",51.3414736,12.4876091,1,,,,CompanyKeyword,"An der Grundschule in Leipzig, Germany",,german_fires_lepzig_locations,0ad94026c4d178ce46072e5abdc4c176,german_fires_lepzig_locations__5050762e972500622f475aceb4db74b7
an der hainkirche,"An der Hainkirche in Leipzig, Germany",51.3846555,12.265535,1,,,,CompanyKeyword,"An der Hainkirche in Leipzig, Germany",,german_fires_lepzig_locations,1483f0a2cc4c4fdad3ab766a812477e9,german_fires_lepzig_locations__d9fd34cd5852c26a2d558252370f0db3
an der hauptstrasse,"An der Hauptstrasse in Leipzig, Germany",51.4202496,12.4513096,1,,,,ForeignMinistry,"An der Hauptstrasse in Leipzig, Germany",,german_fires_lepzig_locations,2212c12f22a81aa160ba8d6bb93b12ac,german_fires_lepzig_locations__cc6ff8aa150f2f98180f31e104d10b11
an der hebemarchte,"An der Hebemarchte in Leipzig, Germany",51.3219014,12.4945565,1,,,,ForeignMinister,"An der Hebemarchte in Leipzig, Germany",,german_fires_lepzig_locations,2a6e25d24793a1b10242a13bf74a8cbb,german_fires_lepzig_locations__2a001a5c9b3831e97a7cd59e37c80d60
an der hufschmiede,"An der Hufschmiede in Leipzig, Germany",51.3935593,12.3396761,1,,,,space,"An der Hufschmiede in Leipzig, Germany",,german_fires_lepzig_locations,844badd7019a8aa63d0161e3740f35cb,german_fires_lepzig_locations__19ace6807e7ceb51d124996e41d59e51
an der kaninchenfarm,"An der Kaninchenfarm in Leipzig, Germany",51.3428538,12.2942708,1,,,,Refinery,"An der Kaninchenfarm in Leipzig, Germany",,german_fires_lepzig_locations,c026f69529262f362b03e23778a6ec0a,german_fires_lepzig_locations__ea7e21b67cf39df128a349c361a4c735
an der kegelbahn,"An der Kegelbahn in Leipzig, Germany",51.3786851,12.3332275,1,,,,Person,"An der Kegelbahn in Leipzig, Germany",,german_fires_lepzig_locations,c3024d0ec94b16f7bb703c78c7a2fe60,german_fires_lepzig_locations__b77be4c71d4276d3d29c8a958dd78c04
an der kirche,"An der Kirche in Leipzig, Germany",51.3080202,12.464252,1,,,,LegislativeCommittee,"An der Kirche in Leipzig, Germany",,german_fires_lepzig_locations,11162a1e0d2363e8c859527749337221,german_fires_lepzig_locations__4c55ca7f6686d9d21cef129086bb0718
an der kirchgasse,"An der Kirchgasse in Leipzig, Germany",51.3220708,12.2578016,1,,,,DiplomaticFacilities,"An der Kirchgasse in Leipzig, Germany",,german_fires_lepzig_locations,51e34dd15a0956ef277eb86158a866dc,german_fires_lepzig_locations__2c09e17dfaecd11a14f9c5e935fe3f8c
an der kirschallee,"An der Kirschallee in Leipzig, Germany",51.3879806,12.2756448,1,,,,Consulates,"An der Kirschallee in Leipzig, Germany",,german_fires_lepzig_locations,39f5bc883242989c902094247bfa8098,german_fires_lepzig_locations__a0b53c1a2e44cf6adc2ac62bb5d410fb
an der kotsche,"An der Kotsche in Leipzig, Germany",51.3092907,12.2680837,1,,,,ForeignMinister,"An der Kotsche in Leipzig, Germany",,german_fires_lepzig_locations,1c0f0adabf79284481d98e00a6890cfa,german_fires_lepzig_locations__b603a6e624f91ab487ed1907b870ccbb
an der lautsche,"An der Lautsche in Leipzig, Germany",51.309834,12.2634793,1,,,,Refinery,"An der Lautsche in Leipzig, Germany",,german_fires_lepzig_locations,7446ba386c7df3becf4fd653f6827776,german_fires_lepzig_locations__177e442ef1c7798d9b9767eb15f29fe4
an der lehde,"An der Lehde in Leipzig, Germany",51.3456137,12.3213812,1,,,,CompanyKeyword,"An der Lehde in Leipzig, Germany",,german_fires_lepzig_locations,6e4f9301af1840bf0dcee05a5c6a8261,german_fires_lepzig_locations__e2f601a584aa515bf7dffe65e80af52f
an der luppe,"An der Luppe in Leipzig, Germany",51.3569356,12.3033938,1,,,,Wells,"An der Luppe in Leipzig, Germany",,german_fires_lepzig_locations,1d7519ca43b5677fdb18d63c1c05a28a,german_fires_lepzig_locations__105eafe41207d33544eabd2ae3144d7b
an der marchenwiese,"An der Marchenwiese in Leipzig, Germany",51.3061752,12.3964745,1,,,,AAEntity,"An der Marchenwiese in Leipzig, Germany",,german_fires_lepzig_locations,5db2c1b992c90320defcceb1456a50e3,german_fires_lepzig_locations__f40a6c95bfcf933fe2db28cfab076ccd
an der merseburger strasse,"An der Merseburger Strasse in Leipzig, Germany",51.3436138,12.2898334,1,,,,CompanyKeyword,"An der Merseburger Strasse in Leipzig, Germany",,german_fires_lepzig_locations,2c5741eaaa75a2e456fdf4b7b7180973,german_fires_lepzig_locations__87a482d31c8f57b0125227c01dfe9b81
an der meusdorfer hohe,"An der Meusdorfer Hohe in Leipzig, Germany",51.2979951,12.4445836,1,,,,LegislativeCommittee,"An der Meusdorfer Hohe in Leipzig, Germany",,german_fires_lepzig_locations,0a28b5c77f73c8f0f5bbf6d00390d018,german_fires_lepzig_locations__983d537acef7792fbc6de002a1916b69
an der milchinsel,"An der Milchinsel in Leipzig, Germany",51.3430164,12.3915335,1,,,,FTO,"An der Milchinsel in Leipzig, Germany",,german_fires_lepzig_locations,4f8d55f4f4b8f7c9974f5592860839c8,german_fires_lepzig_locations__2d801da1a773febcfc5cca2140c73511
an der muhle,"An der Muhle in Leipzig, Germany",51.3102299,12.455049,1,,,,Consulates,"An der Muhle in Leipzig, Germany",,german_fires_lepzig_locations,8ad52418924976d65470504f6447f596,german_fires_lepzig_locations__18e8aaa0136cfc517f75df4900b85808
an der muhlpleisse,"An der Muhlpleisse in Leipzig, Germany",51.2914184,12.3888717,1,,,,Exec,"An der Muhlpleisse in Leipzig, Germany",,german_fires_lepzig_locations,0e08ce28adbcc0601b8b91ae077b28f8,german_fires_lepzig_locations__bb52c892c80837c4db35c2b3fd3c94b0
an der parthe,"An der Parthe in Leipzig, Germany",51.3724466,12.4185642,1,,,,space,"An der Parthe in Leipzig, Germany",,german_fires_lepzig_locations,54e61574d9a03abef618657563c3e388,german_fires_lepzig_locations__f397ad8dc6863f6460ac3eed46f5aa88
an der passage,"An der Passage in Leipzig, Germany",51.4002928,12.3973563,1,,,,Person,"An der Passage in Leipzig, Germany",,german_fires_lepzig_locations,00b243f76df80f7375026b0374c40046,german_fires_lepzig_locations__3aa57c1d090f6f233df9d0fb0700acd0
an der querbreite,"An der Querbreite in Leipzig, Germany",51.3713876,12.3882741,1,,,,Keyphrase,"An der Querbreite in Leipzig, Germany",,german_fires_lepzig_locations,ed5788689b937e305b90b3dc634b7ff6,german_fires_lepzig_locations__6dffe2e787a6f63b10956b30eed2791d
an der rehwiese,"An der Rehwiese in Leipzig, Germany",51.3562388,12.2601094,1,,,,Legislator,"An der Rehwiese in Leipzig, Germany",,german_fires_lepzig_locations,56fa24aef89ab7116da4e9b8f1090cb6,german_fires_lepzig_locations__3cdcac213bac3fdc1ecfd408878d0bca
an der rietzschke,"An der Rietzschke in Leipzig, Germany",51.3160458,12.4426124,1,,,,FTO,"An der Rietzschke in Leipzig, Germany",,german_fires_lepzig_locations,d5fe57b7d7496b71fe18eee8825b7c16,german_fires_lepzig_locations__1be62954dbf3f74935b2556f59d46d45
an der salzstrasse,"An der Salzstrasse in Leipzig, Germany",51.3981572,12.2932151,1,,,,Diplomat,"An der Salzstrasse in Leipzig, Germany",,german_fires_lepzig_locations,a5db9cbe1af1d50c74e8b27806fa96df,german_fires_lepzig_locations__168972474b5f3a91f74f2057aed195f1
an der sandgrube,"An der Sandgrube in Leipzig, Germany",51.3401482,12.2606576,1,,,,Diplomat,"An der Sandgrube in Leipzig, Germany",,german_fires_lepzig_locations,2a9f4f7c8f8fbcdbb2d8ecc9575a0dbf,german_fires_lepzig_locations__86089fec3d4995d288155ce44d632ddc
an der schaferei,"An der Schaferei in Leipzig, Germany",51.3819882,12.2813018,1,,,,Diplomat,"An der Schaferei in Leipzig, Germany",,german_fires_lepzig_locations,de38bc2cf3aea05cc695921bcb03f6e6,german_fires_lepzig_locations__1cecb64ca444a639d3f070786250cb59
an der schule,"An der Schule in Leipzig, Germany",51.3915843,12.3333418,1,,,,Pipeline,"An der Schule in Leipzig, Germany",,german_fires_lepzig_locations,f434ae537b0f03d4e7f7ef5e17e25749,german_fires_lepzig_locations__2e8bd5b9d81afddcd35ee90b0470cd65
an der siedlung,"An der Siedlung in Leipzig, Germany",51.2788383,12.4710742,1,,,,Person,"An der Siedlung in Leipzig, Germany",,german_fires_lepzig_locations,361fc2a70066de2af32ad7053c6cd63f,german_fires_lepzig_locations__51613da29e9c85221326861806d8daec
an der spitze,"An der Spitze in Leipzig, Germany",51.2743409,12.4755218,1,,,,Media,"An der Spitze in Leipzig, Germany",,german_fires_lepzig_locations,ac33f5a90b0c557daf4ce4a8a455ea72,german_fires_lepzig_locations__d88d303831a93b631c2f990898dd56c3
an der streuobstwiese,"An der Streuobstwiese in Leipzig, Germany",51.3430963,12.3161681,1,,,,FTO,"An der Streuobstwiese in Leipzig, Germany",,german_fires_lepzig_locations,54897e8b0f190473157b35055109f5df,german_fires_lepzig_locations__6802916b44b63add5b0baca46a2a3925
an der tabaksmuhle,"An der Tabaksmuhle in Leipzig, Germany",51.3127692,12.4036826,1,,,,IndustryTerm,"An der Tabaksmuhle in Leipzig, Germany",,german_fires_lepzig_locations,931002a552cbf884531c229dc760c025,german_fires_lepzig_locations__ade0443636d95d17886faf97d14b499b
an der teichmuhle,"An der Teichmuhle in Leipzig, Germany",51.3406608,12.2514056,1,,,,Media,"An der Teichmuhle in Leipzig, Germany",,german_fires_lepzig_locations,fd99916fde5b69d1d81287523d533063,german_fires_lepzig_locations__8bf3b354ae084cb9baf568dd69348c84
an der telle,"An der Telle in Leipzig, Germany",51.3770416,12.3077411,1,,,,AAEntity,"An der Telle in Leipzig, Germany",,german_fires_lepzig_locations,f85bef0e3ca0b18973a282e0dea75811,german_fires_lepzig_locations__8c2c60c7513d0ea96c67c1f16add4a51
an der trift,"An der Trift in Leipzig, Germany",51.2731858,12.458978,1,,,,Pipeline,"An der Trift in Leipzig, Germany",,german_fires_lepzig_locations,e22031305b85c21885b153777bcd8963,german_fires_lepzig_locations__b95415edebb82b53764485a3d96b2ea8
an der verfassungslinde,"An der Verfassungslinde in Leipzig, Germany",51.3352822,12.3850455,1,,,,Wells,"An der Verfassungslinde in Leipzig, Germany",,german_fires_lepzig_locations,4bc81736f3aa834edd177e2dff0dec48,german_fires_lepzig_locations__fdaa06d083ff91a7d94275aa302d9f62
an der vogelweide,"An der Vogelweide in Leipzig, Germany",51.3421994,12.2700072,1,,,,CompanyKeyword,"An der Vogelweide in Leipzig, Germany",,german_fires_lepzig_locations,7ba26496b267d9b4aa5dd135ce9348e4,german_fires_lepzig_locations__847e2da2e4b5ebcc9cfe7972bd99c64e
an der weide,"An der Weide in Leipzig, Germany",51.3096609,12.523132,1,,,,Media,"An der Weide in Leipzig, Germany",,german_fires_lepzig_locations,bc8483b764764ba77e74ae4080aa9933,german_fires_lepzig_locations__026b38691dd90d218d0f493ea34c45fa
an der wendeschleife,"An der Wendeschleife in Leipzig, Germany",51.2576063,12.2999573,1,,,,Diplomat,"An der Wendeschleife in Leipzig, Germany",,german_fires_lepzig_locations,cd5eac8346dd9fca91268ead593ce3c4,german_fires_lepzig_locations__f87a6eb27c199cab9c40e701fe166b83
an der windmuhle,"An der Windmuhle in Leipzig, Germany",51.3916453,12.3385899,1,,,,Diplomat,"An der Windmuhle in Leipzig, Germany",,german_fires_lepzig_locations,4f98b7c56415a25bc97934959bbe1a6d,german_fires_lepzig_locations__fa31ec247ea614d73098f117d6f9ad85
andersenweg,"Andersenweg in Leipzig, Germany",51.3117927,12.3993371,1,,,,FTO,"Andersenweg in Leipzig, Germany",,german_fires_lepzig_locations,75a6ea335c2924d66719cb14adde8f06,german_fires_lepzig_locations__90dd57346baf3c525344e86ee67aca23
andreasstrasse,"Andreasstrasse in Leipzig, Germany",51.3192967,12.3750588,1,,,,Media,"Andreasstrasse in Leipzig, Germany",,german_fires_lepzig_locations,3e8e3263b166e43d2cad209f756fc401,german_fires_lepzig_locations__60627be7977f6c71b90251962d6b73cb
andromedaweg,"Andromedaweg in Leipzig, Germany",51.3193325,12.2713141,1,,,,CompanyKeyword,"Andromedaweg in Leipzig, Germany",,german_fires_lepzig_locations,f8546272e2afba9066f0da57b65c45ed,german_fires_lepzig_locations__50e228448cb231a612fb0f0e45c2c750
anemonenweg,"Anemonenweg in Leipzig, Germany",51.3323846,12.4392597,1,,,,Legislator,"Anemonenweg in Leipzig, Germany",,german_fires_lepzig_locations,98560405edf5f108187c5773404ba346,german_fires_lepzig_locations__15efaecc149cb8f17fe8300d8027fdbd
angerstrasse,"Angerstrasse in Leipzig, Germany",51.3396794,12.3369548,1,,,,ForeignMinistry,"Angerstrasse in Leipzig, Germany",,german_fires_lepzig_locations,1c8af00d048221c64a3f1589568e8cba,german_fires_lepzig_locations__a92bdf128c154e987c6d2e3c2b2d836f
anhalter strasse,"Anhalter Strasse in Leipzig, Germany",51.3635604,12.3896206,1,,,,AAEntity,"Anhalter Strasse in Leipzig, Germany",,german_fires_lepzig_locations,8842ccc4ac5a6c06bcea0f16cac0255b,german_fires_lepzig_locations__9e0c7f8cedbd6bc838a479d2a0ec65fa
anna-kuhnow-strasse,"Anna-Kuhnow-Strasse in Leipzig, Germany",51.3373762,12.4025779,1,,,,Person,"Anna-Kuhnow-Strasse in Leipzig, Germany",,german_fires_lepzig_locations,f0fd047f418174b9f3a800d409486d3e,german_fires_lepzig_locations__97d994355ada92f32791a0267f4e68a1
annaberger strasse,"Annaberger Strasse in Leipzig, Germany",51.3726115,12.3314386,1,,,,Organization,"Annaberger Strasse in Leipzig, Germany",,german_fires_lepzig_locations,0a4d12e54da7db8ec8d391f6363b8ef9,german_fires_lepzig_locations__2bff81647d032d5388bb5c704496559d
annenstrasse,"Annenstrasse in Leipzig, Germany",51.3440951,12.4215961,1,,,,Exec,"Annenstrasse in Leipzig, Germany",,german_fires_lepzig_locations,658dad66d95e270b58a5534dbee458d1,german_fires_lepzig_locations__8e963d9be1e5dbcb06da47d8888d7204
ansbacher strasse,"Ansbacher Strasse in Leipzig, Germany",51.3099427,12.2841433,1,,,,ForeignMinistry,"Ansbacher Strasse in Leipzig, Germany",,german_fires_lepzig_locations,469a0cf055214830b4df9da980cf99f2,german_fires_lepzig_locations__46a6c18d7d3240022d73b483a5b8b393
anton-bruckner-allee,"Anton-Bruckner-Allee in Leipzig, Germany",51.3308745,12.3564036,1,,,,Diplomat,"Anton-Bruckner-Allee in Leipzig, Germany",,german_fires_lepzig_locations,c48f97de1e9ad1eae6036b0963797914,german_fires_lepzig_locations__c22eb910977747ae2d40b0168522814c
anton-zickmantel-strasse,"Anton-Zickmantel-Strasse in Leipzig, Germany",51.3026042,12.3230414,1,,,,FTO,"Anton-Zickmantel-Strasse in Leipzig, Germany",,german_fires_lepzig_locations,5b35d3e262a0ada083219810f888c0a2,german_fires_lepzig_locations__d65dc2f2e799565b0e11adda8d850295
antonienstrasse,"Antonienstrasse in Leipzig, Germany",51.3203494,12.3247339,1,,,,Refinery,"Antonienstrasse in Leipzig, Germany",,german_fires_lepzig_locations,5ee67486e2dbf5aa89b4a28385cea102,german_fires_lepzig_locations__fc0009b25f10584a9a32bcff0a8e35af
anzengruberstrasse,"Anzengruberstrasse in Leipzig, Germany",51.2987317,12.4323785,1,,,,Exec,"Anzengruberstrasse in Leipzig, Germany",,german_fires_lepzig_locations,1cf78ef4522040bd5cf92632edcc3d01,german_fires_lepzig_locations__9b7018dc5c6ae7d62f9a12c6e596d1e8
apels garten,"Apels Garten in Leipzig, Germany",51.3387034,12.3689144,1,,,,CompanyKeyword,"Apels Garten in Leipzig, Germany",,german_fires_lepzig_locations,715287f3e716b2f182ef59ce111269ec,german_fires_lepzig_locations__8158851cba4ec23c4b2da30503527118
apelsteinweg,"Apelsteinweg in Leipzig, Germany",51.32061,12.4746248,1,,,,ForeignMinister,"Apelsteinweg in Leipzig, Germany",,german_fires_lepzig_locations,c1e5ba99beff88ff771a5077ef96f31b,german_fires_lepzig_locations__8db15b4b91f41cd4a336767d0eaa8d1e
apelstrasse,"Apelstrasse in Leipzig, Germany",51.3561181,12.3892895,1,,,,Consulates,"Apelstrasse in Leipzig, Germany",,german_fires_lepzig_locations,48a8d068aac5e43f8decf59215d6e904,german_fires_lepzig_locations__128dbef66cd92c29773832c9ccb2af9b
apitzschgasse,"Apitzschgasse in Leipzig, Germany",51.3015144,12.3778714,1,,,,ForeignMinistry,"Apitzschgasse in Leipzig, Germany",,german_fires_lepzig_locations,fdd9f0daef7c8c1ac25fe9c789db171d,german_fires_lepzig_locations__fba7fd94274d524fe2efdd4301c9bc9c
apoldaer weg,"Apoldaer Weg in Leipzig, Germany",51.3225296,12.2833903,1,,,,ForeignMinistry,"Apoldaer Weg in Leipzig, Germany",,german_fires_lepzig_locations,db4b14103574b1b4bf6c43c64318f4da,german_fires_lepzig_locations__b33a2d8c720c1c4955b0c535fbb499c9
apelstrasse,"Apelstrasse in Leipzig, Germany",51.3561181,12.3892895,1,,,,LegislativeCommittee,"Apelstrasse in Leipzig, Germany",,german_fires_lepzig_locations,caf7f4de872d8d20fb6ceaf5b84d3f3e,german_fires_lepzig_locations__128dbef66cd92c29773832c9ccb2af9b
aprikosenweg,"Aprikosenweg in Leipzig, Germany",51.3262058,12.4432215,1,,,,Legislator,"Aprikosenweg in Leipzig, Germany",,german_fires_lepzig_locations,eff7fd1b9f19fddd334dabd2ff03521c,german_fires_lepzig_locations__877db4f0303013cdab869558f8e030f9
ariostiweg,"Ariostiweg in Leipzig, Germany",51.3214845,12.477854,1,,,,space,"Ariostiweg in Leipzig, Germany",,german_fires_lepzig_locations,55d69f0d204d79a373c62704852cd7b7,german_fires_lepzig_locations__f94308dffd5d4459efbfb43fd38c80c8
arlandbogen,"Arlandbogen in Leipzig, Germany",51.3045434,12.4372797,1,,,,Pipeline,"Arlandbogen in Leipzig, Germany",,german_fires_lepzig_locations,f0f1a2bd5e26f592c16262633f7be3ea,german_fires_lepzig_locations__b71f8cdda3d5bd98bff980c8ef5a2bb4
arminiushof,"Arminiushof in Leipzig, Germany",51.3097384,12.3993034,1,,,,Media,"Arminiushof in Leipzig, Germany",,german_fires_lepzig_locations,a15e0d307a0faa228f528b929552d506,german_fires_lepzig_locations__d450b73c85ed631532895e00a2103be6
arndts hufen,"Arndts Hufen in Leipzig, Germany",51.3832741,12.4443505,1,,,,ForeignMinister,"Arndts Hufen in Leipzig, Germany",,german_fires_lepzig_locations,96b2036e95cc46f1de8b44f3fa13cc57,german_fires_lepzig_locations__184b89dff437f01f2e9595d57a89466e
arndtstrasse,"Arndtstrasse in Leipzig, Germany",51.3231682,12.3734666,1,,,,Keyphrase,"Arndtstrasse in Leipzig, Germany",,german_fires_lepzig_locations,f2d843654bc15ad9b8a8a082b5d5fe2e,german_fires_lepzig_locations__8c3ca19f595b931996595e17cece3e5e
arnikaweg,"Arnikaweg in Leipzig, Germany",51.3889153,12.2698468,1,,,,Exec,"Arnikaweg in Leipzig, Germany",,german_fires_lepzig_locations,3dc3d5a0c9a9d2b1df4cb8dbc9637951,german_fires_lepzig_locations__e73950c568e03003a5637501bf6e7c71
arno-bruchardt-strasse,"Arno-Bruchardt-Strasse in Leipzig, Germany",51.3986839,12.3777214,1,,,,Organization,"Arno-Bruchardt-Strasse in Leipzig, Germany",,german_fires_lepzig_locations,d2c42c02acff995defedcbb7972e7f97,german_fires_lepzig_locations__3259cd1dc5f4007b4a8da987a9180e25
arno-nitzsche-strasse,"Arno-Nitzsche-Strasse in Leipzig, Germany",51.3096562,12.3842972,1,,,,Keyphrase,"Arno-Nitzsche-Strasse in Leipzig, Germany",,german_fires_lepzig_locations,ac98063373333759216abbf6bbdc998b,german_fires_lepzig_locations__850c8c87b213572d01c7992eb014f1d1
arnoldplatz,"Arnoldplatz in Leipzig, Germany",51.3479408,12.4928504,1,,,,Media,"Arnoldplatz in Leipzig, Germany",,german_fires_lepzig_locations,0c0c5f4716e67db6090e5b03b6045892,german_fires_lepzig_locations__7e25056bec6ae9d61350510451f6e8fc
arnoldstrasse,"Arnoldstrasse in Leipzig, Germany",51.3211187,12.4190271,1,,,,Consulates,"Arnoldstrasse in Leipzig, Germany",,german_fires_lepzig_locations,42b5fdd482a0ea8f8f0f9804a35f2ced,german_fires_lepzig_locations__981097130ac5960a46efdf3b0bb6f26b
