german_text,caption_text,lat,lon,ranking,default location,default_lat,default_lon,ENTITY_LABEL,name,description,source,source_identifier,global_identifier
zentrum,"Zentrum in Pinneberg, Germany",53.6545234,9.7937654,2,"Pinneberg, Germany",53.65497138,9.795451517,DiplomaticFacilities,"Zentrum in Pinneberg, Germany",,german_fires_pinneberg_locations,c7b0701dc4099f02bf490a06f9608876,german_fires_pinneberg_locations__c7b0701dc4099f02bf490a06f9608876
quellental,"Quellental in Pinneberg, Germany",53.6515359,9.7997992,2,,,,Legislator,"Quellental in Pinneberg, Germany",,german_fires_pinneberg_locations,19711e56f1839861b075ffd0ec7c4a5a,german_fires_pinneberg_locations__19711e56f1839861b075ffd0ec7c4a5a
thesdorf,"Thesdorf in Pinneberg, Germany",53.6443394,9.8139236,2,,,,AAEntity,"Thesdorf in Pinneberg, Germany",,german_fires_pinneberg_locations,458cdc6b1ba545447a4e0b6e07695715,german_fires_pinneberg_locations__458cdc6b1ba545447a4e0b6e07695715
eggerstedt,"Eggerstedt in Pinneberg, Germany",53.6373815,9.7912995,2,,,,AAEntity,"Eggerstedt in Pinneberg, Germany",,german_fires_pinneberg_locations,1fa82014aeb945e59d52ded83c572985,german_fires_pinneberg_locations__1fa82014aeb945e59d52ded83c572985
pinnebergerdorf,"Pinnebergerdorf in Pinneberg, Germany",53.6448791,9.8090233,2,,,,Keyphrase,"Pinnebergerdorf in Pinneberg, Germany",,german_fires_pinneberg_locations,8799aea481385113d4638dee2458e1f6,german_fires_pinneberg_locations__8799aea481385113d4638dee2458e1f6
pinneberg-nord,"Pinneberg-Nord in Pinneberg, Germany",53.6785943,9.7973626,2,,,,Organization,"Pinneberg-Nord in Pinneberg, Germany",,german_fires_pinneberg_locations,9a83e60c54897d0b51cf8c9f201b7da7,german_fires_pinneberg_locations__9a83e60c54897d0b51cf8c9f201b7da7
ratsberg,"Ratsberg in Pinneberg, Germany",53.6761742,9.7912948,2,,,,Organization,"Ratsberg in Pinneberg, Germany",,german_fires_pinneberg_locations,d539f87c735c4fafa1a12e9ca6291b9e,german_fires_pinneberg_locations__d539f87c735c4fafa1a12e9ca6291b9e
waldenau-datum,"Waldenau-Datum in Pinneberg, Germany",53.6203517,9.7896782,2,,,,Legislator,"Waldenau-Datum in Pinneberg, Germany",,german_fires_pinneberg_locations,d63dc6c1c5f0e23a3e71a3fb2f97bbca,german_fires_pinneberg_locations__d63dc6c1c5f0e23a3e71a3fb2f97bbca
ahornstr.,"Ahornstrasse in Pinneberg, Germany",53.6679516,9.791749,1,,,,space,"Ahornstrasse in Pinneberg, Germany",,german_fires_pinneberg_locations,43555aaf30311ec99e5d455de5be00d9,german_fires_pinneberg_locations__43555aaf30311ec99e5d455de5be00d9
akazienweg,"Akazienweg in Pinneberg, Germany",53.6681671,9.790292,1,,,,Legislator,"Akazienweg in Pinneberg, Germany",,german_fires_pinneberg_locations,017f2959b3f836c569dba3cbe580000a,german_fires_pinneberg_locations__017f2959b3f836c569dba3cbe580000a
albert-schweitzer-str.,"Albert-Schweitzer-Strasse in Pinneberg, Germany",53.6452892,9.8031183,1,,,,space,"Albert-Schweitzer-Strasse in Pinneberg, Germany",,german_fires_pinneberg_locations,3bc4c8d3425bfcc116554b0b5eb13289,german_fires_pinneberg_locations__3bc4c8d3425bfcc116554b0b5eb13289
am drosteipark,"Am Drosteipark in Pinneberg, Germany",53.6599396,9.7971032,1,,,,FTO,"Am Drosteipark in Pinneberg, Germany",,german_fires_pinneberg_locations,54dbd5871793d5826c2fd43ceaffde3d,german_fires_pinneberg_locations__54dbd5871793d5826c2fd43ceaffde3d
am hafen,"Am Hafen in Pinneberg, Germany",53.6635434,9.7846578,1,,,,Consulates,"Am Hafen in Pinneberg, Germany",,german_fires_pinneberg_locations,1bf31e5acf420795602da374af8cc8ce,german_fires_pinneberg_locations__1bf31e5acf420795602da374af8cc8ce
am hang,"Am Hang in Pinneberg, Germany",53.6759285,9.7950405,1,,,,AAEntity,"Am Hang in Pinneberg, Germany",,german_fires_pinneberg_locations,43d377c107c6b07b204a4219e8622057,german_fires_pinneberg_locations__43d377c107c6b07b204a4219e8622057
am hunengrab,"Am Hunengrab in Pinneberg, Germany",53.6355954,9.7890079,1,,,,News,"Am Hunengrab in Pinneberg, Germany",,german_fires_pinneberg_locations,a99416b706016126412080af2aaf5455,german_fires_pinneberg_locations__a99416b706016126412080af2aaf5455
am rathaus,"Am Rathaus in Pinneberg, Germany",53.6618601,9.7986658,1,,,,Shipping,"Am Rathaus in Pinneberg, Germany",,german_fires_pinneberg_locations,0a55e229807c9bc2f75d6138a6f2022d,german_fires_pinneberg_locations__0a55e229807c9bc2f75d6138a6f2022d
am schaferkamp,"Am Schaferkamp in Pinneberg, Germany",53.6491353,9.7753721,1,,,,News,"Am Schaferkamp in Pinneberg, Germany",,german_fires_pinneberg_locations,acd382b2d5571770227d71527dac7906,german_fires_pinneberg_locations__acd382b2d5571770227d71527dac7906
am stadtforst,"Am Stadtforst in Pinneberg, Germany",53.6250313,9.7851898,1,,,,Refinery,"Am Stadtforst in Pinneberg, Germany",,german_fires_pinneberg_locations,23cdc094d61ff796363143f8ba3813af,german_fires_pinneberg_locations__23cdc094d61ff796363143f8ba3813af
am wall,"Am Wall in Pinneberg, Germany",53.6219214,9.7839116,1,,,,IndustryTerm,"Am Wall in Pinneberg, Germany",,german_fires_pinneberg_locations,8a3733e431f3055127bbbe99b9d02bbe,german_fires_pinneberg_locations__8a3733e431f3055127bbbe99b9d02bbe
amselstieg,"Amselstieg in Pinneberg, Germany",53.6463223,9.7800539,1,,,,AAEntity,"Amselstieg in Pinneberg, Germany",,german_fires_pinneberg_locations,2729ef943367f7989b83c656e3d5373d,german_fires_pinneberg_locations__2729ef943367f7989b83c656e3d5373d
an den fischteichen,"An den Fischteichen in Pinneberg, Germany",53.6775325,9.7850805,1,,,,ForeignMinistry,"An den Fischteichen in Pinneberg, Germany",,german_fires_pinneberg_locations,6f08c26f351735a52f784867a98003d8,german_fires_pinneberg_locations__6f08c26f351735a52f784867a98003d8
an der berufsschule,"An der Berufsschule in Pinneberg, Germany",53.6591247,9.8021223,1,,,,IndustryTerm,"An der Berufsschule in Pinneberg, Germany",,german_fires_pinneberg_locations,f46146f67db30eed8a1234bb302b1cb0,german_fires_pinneberg_locations__f46146f67db30eed8a1234bb302b1cb0
an der eiche,"An der Eiche in Pinneberg, Germany",53.6415861,9.7963662,1,,,,Shipping,"An der Eiche in Pinneberg, Germany",,german_fires_pinneberg_locations,9ccef468f6dff2a9718f33748bd2ec78,german_fires_pinneberg_locations__9ccef468f6dff2a9718f33748bd2ec78
an der muhlenau,"An der Muhlenau in Pinneberg, Germany",53.6566741,9.7938818,1,,,,ForeignMinister,"An der Muhlenau in Pinneberg, Germany",,german_fires_pinneberg_locations,93cb88c628ab01f30925cbe042e86c16,german_fires_pinneberg_locations__93cb88c628ab01f30925cbe042e86c16
an der raa,"An der Raa in Pinneberg, Germany",53.6411196,9.7875131,1,,,,FTO,"An der Raa in Pinneberg, Germany",,german_fires_pinneberg_locations,33e2b1fe55609407331ca2ad3c82ee69,german_fires_pinneberg_locations__33e2b1fe55609407331ca2ad3c82ee69
apenrader str.,"Apenrader Strasse in Pinneberg, Germany",53.6740794,9.7977775,1,,,,Refinery,"Apenrader Strasse in Pinneberg, Germany",,german_fires_pinneberg_locations,3500f2e6cd9feeaaa6fb386efc78a374,german_fires_pinneberg_locations__3500f2e6cd9feeaaa6fb386efc78a374
apfelstieg,"Apfelstieg in Pinneberg, Germany",53.6514032,9.7751388,1,,,,Media,"Apfelstieg in Pinneberg, Germany",,german_fires_pinneberg_locations,b11a404e6ddfedd8240d3af62bf17129,german_fires_pinneberg_locations__b11a404e6ddfedd8240d3af62bf17129
aschhooptwiete,"Aschhooptwiete in Pinneberg, Germany",53.6460817,9.7756446,1,,,,LegislativeCommittee,"Aschhooptwiete in Pinneberg, Germany",,german_fires_pinneberg_locations,5a1a36f55f57e8b3d157990f9a999ee1,german_fires_pinneberg_locations__5a1a36f55f57e8b3d157990f9a999ee1
aschhoopweg,"Aschhoopweg in Pinneberg, Germany",53.6468613,9.7746206,1,,,,DiplomaticFacilities,"Aschhoopweg in Pinneberg, Germany",,german_fires_pinneberg_locations,27ca8c0d1fe0cc1c136c02ab65fd3ec1,german_fires_pinneberg_locations__27ca8c0d1fe0cc1c136c02ab65fd3ec1
august-rohmeier-weg,"August-Rohmeier-Weg in Pinneberg, Germany",53.6419362,9.8110574,1,,,,Pipeline,"August-Rohmeier-Weg in Pinneberg, Germany",,german_fires_pinneberg_locations,ffbed5baa14448e208f125a9d925d703,german_fires_pinneberg_locations__ffbed5baa14448e208f125a9d925d703
auhof,"Auhof in Pinneberg, Germany",53.6611971,9.8083716,1,,,,Refinery,"Auhof in Pinneberg, Germany",,german_fires_pinneberg_locations,a5583c3f40b3b59668a1313c56cbdb7b,german_fires_pinneberg_locations__a5583c3f40b3b59668a1313c56cbdb7b
auwiese,"Auwiese in Pinneberg, Germany",53.6610852,9.8058065,1,,,,space,"Auwiese in Pinneberg, Germany",,german_fires_pinneberg_locations,4190d5547ea77f4c3b6433fd8467e924,german_fires_pinneberg_locations__4190d5547ea77f4c3b6433fd8467e924
bahnhofstr.,"Bahnhofstrasse in Pinneberg, Germany",53.6584078,9.7997275,1,,,,Organization,"Bahnhofstrasse in Pinneberg, Germany",,german_fires_pinneberg_locations,fec3fd3bf8d6b2ce3a1663c2465f2f39,german_fires_pinneberg_locations__fec3fd3bf8d6b2ce3a1663c2465f2f39
baumschulenweg,"Baumschulenweg in Pinneberg, Germany",53.6596227,9.8249126,1,,,,Legislator,"Baumschulenweg in Pinneberg, Germany",,german_fires_pinneberg_locations,a5b390f324f3ca98711df1b5544bb159,german_fires_pinneberg_locations__a5b390f324f3ca98711df1b5544bb159
behrensallee,"Behrensallee in Pinneberg, Germany",53.621615,9.7944105,1,,,,Exec,"Behrensallee in Pinneberg, Germany",,german_fires_pinneberg_locations,76dec8efc277f9e7c0fc4fdebc014c1b,german_fires_pinneberg_locations__76dec8efc277f9e7c0fc4fdebc014c1b
bei der schmiede,"Bei der Schmiede in Pinneberg, Germany",53.6435932,9.8143708,1,,,,AAEntity,"Bei der Schmiede in Pinneberg, Germany",,german_fires_pinneberg_locations,28611e2751a6a3255c907019c1e23832,german_fires_pinneberg_locations__28611e2751a6a3255c907019c1e23832
beim ratsberg,"Beim Ratsberg in Pinneberg, Germany",53.6756721,9.7911733,1,,,,AAEntity,"Beim Ratsberg in Pinneberg, Germany",,german_fires_pinneberg_locations,e15f203752819bab5102becdc3d043d2,german_fires_pinneberg_locations__e15f203752819bab5102becdc3d043d2
berliner str.,"Berliner Strasse in Pinneberg, Germany",53.6691407,9.7870751,1,,,,Exec,"Berliner Strasse in Pinneberg, Germany",,german_fires_pinneberg_locations,f4c217f31d7a249b7a2d93e73558ecc8,german_fires_pinneberg_locations__f4c217f31d7a249b7a2d93e73558ecc8
bismarckstr.,"Bismarckstrasse in Pinneberg, Germany",53.6638308,9.796574,1,,,,Pipeline,"Bismarckstrasse in Pinneberg, Germany",,german_fires_pinneberg_locations,54a1fd735b345b91f63857b3264abe35,german_fires_pinneberg_locations__54a1fd735b345b91f63857b3264abe35
blauer kamp,"Blauer Kamp in Pinneberg, Germany",53.6513349,9.7775499,1,,,,News,"Blauer Kamp in Pinneberg, Germany",,german_fires_pinneberg_locations,894b4a4acaec2ad9c10319e85ac28611,german_fires_pinneberg_locations__894b4a4acaec2ad9c10319e85ac28611
bodderbarg,"Bodderbarg in Pinneberg, Germany",53.6501338,9.7907254,1,,,,Exec,"Bodderbarg in Pinneberg, Germany",,german_fires_pinneberg_locations,28aecbe7d6ecfc38909d644726750950,german_fires_pinneberg_locations__28aecbe7d6ecfc38909d644726750950
bogenstr.,"Bogenstrasse in Pinneberg, Germany",53.609755,9.8515561,1,,,,space,"Bogenstrasse in Pinneberg, Germany",,german_fires_pinneberg_locations,41a66cb5cdfcff8126ecf0146d1f43d8,german_fires_pinneberg_locations__41a66cb5cdfcff8126ecf0146d1f43d8
bonhoefferstr.,"Bonhoefferstrasse in Pinneberg, Germany",53.652254,9.7896385,1,,,,Exec,"Bonhoefferstrasse in Pinneberg, Germany",,german_fires_pinneberg_locations,c5971da6a2d3d221d02a92e89582963b,german_fires_pinneberg_locations__c5971da6a2d3d221d02a92e89582963b
borsteler weg,"Borsteler Weg in Pinneberg, Germany",53.6747077,9.7953397,1,,,,Media,"Borsteler Weg in Pinneberg, Germany",,german_fires_pinneberg_locations,cc558af5098fc98fa97f40705c8ac05b,german_fires_pinneberg_locations__cc558af5098fc98fa97f40705c8ac05b
brahmsallee,"Brahmsallee in Pinneberg, Germany",53.6494091,9.7967702,1,,,,Consulates,"Brahmsallee in Pinneberg, Germany",,german_fires_pinneberg_locations,2970f952a19b6f49bb8f93a6aea62202,german_fires_pinneberg_locations__2970f952a19b6f49bb8f93a6aea62202
bredenmoor,"Bredenmoor in Pinneberg, Germany",53.6344987,9.7898257,1,,,,Exec,"Bredenmoor in Pinneberg, Germany",,german_fires_pinneberg_locations,238da0627ca532c688b584304d0ef355,german_fires_pinneberg_locations__238da0627ca532c688b584304d0ef355
breslauer str.,"Breslauer Strasse in Pinneberg, Germany",53.6517435,9.7828899,1,,,,CompanyKeyword,"Breslauer Strasse in Pinneberg, Germany",,german_fires_pinneberg_locations,bfeafffc9506a836a0c8fe52d5e2e7ea,german_fires_pinneberg_locations__bfeafffc9506a836a0c8fe52d5e2e7ea
brokwisch,"Brokwisch in Pinneberg, Germany",53.6747265,9.7969159,1,,,,Media,"Brokwisch in Pinneberg, Germany",,german_fires_pinneberg_locations,2066f6253a55b6f1c2c588812504688f,german_fires_pinneberg_locations__2066f6253a55b6f1c2c588812504688f
brombeertwiete,"Brombeertwiete in Pinneberg, Germany",53.6533853,9.7738408,1,,,,CompanyKeyword,"Brombeertwiete in Pinneberg, Germany",,german_fires_pinneberg_locations,2e2845d2634dd65063130281cd8c2040,german_fires_pinneberg_locations__2e2845d2634dd65063130281cd8c2040
buchenstr.,"Buchenstrasse in Pinneberg, Germany",53.6677462,9.7882934,1,,,,DiplomaticFacilities,"Buchenstrasse in Pinneberg, Germany",,german_fires_pinneberg_locations,2d61e8b8b4dcccaa52171b7d5716fe98,german_fires_pinneberg_locations__2d61e8b8b4dcccaa52171b7d5716fe98
burmeisterallee,"Burmeisterallee in Pinneberg, Germany",53.6502285,9.8054039,1,,,,Media,"Burmeisterallee in Pinneberg, Germany",,german_fires_pinneberg_locations,834b18cee2fc1799b5488822962cd2da,german_fires_pinneberg_locations__834b18cee2fc1799b5488822962cd2da
buschweg,"Buschweg in Pinneberg, Germany",53.622837,9.7839118,1,,,,Organization,"Buschweg in Pinneberg, Germany",,german_fires_pinneberg_locations,46ece7c09cb1bccb982ee0618268c334,german_fires_pinneberg_locations__46ece7c09cb1bccb982ee0618268c334
clara-bartram-weg,"Clara-Bartram-Weg in Pinneberg, Germany",53.6642316,9.7987594,1,,,,Legislator,"Clara-Bartram-Weg in Pinneberg, Germany",,german_fires_pinneberg_locations,93a130b70000ce01d85bf3d9145d6a40,german_fires_pinneberg_locations__93a130b70000ce01d85bf3d9145d6a40
dachspfad,"Dachspfad in Pinneberg, Germany",53.636388,9.792649,1,,,,Wells,"Dachspfad in Pinneberg, Germany",,german_fires_pinneberg_locations,06dc06b46c98ccebf1414c16eb43fb86,german_fires_pinneberg_locations__06dc06b46c98ccebf1414c16eb43fb86
damm,"Damm in Pinneberg, Germany",53.6593085,9.8062726,1,,,,ForeignMinister,"Damm in Pinneberg, Germany",,german_fires_pinneberg_locations,d35dec86651f055058d6d75a10882a1d,german_fires_pinneberg_locations__d35dec86651f055058d6d75a10882a1d
danziger str.,"Danziger Strasse in Pinneberg, Germany",53.6504456,9.7830995,1,,,,Shipping,"Danziger Strasse in Pinneberg, Germany",,german_fires_pinneberg_locations,b0d93aede65b0de48542efb0be645329,german_fires_pinneberg_locations__b0d93aede65b0de48542efb0be645329
datumer chaussee,"Datumer Chaussee in Pinneberg, Germany",53.6336368,9.7985725,1,,,,Person,"Datumer Chaussee in Pinneberg, Germany",,german_fires_pinneberg_locations,2bc9f39bb84995f2b106c64a2f4f07a9,german_fires_pinneberg_locations__2bc9f39bb84995f2b106c64a2f4f07a9
diesterwegstr.,"Diesterwegstrasse in Pinneberg, Germany",53.6437209,9.81097,1,,,,Keyphrase,"Diesterwegstrasse in Pinneberg, Germany",,german_fires_pinneberg_locations,793013eaad61ed521285533ad603eed0,german_fires_pinneberg_locations__793013eaad61ed521285533ad603eed0
dingstatte,"Dingstatte in Pinneberg, Germany",53.6612186,9.796802,1,,,,DiplomaticFacilities,"Dingstatte in Pinneberg, Germany",,german_fires_pinneberg_locations,087a4f54c2c72f6c359b8d957a772e6c,german_fires_pinneberg_locations__087a4f54c2c72f6c359b8d957a772e6c
dr.-carl-goerdeler-str.,"Dr.-Carl-Goerdeler-Strasse in Pinneberg, Germany",53.6550974,9.7881979,1,,,,Organization,"Dr.-Carl-Goerdeler-Strasse in Pinneberg, Germany",,german_fires_pinneberg_locations,ca23464dfdc44c7612cd0c98328b6e43,german_fires_pinneberg_locations__ca23464dfdc44c7612cd0c98328b6e43
dr.-theodor-haubach-str.,"Dr.-Theodor-Haubach-Strasse in Pinneberg, Germany",53.6557261,9.7866551,1,,,,CompanyKeyword,"Dr.-Theodor-Haubach-Strasse in Pinneberg, Germany",,german_fires_pinneberg_locations,bc7745b086742ef9ee08f61838e40bbc,german_fires_pinneberg_locations__bc7745b086742ef9ee08f61838e40bbc
drosselweg,"Drosselweg in Pinneberg, Germany",53.6451094,9.7799003,1,,,,Exec,"Drosselweg in Pinneberg, Germany",,german_fires_pinneberg_locations,6965da70abc5a47c8cc8430bc4878e19,german_fires_pinneberg_locations__6965da70abc5a47c8cc8430bc4878e19
drosteiweg,"Drosteiweg in Pinneberg, Germany",53.6586768,9.7957156,1,,,,Pipeline,"Drosteiweg in Pinneberg, Germany",,german_fires_pinneberg_locations,90572c24d0c4a8949a783becb59db37f,german_fires_pinneberg_locations__90572c24d0c4a8949a783becb59db37f
dupenau eck,"Dupenau Eck in Pinneberg, Germany",53.6418529,9.8165668,1,,,,LegislativeCommittee,"Dupenau Eck in Pinneberg, Germany",,german_fires_pinneberg_locations,2344a9d50b6e99180339c3ad6dde35ba,german_fires_pinneberg_locations__2344a9d50b6e99180339c3ad6dde35ba
dupenwisch,"Dupenwisch in Pinneberg, Germany",53.6458133,9.8224973,1,,,,ForeignMinister,"Dupenwisch in Pinneberg, Germany",,german_fires_pinneberg_locations,a1cf173ed2db86c35617ef1cfb3234e0,german_fires_pinneberg_locations__a1cf173ed2db86c35617ef1cfb3234e0
dusternhoop,"Dusternhoop in Pinneberg, Germany",53.67712,9.7919847,1,,,,ForeignMinister,"Dusternhoop in Pinneberg, Germany",,german_fires_pinneberg_locations,ea209b4c89a0b7f8ce0a13682082c262,german_fires_pinneberg_locations__ea209b4c89a0b7f8ce0a13682082c262
ebertpassage,"Ebertpassage in Pinneberg, Germany",53.662266,9.7950475,1,,,,ForeignMinister,"Ebertpassage in Pinneberg, Germany",,german_fires_pinneberg_locations,2a01bb07ddd04e889b5713d3bb706cf8,german_fires_pinneberg_locations__2a01bb07ddd04e889b5713d3bb706cf8
efeuweg,"Efeuweg in Pinneberg, Germany",53.653917,9.773559,1,,,,AAEntity,"Efeuweg in Pinneberg, Germany",,german_fires_pinneberg_locations,42834285db2169291b01bb0858ae0cc2,german_fires_pinneberg_locations__42834285db2169291b01bb0858ae0cc2
eggerstedt-kaserne,"Eggerstedt-Kaserne in Pinneberg, Germany",53.6373815,9.7912995,1,,,,ForeignMinistry,"Eggerstedt-Kaserne in Pinneberg, Germany",,german_fires_pinneberg_locations,6a022091b25f030ebb922e12c26db53d,german_fires_pinneberg_locations__6a022091b25f030ebb922e12c26db53d
eggerstedter str.,"Eggerstedter Strasse in Pinneberg, Germany",53.6429957,9.7907483,1,,,,Organization,"Eggerstedter Strasse in Pinneberg, Germany",,german_fires_pinneberg_locations,a33d0f4104b1fb78fd6655c3008fe701,german_fires_pinneberg_locations__a33d0f4104b1fb78fd6655c3008fe701
eggerstedter weg,"Eggerstedter Weg in Pinneberg, Germany",53.6434314,9.7821881,1,,,,Exec,"Eggerstedter Weg in Pinneberg, Germany",,german_fires_pinneberg_locations,fb9c2ba6af83788b767a596a8257162d,german_fires_pinneberg_locations__fb9c2ba6af83788b767a596a8257162d
eibenweg,"Eibenweg in Pinneberg, Germany",53.6674536,9.7885591,1,,,,Person,"Eibenweg in Pinneberg, Germany",,german_fires_pinneberg_locations,57d663753b09323a9fcfcfa02016125e,german_fires_pinneberg_locations__57d663753b09323a9fcfcfa02016125e
eichendorffstr.,"Eichendorffstrasse in Pinneberg, Germany",53.6464691,9.792458,1,,,,Shipping,"Eichendorffstrasse in Pinneberg, Germany",,german_fires_pinneberg_locations,a19d87e6841a8a8cb74ae8514fca1110,german_fires_pinneberg_locations__a19d87e6841a8a8cb74ae8514fca1110
eichenhorst,"Eichenhorst in Pinneberg, Germany",53.6509027,9.7967119,1,,,,Exec,"Eichenhorst in Pinneberg, Germany",,german_fires_pinneberg_locations,3d16316dac79702365f96c891f7b61ae,german_fires_pinneberg_locations__3d16316dac79702365f96c891f7b61ae
eichhornchenweg,"Eichhornchenweg in Pinneberg, Germany",53.6351693,9.7970978,1,,,,space,"Eichhornchenweg in Pinneberg, Germany",,german_fires_pinneberg_locations,8f0c0bc790b454cd784af24481f78d87,german_fires_pinneberg_locations__8f0c0bc790b454cd784af24481f78d87
elmshorner str.,"Elmshorner Strasse in Pinneberg, Germany",53.6728502,9.793964,1,,,,Wells,"Elmshorner Strasse in Pinneberg, Germany",,german_fires_pinneberg_locations,4b37477311c5d942ed7c94c2ef1bcca8,german_fires_pinneberg_locations__4b37477311c5d942ed7c94c2ef1bcca8
elsterstieg,"Elsterstieg in Pinneberg, Germany",53.6487986,9.7781416,1,,,,Person,"Elsterstieg in Pinneberg, Germany",,german_fires_pinneberg_locations,53eb039d9f921d71f2c1d5f706b4245a,german_fires_pinneberg_locations__53eb039d9f921d71f2c1d5f706b4245a
emma-bohnemann-str.,"Emma-Bohnemann-Strasse in Pinneberg, Germany",53.653369,9.7973779,1,,,,CompanyKeyword,"Emma-Bohnemann-Strasse in Pinneberg, Germany",,german_fires_pinneberg_locations,7bde68e90ac1fa01123996260c1cd27d,german_fires_pinneberg_locations__7bde68e90ac1fa01123996260c1cd27d
erlenkratt,"Erlenkratt in Pinneberg, Germany",53.6323834,9.7942649,1,,,,FTO,"Erlenkratt in Pinneberg, Germany",,german_fires_pinneberg_locations,5d8d9593c431242c8fcb70f913aae532,german_fires_pinneberg_locations__5d8d9593c431242c8fcb70f913aae532
eschenweg,"Eschenweg in Pinneberg, Germany",53.6685865,9.7928843,1,,,,ForeignMinister,"Eschenweg in Pinneberg, Germany",,german_fires_pinneberg_locations,69511da6175f7831af45d21d221fe881,german_fires_pinneberg_locations__69511da6175f7831af45d21d221fe881
fahltskamp,"Fahltskamp in Pinneberg, Germany",53.6584481,9.8059016,1,,,,space,"Fahltskamp in Pinneberg, Germany",,german_fires_pinneberg_locations,c2d6c12a74d255d0cfe9dd48a9fb5c50,german_fires_pinneberg_locations__c2d6c12a74d255d0cfe9dd48a9fb5c50
fahltsweide,"Fahltsweide in Pinneberg, Germany",53.6536171,9.810505,1,,,,ForeignMinister,"Fahltsweide in Pinneberg, Germany",,german_fires_pinneberg_locations,98ade093ed28de02e7dd066aa8033ce4,german_fires_pinneberg_locations__98ade093ed28de02e7dd066aa8033ce4
fasanenweg,"Fasanenweg in Pinneberg, Germany",53.6477169,9.779079,1,,,,LegislativeCommittee,"Fasanenweg in Pinneberg, Germany",,german_fires_pinneberg_locations,2d1a2a86d0a2c4dd0829c9948fa77f83,german_fires_pinneberg_locations__2d1a2a86d0a2c4dd0829c9948fa77f83
fehrsstr.,"Fehrsstrasse in Pinneberg, Germany",53.6553414,9.7800848,1,,,,News,"Fehrsstrasse in Pinneberg, Germany",,german_fires_pinneberg_locations,077c7a091311577ee9eb4d98b46319b1,german_fires_pinneberg_locations__077c7a091311577ee9eb4d98b46319b1
feldstr.,"Feldstrasse in Pinneberg, Germany",53.6520908,9.7880304,1,,,,FTO,"Feldstrasse in Pinneberg, Germany",,german_fires_pinneberg_locations,b14ddb0bddf697f3774df93dad7c711d,german_fires_pinneberg_locations__b14ddb0bddf697f3774df93dad7c711d
finkeneck,"Finkeneck in Pinneberg, Germany",53.6456812,9.7826921,1,,,,Refinery,"Finkeneck in Pinneberg, Germany",,german_fires_pinneberg_locations,e19baac777145cc3b93a6dabbaae029e,german_fires_pinneberg_locations__e19baac777145cc3b93a6dabbaae029e
fischhausener str.,"Fischhausener Strasse in Pinneberg, Germany",53.6508696,9.7847119,1,,,,ForeignMinistry,"Fischhausener Strasse in Pinneberg, Germany",,german_fires_pinneberg_locations,aaa770936b9c8b1e3660609d380809ff,german_fires_pinneberg_locations__aaa770936b9c8b1e3660609d380809ff
flagentwiete,"Flagentwiete in Pinneberg, Germany",53.6711249,9.7900282,1,,,,Refinery,"Flagentwiete in Pinneberg, Germany",,german_fires_pinneberg_locations,7994623c877fb80007620a35831d52e4,german_fires_pinneberg_locations__7994623c877fb80007620a35831d52e4
flensburger str.,"Flensburger Strasse in Pinneberg, Germany",53.6749584,9.800012,1,,,,Shipping,"Flensburger Strasse in Pinneberg, Germany",,german_fires_pinneberg_locations,30438b3aec9b32ab59fb61cc82c9e172,german_fires_pinneberg_locations__30438b3aec9b32ab59fb61cc82c9e172
forststr.,"Forststrasse in Pinneberg, Germany",53.6245066,9.7836132,1,,,,Refinery,"Forststrasse in Pinneberg, Germany",,german_fires_pinneberg_locations,a7811e65bf7c7fb51aa66942aa286968,german_fires_pinneberg_locations__a7811e65bf7c7fb51aa66942aa286968
friedenstr.,"Friedenstrasse in Pinneberg, Germany",53.6681206,9.7961067,1,,,,Keyphrase,"Friedenstrasse in Pinneberg, Germany",,german_fires_pinneberg_locations,6ab104b06a26abdde523bd97b39af74f,german_fires_pinneberg_locations__6ab104b06a26abdde523bd97b39af74f
friedrich-ebert-str.,"Friedrich-Ebert-Strasse in Pinneberg, Germany",53.6627328,9.797353,1,,,,ForeignMinister,"Friedrich-Ebert-Strasse in Pinneberg, Germany",,german_fires_pinneberg_locations,9002d0e1d1774c55dc7194fb11723559,german_fires_pinneberg_locations__9002d0e1d1774c55dc7194fb11723559
fritz-reuter-str.,"Fritz-Reuter-Strasse in Pinneberg, Germany",53.6452371,9.8001202,1,,,,Shipping,"Fritz-Reuter-Strasse in Pinneberg, Germany",,german_fires_pinneberg_locations,af0426d4176862b96e1675830955ec76,german_fires_pinneberg_locations__af0426d4176862b96e1675830955ec76
frobelstr.,"Frobelstrasse in Pinneberg, Germany",53.6437968,9.8042255,1,,,,Exec,"Frobelstrasse in Pinneberg, Germany",,german_fires_pinneberg_locations,75a2cd1d6b0e8beb2e01c9955acaa6fe,german_fires_pinneberg_locations__75a2cd1d6b0e8beb2e01c9955acaa6fe
fuchsbau,"Fuchsbau in Pinneberg, Germany",53.6364705,9.7982507,1,,,,LegislativeCommittee,"Fuchsbau in Pinneberg, Germany",,german_fires_pinneberg_locations,083f75127f97f566194258f7d4ca9b1e,german_fires_pinneberg_locations__083f75127f97f566194258f7d4ca9b1e
gehrstucken,"Gehrstucken in Pinneberg, Germany",53.6461743,9.8232192,1,,,,Consulates,"Gehrstucken in Pinneberg, Germany",,german_fires_pinneberg_locations,5a5db7f4eadc00b6d4c24974be7fd0b4,german_fires_pinneberg_locations__5a5db7f4eadc00b6d4c24974be7fd0b4
generaloberst-beck-str.,"Generaloberst-Beck-Strasse in Pinneberg, Germany",53.6540163,9.7888754,1,,,,Organization,"Generaloberst-Beck-Strasse in Pinneberg, Germany",,german_fires_pinneberg_locations,d465f343c263fb922eea7710524f6b4d,german_fires_pinneberg_locations__d465f343c263fb922eea7710524f6b4d
gerhart-hauptmann-str.,"Gerhart-Hauptmann-Strasse in Pinneberg, Germany",53.6461054,9.7999972,1,,,,Organization,"Gerhart-Hauptmann-Strasse in Pinneberg, Germany",,german_fires_pinneberg_locations,8e7e73b9e200c1309d6307cf5abe9002,german_fires_pinneberg_locations__8e7e73b9e200c1309d6307cf5abe9002
ginsterweg,"Ginsterweg in Pinneberg, Germany",53.6512176,9.7742531,1,,,,AAEntity,"Ginsterweg in Pinneberg, Germany",,german_fires_pinneberg_locations,3388952b97ff0bbb050f0e501a6d4c0f,german_fires_pinneberg_locations__3388952b97ff0bbb050f0e501a6d4c0f
goethestr.,"Goethestrasse in Pinneberg, Germany",53.6484874,9.7901345,1,,,,LegislativeCommittee,"Goethestrasse in Pinneberg, Germany",,german_fires_pinneberg_locations,8515be3fd8cc30d2b85247037a0dcae9,german_fires_pinneberg_locations__8515be3fd8cc30d2b85247037a0dcae9
grenzdamm,"Grenzdamm in Pinneberg, Germany",53.6625242,9.8105219,1,,,,Pipeline,"Grenzdamm in Pinneberg, Germany",,german_fires_pinneberg_locations,646c7948d4ee209f8a01f27e208bf7a7,german_fires_pinneberg_locations__646c7948d4ee209f8a01f27e208bf7a7
grotenkamp,"Grotenkamp in Pinneberg, Germany",53.644274,9.7853316,1,,,,News,"Grotenkamp in Pinneberg, Germany",,german_fires_pinneberg_locations,c90222b1d83ba32d42b06f7f3db7c5c8,german_fires_pinneberg_locations__c90222b1d83ba32d42b06f7f3db7c5c8
grosser reitweg,"Grosser Reitweg in Pinneberg, Germany",53.6474462,9.7990542,1,,,,Person,"Grosser Reitweg in Pinneberg, Germany",,german_fires_pinneberg_locations,2e148da2964ca065167dd9d9fa9ffca8,german_fires_pinneberg_locations__2e148da2964ca065167dd9d9fa9ffca8
grosses feld,"Grosses Feld in Pinneberg, Germany",53.6222323,9.7902056,1,,,,Consulates,"Grosses Feld in Pinneberg, Germany",,german_fires_pinneberg_locations,3d52cf707fbcdf9ba0d9206d994ac5a3,german_fires_pinneberg_locations__3d52cf707fbcdf9ba0d9206d994ac5a3
gruner kamp,"Gruner Kamp in Pinneberg, Germany",53.6499493,9.7813665,1,,,,Diplomat,"Gruner Kamp in Pinneberg, Germany",,german_fires_pinneberg_locations,0f0de04330d6128900e2e97e92d6eebd,german_fires_pinneberg_locations__0f0de04330d6128900e2e97e92d6eebd
gustav-strobel-ring,"Gustav-Strobel-Ring in Pinneberg, Germany",53.6544008,9.7751769,1,,,,LegislativeCommittee,"Gustav-Strobel-Ring in Pinneberg, Germany",,german_fires_pinneberg_locations,6cd590802988d5a9680c321d35d9bc14,german_fires_pinneberg_locations__6cd590802988d5a9680c321d35d9bc14
gartnerstr.,"Gartnerstrasse in Pinneberg, Germany",53.6317648,9.8585365,1,,,,Pipeline,"Gartnerstrasse in Pinneberg, Germany",,german_fires_pinneberg_locations,d1b695f261f7a5ae67948278a46f5336,german_fires_pinneberg_locations__d1b695f261f7a5ae67948278a46f5336
haderslebener str.,"Haderslebener Strasse in Pinneberg, Germany",53.6766847,9.8018782,1,,,,ForeignMinister,"Haderslebener Strasse in Pinneberg, Germany",,german_fires_pinneberg_locations,6ebaa2398a82777614987baeec09b4da,german_fires_pinneberg_locations__6ebaa2398a82777614987baeec09b4da
haidberg,"Haidberg in Pinneberg, Germany",53.6711328,9.7972856,1,,,,Wells,"Haidberg in Pinneberg, Germany",,german_fires_pinneberg_locations,107edea1a8c14f06d318326dea03717b,german_fires_pinneberg_locations__107edea1a8c14f06d318326dea03717b
haidkamp,"Haidkamp in Pinneberg, Germany",53.6719172,9.8044613,1,,,,Wells,"Haidkamp in Pinneberg, Germany",,german_fires_pinneberg_locations,3c4ac59e4412c380e9521160b04313c1,german_fires_pinneberg_locations__3c4ac59e4412c380e9521160b04313c1
haidloh,"Haidloh in Pinneberg, Germany",53.6724769,9.7970107,1,,,,Person,"Haidloh in Pinneberg, Germany",,german_fires_pinneberg_locations,c5034f9744f93bec1122e77b9b45d3ad,german_fires_pinneberg_locations__c5034f9744f93bec1122e77b9b45d3ad
hainbuchenkamp,"Hainbuchenkamp in Pinneberg, Germany",53.6537249,9.7721295,1,,,,ForeignMinistry,"Hainbuchenkamp in Pinneberg, Germany",,german_fires_pinneberg_locations,e76c88982960c10967c86291669035e8,german_fires_pinneberg_locations__e76c88982960c10967c86291669035e8
halstenbeker str.,"Halstenbeker Strasse in Pinneberg, Germany",53.6410319,9.819419,1,,,,News,"Halstenbeker Strasse in Pinneberg, Germany",,german_fires_pinneberg_locations,6d89d25b859a9810aef5229935099622,german_fires_pinneberg_locations__6d89d25b859a9810aef5229935099622
hans-bockler-hof,"Hans-Bockler-Hof in Pinneberg, Germany",53.6554836,9.7832403,1,,,,Pipeline,"Hans-Bockler-Hof in Pinneberg, Germany",,german_fires_pinneberg_locations,b5f52721c9f1ca1b83d3dd11011f4019,german_fires_pinneberg_locations__b5f52721c9f1ca1b83d3dd11011f4019
hasenkehre,"Hasenkehre in Pinneberg, Germany",53.6377853,9.7934571,1,,,,News,"Hasenkehre in Pinneberg, Germany",,german_fires_pinneberg_locations,624d81c1aa83d10ef4594f8219971c85,german_fires_pinneberg_locations__624d81c1aa83d10ef4594f8219971c85
hebbelstr.,"Hebbelstrasse in Pinneberg, Germany",53.654339,9.7779947,1,,,,space,"Hebbelstrasse in Pinneberg, Germany",,german_fires_pinneberg_locations,b9f67a4676b1ea13115ca8a17bb4f577,german_fires_pinneberg_locations__b9f67a4676b1ea13115ca8a17bb4f577
heckenkirschenweg,"Heckenkirschenweg in Pinneberg, Germany",53.6530811,9.7723324,1,,,,Keyphrase,"Heckenkirschenweg in Pinneberg, Germany",,german_fires_pinneberg_locations,3c6dcbbb7de333aa14435e7c31f76cd5,german_fires_pinneberg_locations__3c6dcbbb7de333aa14435e7c31f76cd5
heckenrosenstieg,"Heckenrosenstieg in Pinneberg, Germany",53.6555032,9.7738041,1,,,,Legislator,"Heckenrosenstieg in Pinneberg, Germany",,german_fires_pinneberg_locations,fdddb3bf8ce2385fa23ca2946e154751,german_fires_pinneberg_locations__fdddb3bf8ce2385fa23ca2946e154751
heideweg,"Heideweg in Pinneberg, Germany",53.6332892,9.761576,1,,,,Media,"Heideweg in Pinneberg, Germany",,german_fires_pinneberg_locations,f40b6e1a347f158ca2fd09e147026e32,german_fires_pinneberg_locations__f40b6e1a347f158ca2fd09e147026e32
heimkehrerstr.,"Heimkehrerstrasse in Pinneberg, Germany",53.6545315,9.7806623,1,,,,Exec,"Heimkehrerstrasse in Pinneberg, Germany",,german_fires_pinneberg_locations,2aa94bef8842f466203d3fa34fb54841,german_fires_pinneberg_locations__2aa94bef8842f466203d3fa34fb54841
heinrich-boschen-str.,"Heinrich-Boschen-Strasse in Pinneberg, Germany",53.6541076,9.7913718,1,,,,FTO,"Heinrich-Boschen-Strasse in Pinneberg, Germany",,german_fires_pinneberg_locations,df0338bcdd3a4da0960d1085c18ec74d,german_fires_pinneberg_locations__df0338bcdd3a4da0960d1085c18ec74d
heinrich-christiansen-str.,"Heinrich-Christiansen-Strasse in Pinneberg, Germany",53.6527986,9.7892057,1,,,,ForeignMinistry,"Heinrich-Christiansen-Strasse in Pinneberg, Germany",,german_fires_pinneberg_locations,1d4717dfaba5c558aa4633a15da60537,german_fires_pinneberg_locations__1d4717dfaba5c558aa4633a15da60537
heinrich-geick-str.,"Heinrich-Geick-Strasse in Pinneberg, Germany",53.6429129,9.8180693,1,,,,Legislator,"Heinrich-Geick-Strasse in Pinneberg, Germany",,german_fires_pinneberg_locations,65940cb2713045d26d0b44fdc1f03ba9,german_fires_pinneberg_locations__65940cb2713045d26d0b44fdc1f03ba9
heinrich-specht-weg,"Heinrich-Specht-Weg in Pinneberg, Germany",53.6420414,9.808981,1,,,,LegislativeCommittee,"Heinrich-Specht-Weg in Pinneberg, Germany",,german_fires_pinneberg_locations,718a9cfdd88a51f3d935c6fbe0b88897,german_fires_pinneberg_locations__718a9cfdd88a51f3d935c6fbe0b88897
helgolandstr.,"Helgolandstrasse in Pinneberg, Germany",53.6755401,9.7860642,1,,,,IndustryTerm,"Helgolandstrasse in Pinneberg, Germany",,german_fires_pinneberg_locations,cfb85cd9a7fda2e8d56a097d26a22128,german_fires_pinneberg_locations__cfb85cd9a7fda2e8d56a097d26a22128
hellenkamp,"Hellenkamp in Pinneberg, Germany",53.6441784,9.7945036,1,,,,Organization,"Hellenkamp in Pinneberg, Germany",,german_fires_pinneberg_locations,8f939652182d89044c0a31cce460027e,german_fires_pinneberg_locations__8f939652182d89044c0a31cce460027e
herderstr.,"Herderstrasse in Pinneberg, Germany",53.6474614,9.7908742,1,,,,ForeignMinister,"Herderstrasse in Pinneberg, Germany",,german_fires_pinneberg_locations,d87fb2215dd3681b016b626e3c786d6b,german_fires_pinneberg_locations__d87fb2215dd3681b016b626e3c786d6b
hermanstr.,"Hermanstrasse in Pinneberg, Germany",53.6638219,9.7889277,1,,,,ForeignMinistry,"Hermanstrasse in Pinneberg, Germany",,german_fires_pinneberg_locations,c1bba2517d66ae46ef06116a745bbd30,german_fires_pinneberg_locations__c1bba2517d66ae46ef06116a745bbd30
hindenburgdamm,"Hindenburgdamm in Pinneberg, Germany",53.6631955,9.8037841,1,,,,ForeignMinister,"Hindenburgdamm in Pinneberg, Germany",,german_fires_pinneberg_locations,f80c8201d9e3bb102f164134314c6a28,german_fires_pinneberg_locations__f80c8201d9e3bb102f164134314c6a28
hirtenweg,"Hirtenweg in Pinneberg, Germany",53.6497964,9.7948842,1,,,,Diplomat,"Hirtenweg in Pinneberg, Germany",,german_fires_pinneberg_locations,4887fdd58b0e90c0b1a48f571c9b0f60,german_fires_pinneberg_locations__4887fdd58b0e90c0b1a48f571c9b0f60
hofweg,"Hofweg in Pinneberg, Germany",53.6600998,9.7999245,1,,,,Exec,"Hofweg in Pinneberg, Germany",,german_fires_pinneberg_locations,b187f8f50dd20fe0176e3fc54da9bb84,german_fires_pinneberg_locations__b187f8f50dd20fe0176e3fc54da9bb84
hogenkamp,"Hogenkamp in Pinneberg, Germany",53.6405403,9.7929914,1,,,,IndustryTerm,"Hogenkamp in Pinneberg, Germany",,german_fires_pinneberg_locations,8c6b3af37a0c3a5aedf9205ab2b2885f,german_fires_pinneberg_locations__8c6b3af37a0c3a5aedf9205ab2b2885f
hohenbalk,"Hohenbalk in Pinneberg, Germany",53.6411264,9.8002613,1,,,,IndustryTerm,"Hohenbalk in Pinneberg, Germany",,german_fires_pinneberg_locations,0c0c1cd26e1293f412ddee21a72e414f,german_fires_pinneberg_locations__0c0c1cd26e1293f412ddee21a72e414f
hollandweg,"Hollandweg in Pinneberg, Germany",53.6429887,9.802086,1,,,,CompanyKeyword,"Hollandweg in Pinneberg, Germany",,german_fires_pinneberg_locations,2eb140cf11323e1c09ca3aed0a70a1c6,german_fires_pinneberg_locations__2eb140cf11323e1c09ca3aed0a70a1c6
holstenstr.,"Holstenstrasse in Pinneberg, Germany",53.6243361,9.8446446,1,,,,CompanyKeyword,"Holstenstrasse in Pinneberg, Germany",,german_fires_pinneberg_locations,e6f723a19b2e3be328c98a1dc3d31b38,german_fires_pinneberg_locations__e6f723a19b2e3be328c98a1dc3d31b38
holunderweg,"Holunderweg in Pinneberg, Germany",53.6544439,9.7738996,1,,,,Legislator,"Holunderweg in Pinneberg, Germany",,german_fires_pinneberg_locations,1d1b59b2710f6257c198438e4dbe055a,german_fires_pinneberg_locations__1d1b59b2710f6257c198438e4dbe055a
horn,"Horn in Pinneberg, Germany",53.6410371,9.8099359,1,,,,ForeignMinister,"Horn in Pinneberg, Germany",,german_fires_pinneberg_locations,cc283e463c8046bab43c637e29ba067e,german_fires_pinneberg_locations__cc283e463c8046bab43c637e29ba067e
hortensienweg,"Hortensienweg in Pinneberg, Germany",53.6522991,9.7751019,1,,,,Organization,"Hortensienweg in Pinneberg, Germany",,german_fires_pinneberg_locations,b67c3096c450fff1bb55b920eba2d51a,german_fires_pinneberg_locations__b67c3096c450fff1bb55b920eba2d51a
humboldtstr.,"Humboldtstrasse in Pinneberg, Germany",53.6420641,9.8022072,1,,,,Wells,"Humboldtstrasse in Pinneberg, Germany",,german_fires_pinneberg_locations,f9304ef79bb290df8698d2ef5ec388c5,german_fires_pinneberg_locations__f9304ef79bb290df8698d2ef5ec388c5
hunnenbarg,"Hunnenbarg in Pinneberg, Germany",53.6311801,9.7936694,1,,,,FTO,"Hunnenbarg in Pinneberg, Germany",,german_fires_pinneberg_locations,1e9a3e92f466d70a0846d2fb2cb1c4b1,german_fires_pinneberg_locations__1e9a3e92f466d70a0846d2fb2cb1c4b1
hatschenfeld,"Hatschenfeld in Pinneberg, Germany",53.647145,9.8032182,1,,,,Diplomat,"Hatschenfeld in Pinneberg, Germany",,german_fires_pinneberg_locations,6738c26da3de084204d278db70cb8c41,german_fires_pinneberg_locations__6738c26da3de084204d278db70cb8c41
hatschenkamp,"Hatschenkamp in Pinneberg, Germany",53.6484733,9.8024371,1,,,,LegislativeCommittee,"Hatschenkamp in Pinneberg, Germany",,german_fires_pinneberg_locations,16cad8256f77edd31ca25eb5ad4a9a65,german_fires_pinneberg_locations__16cad8256f77edd31ca25eb5ad4a9a65
hornkamp,"Hornkamp in Pinneberg, Germany",53.6734269,9.788596,1,,,,DiplomaticFacilities,"Hornkamp in Pinneberg, Germany",,german_fires_pinneberg_locations,5d77bf6919220f935f7467dc5785edc1,german_fires_pinneberg_locations__5d77bf6919220f935f7467dc5785edc1
igelweg,"Igelweg in Pinneberg, Germany",53.6371948,9.7958129,1,,,,FTO,"Igelweg in Pinneberg, Germany",,german_fires_pinneberg_locations,c76402b28cc4abea6bf083d0b60916dd,german_fires_pinneberg_locations__c76402b28cc4abea6bf083d0b60916dd
im bans,"Im Bans in Pinneberg, Germany",53.6613979,9.8092806,1,,,,ForeignMinister,"Im Bans in Pinneberg, Germany",,german_fires_pinneberg_locations,7348b8321a4b56f849311aaf7b1b78b0,german_fires_pinneberg_locations__7348b8321a4b56f849311aaf7b1b78b0
im hauen,"Im Hauen in Pinneberg, Germany",53.683333,9.766667,1,,,,Keyphrase,"Im Hauen in Pinneberg, Germany",,german_fires_pinneberg_locations,a83f056c015db0df6d7eedcdb650f30b,german_fires_pinneberg_locations__a83f056c015db0df6d7eedcdb650f30b
im rosenfeld,"Im Rosenfeld in Pinneberg, Germany",53.6536862,9.7735363,1,,,,Person,"Im Rosenfeld in Pinneberg, Germany",,german_fires_pinneberg_locations,a77aac1f0c7386a6deb9e122d9ab9a8a,german_fires_pinneberg_locations__a77aac1f0c7386a6deb9e122d9ab9a8a
im stook,"Im Stook in Pinneberg, Germany",53.6603198,9.8104284,1,,,,Media,"Im Stook in Pinneberg, Germany",,german_fires_pinneberg_locations,14b35dcc696a36d95a795f62505e06e9,german_fires_pinneberg_locations__14b35dcc696a36d95a795f62505e06e9
immanuel-kant-str.,"Immanuel-Kant-Strasse in Pinneberg, Germany",53.6494563,9.7906274,1,,,,Pipeline,"Immanuel-Kant-Strasse in Pinneberg, Germany",,german_fires_pinneberg_locations,65ca421ad410b68750aa0d205f41ce32,german_fires_pinneberg_locations__65ca421ad410b68750aa0d205f41ce32
in de simp,"In de Simp in Pinneberg, Germany",53.6178071,9.7932662,1,,,,IndustryTerm,"In de Simp in Pinneberg, Germany",,german_fires_pinneberg_locations,fe454b95d1a1b3db3c5d0a9ced866bef,german_fires_pinneberg_locations__fe454b95d1a1b3db3c5d0a9ced866bef
in der heide,"In der Heide in Pinneberg, Germany",53.7686505,9.8559335,1,,,,space,"In der Heide in Pinneberg, Germany",,german_fires_pinneberg_locations,0607247d5fcea730775226e1ecd53e63,german_fires_pinneberg_locations__0607247d5fcea730775226e1ecd53e63
industriestr.,"Industriestrasse in Pinneberg, Germany",53.6697941,9.7765757,1,,,,Media,"Industriestrasse in Pinneberg, Germany",,german_fires_pinneberg_locations,f6833861f788eb8b8fa94557334d708d,german_fires_pinneberg_locations__f6833861f788eb8b8fa94557334d708d
jansenallee,"Jansenallee in Pinneberg, Germany",53.6560798,9.7815861,1,,,,Consulates,"Jansenallee in Pinneberg, Germany",,german_fires_pinneberg_locations,1144f0990f46555bc70ccf27e95e7a6c,german_fires_pinneberg_locations__1144f0990f46555bc70ccf27e95e7a6c
jappopkamp,"Jappopkamp in Pinneberg, Germany",53.617265,9.793814,1,,,,Legislator,"Jappopkamp in Pinneberg, Germany",,german_fires_pinneberg_locations,e9bba52d4437b6347ff3699ce48c8037,german_fires_pinneberg_locations__e9bba52d4437b6347ff3699ce48c8037
jappopweg,"Jappopweg in Pinneberg, Germany",53.6183749,9.7966742,1,,,,Diplomat,"Jappopweg in Pinneberg, Germany",,german_fires_pinneberg_locations,c75d3236b7e44995805813da84185b5d,german_fires_pinneberg_locations__c75d3236b7e44995805813da84185b5d
jappopweide,"Jappopweide in Pinneberg, Germany",53.6166523,9.7917108,1,,,,Legislator,"Jappopweide in Pinneberg, Germany",,german_fires_pinneberg_locations,7283f034792628cb31de605bd4abd59a,german_fires_pinneberg_locations__7283f034792628cb31de605bd4abd59a
jasminweg,"Jasminweg in Pinneberg, Germany",53.6676409,9.7893262,1,,,,Pipeline,"Jasminweg in Pinneberg, Germany",,german_fires_pinneberg_locations,c502f49297e840d8b8f8bad0eeccd242,german_fires_pinneberg_locations__c502f49297e840d8b8f8bad0eeccd242
jagerkamp,"Jagerkamp in Pinneberg, Germany",53.6566337,9.8069085,1,,,,Keyphrase,"Jagerkamp in Pinneberg, Germany",,german_fires_pinneberg_locations,91cb5f32a97510a7ee068bd0ac104d4d,german_fires_pinneberg_locations__91cb5f32a97510a7ee068bd0ac104d4d
kastanienallee,"Kastanienallee in Pinneberg, Germany",53.6238148,9.7843898,1,,,,AAEntity,"Kastanienallee in Pinneberg, Germany",,german_fires_pinneberg_locations,4140abc443d4ecac0d8ea45d4c00e2ee,german_fires_pinneberg_locations__4140abc443d4ecac0d8ea45d4c00e2ee
katerkamp,"Katerkamp in Pinneberg, Germany",53.6725343,9.7905774,1,,,,Media,"Katerkamp in Pinneberg, Germany",,german_fires_pinneberg_locations,f6ede1fea888b4fcd5a5154e26ad6b16,german_fires_pinneberg_locations__f6ede1fea888b4fcd5a5154e26ad6b16
kiebitzgrund,"Kiebitzgrund in Pinneberg, Germany",53.6474226,9.7873981,1,,,,CompanyKeyword,"Kiebitzgrund in Pinneberg, Germany",,german_fires_pinneberg_locations,d309ffd165b1c9d34ce9d6a6f8d35e39,german_fires_pinneberg_locations__d309ffd165b1c9d34ce9d6a6f8d35e39
kiefernweg,"Kiefernweg in Pinneberg, Germany",53.6346532,9.7869492,1,,,,Organization,"Kiefernweg in Pinneberg, Germany",,german_fires_pinneberg_locations,c9f4944973172eda76f594e4082cfa5e,german_fires_pinneberg_locations__c9f4944973172eda76f594e4082cfa5e
kirchhofsweg,"Kirchhofsweg in Pinneberg, Germany",53.6542366,9.7820764,1,,,,Person,"Kirchhofsweg in Pinneberg, Germany",,german_fires_pinneberg_locations,452a427f2bacd7c987279c61911a96f5,german_fires_pinneberg_locations__452a427f2bacd7c987279c61911a96f5
kirchweg,"Kirchweg in Pinneberg, Germany",53.8011934,9.9784084,1,,,,Pipeline,"Kirchweg in Pinneberg, Germany",,german_fires_pinneberg_locations,70171d9020e7120958b6f8f82fe0db4f,german_fires_pinneberg_locations__70171d9020e7120958b6f8f82fe0db4f
kirscheneck,"Kirscheneck in Pinneberg, Germany",53.6515028,9.7727481,1,,,,News,"Kirscheneck in Pinneberg, Germany",,german_fires_pinneberg_locations,2cb6230d270ee81276d9dd8ad27edd17,german_fires_pinneberg_locations__2cb6230d270ee81276d9dd8ad27edd17
klaus-groth-str.,"Klaus-Groth-Strasse in Pinneberg, Germany",53.6558501,9.7801024,1,,,,space,"Klaus-Groth-Strasse in Pinneberg, Germany",,german_fires_pinneberg_locations,cecf3b77f1118c1f2d824ca75a0a5b9f,german_fires_pinneberg_locations__cecf3b77f1118c1f2d824ca75a0a5b9f
kleiner reitweg,"Kleiner Reitweg in Pinneberg, Germany",53.6459393,9.8088932,1,,,,Person,"Kleiner Reitweg in Pinneberg, Germany",,german_fires_pinneberg_locations,c22246d53823835a96396f2549784798,german_fires_pinneberg_locations__c22246d53823835a96396f2549784798
kolberger str.,"Kolberger Strasse in Pinneberg, Germany",53.6527765,9.7834032,1,,,,CompanyKeyword,"Kolberger Strasse in Pinneberg, Germany",,german_fires_pinneberg_locations,c6802db495805058fd6f343246e38b36,german_fires_pinneberg_locations__c6802db495805058fd6f343246e38b36
koppelstr.,"Koppelstrasse in Pinneberg, Germany",53.6617846,9.7913817,1,,,,DiplomaticFacilities,"Koppelstrasse in Pinneberg, Germany",,german_fires_pinneberg_locations,37749c7ebff437a4a6bb2dc7e9369127,german_fires_pinneberg_locations__37749c7ebff437a4a6bb2dc7e9369127
kornkamp,"Kornkamp in Pinneberg, Germany",53.6785761,9.7926813,1,,,,Media,"Kornkamp in Pinneberg, Germany",,german_fires_pinneberg_locations,705ec4ef8266a3a60b685b69b4032537,german_fires_pinneberg_locations__705ec4ef8266a3a60b685b69b4032537
kremerwisch,"Kremerwisch in Pinneberg, Germany",53.6695911,9.8061781,1,,,,Refinery,"Kremerwisch in Pinneberg, Germany",,german_fires_pinneberg_locations,3646fa3926a17b072eebf62346c61868,german_fires_pinneberg_locations__3646fa3926a17b072eebf62346c61868
kurzer kamp,"Kurzer Kamp in Pinneberg, Germany",53.6511054,9.7791631,1,,,,Refinery,"Kurzer Kamp in Pinneberg, Germany",,german_fires_pinneberg_locations,d6d6bad7a80d4771bf33e5c38e4dab5e,german_fires_pinneberg_locations__d6d6bad7a80d4771bf33e5c38e4dab5e
konigsberger str.,"Konigsberger Strasse in Pinneberg, Germany",53.6508022,9.7858373,1,,,,Legislator,"Konigsberger Strasse in Pinneberg, Germany",,german_fires_pinneberg_locations,a38027c2c30f64aaec033392f8a12773,german_fires_pinneberg_locations__a38027c2c30f64aaec033392f8a12773
kopenicker str.,"Kopenicker Strasse in Pinneberg, Germany",53.6704452,9.7885835,1,,,,Pipeline,"Kopenicker Strasse in Pinneberg, Germany",,german_fires_pinneberg_locations,d53714b19c05c019560d7a483ea03d9e,german_fires_pinneberg_locations__d53714b19c05c019560d7a483ea03d9e
kustriner str.,"Kustriner Strasse in Pinneberg, Germany",53.6517731,9.7867182,1,,,,AAEntity,"Kustriner Strasse in Pinneberg, Germany",,german_fires_pinneberg_locations,5d47cb2061d8d699607852aa1f5c4fd8,german_fires_pinneberg_locations__5d47cb2061d8d699607852aa1f5c4fd8
lange twiete,"Lange Twiete in Pinneberg, Germany",53.651337,9.769934,1,,,,News,"Lange Twiete in Pinneberg, Germany",,german_fires_pinneberg_locations,c6b64b451deaedee068f3a2fa4b693a6,german_fires_pinneberg_locations__c6b64b451deaedee068f3a2fa4b693a6
langenkamp,"Langenkamp in Pinneberg, Germany",53.6424867,9.7828518,1,,,,Diplomat,"Langenkamp in Pinneberg, Germany",,german_fires_pinneberg_locations,e76d04eeae005313d6571d0f4529f401,german_fires_pinneberg_locations__e76d04eeae005313d6571d0f4529f401
leuschnerstr.,"Leuschnerstrasse in Pinneberg, Germany",53.6546555,9.7856378,1,,,,Refinery,"Leuschnerstrasse in Pinneberg, Germany",,german_fires_pinneberg_locations,43c1ec96967910876ff184ca339397ec,german_fires_pinneberg_locations__43c1ec96967910876ff184ca339397ec
ligusterweg,"Ligusterweg in Pinneberg, Germany",53.6495897,9.7701754,1,,,,Keyphrase,"Ligusterweg in Pinneberg, Germany",,german_fires_pinneberg_locations,7ce9c733d9a653b9e7b4d7d0a9005e6a,german_fires_pinneberg_locations__7ce9c733d9a653b9e7b4d7d0a9005e6a
lindenhof,"Lindenhof in Pinneberg, Germany",53.6566465,9.8120932,1,,,,Keyphrase,"Lindenhof in Pinneberg, Germany",,german_fires_pinneberg_locations,716623b07c56dac1665789bfc80cafd1,german_fires_pinneberg_locations__716623b07c56dac1665789bfc80cafd1
lindenstr.,"Lindenstrasse in Pinneberg, Germany",53.6595709,9.798633,1,,,,Exec,"Lindenstrasse in Pinneberg, Germany",,german_fires_pinneberg_locations,fbad1f52711e8876aa50d2bcfc2007cf,german_fires_pinneberg_locations__fbad1f52711e8876aa50d2bcfc2007cf
lohstr.,"Lohstrasse in Pinneberg, Germany",53.6439888,9.8168388,1,,,,Exec,"Lohstrasse in Pinneberg, Germany",,german_fires_pinneberg_locations,786c051b38bde1f715d02b69ba1df0bf,german_fires_pinneberg_locations__786c051b38bde1f715d02b69ba1df0bf
ludwig-meyn-str.,"Ludwig-Meyn-Strasse in Pinneberg, Germany",53.6562496,9.7790402,1,,,,News,"Ludwig-Meyn-Strasse in Pinneberg, Germany",,german_fires_pinneberg_locations,55a167b7e9c013781008b7418847a0d8,german_fires_pinneberg_locations__55a167b7e9c013781008b7418847a0d8
larchenweg,"Larchenweg in Pinneberg, Germany",53.6678878,9.7875427,1,,,,Organization,"Larchenweg in Pinneberg, Germany",,german_fires_pinneberg_locations,4553e61e000da7130a5c37476839159f,german_fires_pinneberg_locations__4553e61e000da7130a5c37476839159f
magnolienweg,"Magnolienweg in Pinneberg, Germany",53.6508578,9.7745855,1,,,,Refinery,"Magnolienweg in Pinneberg, Germany",,german_fires_pinneberg_locations,4c07112923e8248c38517c3389046f47,german_fires_pinneberg_locations__4c07112923e8248c38517c3389046f47
manfred-v.-richthofen-str.,"Manfred-v.-Richthofen-Strasse in Pinneberg, Germany",53.6463327,9.7972378,1,,,,Exec,"Manfred-v.-Richthofen-Strasse in Pinneberg, Germany",,german_fires_pinneberg_locations,e08c58653818f6adb11d5570f0149c28,german_fires_pinneberg_locations__e08c58653818f6adb11d5570f0149c28
manfred-von-richthofen-str.,"Manfred-von-Richthofen-Strasse in Pinneberg, Germany",53.6463327,9.7972378,1,,,,ForeignMinistry,"Manfred-von-Richthofen-Strasse in Pinneberg, Germany",,german_fires_pinneberg_locations,574b7685b1f92d9a5890d0ace2c58bd9,german_fires_pinneberg_locations__574b7685b1f92d9a5890d0ace2c58bd9
marienburger str.,"Marienburger Strasse in Pinneberg, Germany",53.6524529,9.7820072,1,,,,ForeignMinistry,"Marienburger Strasse in Pinneberg, Germany",,german_fires_pinneberg_locations,933190d607d9c9e456244c8ee00ce8b6,german_fires_pinneberg_locations__933190d607d9c9e456244c8ee00ce8b6
meisenstieg,"Meisenstieg in Pinneberg, Germany",53.645596,9.7789968,1,,,,Organization,"Meisenstieg in Pinneberg, Germany",,german_fires_pinneberg_locations,110bc3965a2ce1ae5c7fe52562997a95,german_fires_pinneberg_locations__110bc3965a2ce1ae5c7fe52562997a95
memeler str.,"Memeler Strasse in Pinneberg, Germany",53.6498985,9.7873319,1,,,,Legislator,"Memeler Strasse in Pinneberg, Germany",,german_fires_pinneberg_locations,d8e2d15afb1f6d28d95726f86e30cbb9,german_fires_pinneberg_locations__d8e2d15afb1f6d28d95726f86e30cbb9
mittelkamp,"Mittelkamp in Pinneberg, Germany",53.6492146,9.7767839,1,,,,ForeignMinistry,"Mittelkamp in Pinneberg, Germany",,german_fires_pinneberg_locations,ca1fc96aba9fa9a183b0806dae5b1a7f,german_fires_pinneberg_locations__ca1fc96aba9fa9a183b0806dae5b1a7f
moltkestr.,"Moltkestrasse in Pinneberg, Germany",53.6585682,9.7973263,1,,,,Consulates,"Moltkestrasse in Pinneberg, Germany",,german_fires_pinneberg_locations,f64d94ec3276d863ffdbb16a71cafd7b,german_fires_pinneberg_locations__f64d94ec3276d863ffdbb16a71cafd7b
moorkamp,"Moorkamp in Pinneberg, Germany",53.6509451,9.7803465,1,,,,Legislator,"Moorkamp in Pinneberg, Germany",,german_fires_pinneberg_locations,7fe762830e959462b4ee78f89b86ca32,german_fires_pinneberg_locations__7fe762830e959462b4ee78f89b86ca32
moorweg,"Moorweg in Pinneberg, Germany",53.6227934,9.7794448,1,,,,Wells,"Moorweg in Pinneberg, Germany",,german_fires_pinneberg_locations,0716c3f3dedaefcb138225a9b39cd788,german_fires_pinneberg_locations__0716c3f3dedaefcb138225a9b39cd788
muhlenstr,"Muhlenstrasse in Pinneberg, Germany",53.6579738,9.7767748,1,,,,CompanyKeyword,"Muhlenstrasse in Pinneberg, Germany",,german_fires_pinneberg_locations,940dd764eaf65cecd351fb4fdde861fc,german_fires_pinneberg_locations__940dd764eaf65cecd351fb4fdde861fc
mussentwiete,"Mussentwiete in Pinneberg, Germany",53.6752796,9.7781846,1,,,,Wells,"Mussentwiete in Pinneberg, Germany",,german_fires_pinneberg_locations,f7f7c33e235c38af99fa9b8123e763f1,german_fires_pinneberg_locations__f7f7c33e235c38af99fa9b8123e763f1
nedderfeld,"Nedderfeld in Pinneberg, Germany",53.6728748,9.796961,1,,,,FTO,"Nedderfeld in Pinneberg, Germany",,german_fires_pinneberg_locations,d5e0d60358e1076036627b05e9bf9ecf,german_fires_pinneberg_locations__d5e0d60358e1076036627b05e9bf9ecf
neue str.,"Neue Strasse in Pinneberg, Germany",53.6432422,9.8191545,1,,,,IndustryTerm,"Neue Strasse in Pinneberg, Germany",,german_fires_pinneberg_locations,502aaf35cb303f29fd3a5d994f61874c,german_fires_pinneberg_locations__502aaf35cb303f29fd3a5d994f61874c
nieland,"Nieland in Pinneberg, Germany",53.6210415,9.7903736,1,,,,Media,"Nieland in Pinneberg, Germany",,german_fires_pinneberg_locations,fa1abf5ca46dd5881f52c3d586fe17a4,german_fires_pinneberg_locations__fa1abf5ca46dd5881f52c3d586fe17a4
nienhofener str.,"Nienhofener Strasse in Pinneberg, Germany",53.6215188,9.8007825,1,,,,Wells,"Nienhofener Strasse in Pinneberg, Germany",,german_fires_pinneberg_locations,828da571abe070a690ab365895d529e2,german_fires_pinneberg_locations__828da571abe070a690ab365895d529e2
nienkamp,"Nienkamp in Pinneberg, Germany",53.6440435,9.7830935,1,,,,Exec,"Nienkamp in Pinneberg, Germany",,german_fires_pinneberg_locations,282c3b32316fd0fb6c31bbde776f62a2,german_fires_pinneberg_locations__282c3b32316fd0fb6c31bbde776f62a2
oberer ehmschen,"Oberer Ehmschen in Pinneberg, Germany",53.6539102,9.8165868,1,,,,ForeignMinister,"Oberer Ehmschen in Pinneberg, Germany",,german_fires_pinneberg_locations,a22f6a3268c3765bc17bfecbc93d1f78,german_fires_pinneberg_locations__a22f6a3268c3765bc17bfecbc93d1f78
oberst-v-stauffenberg-str.,"Oberst-v-Stauffenberg-Strasse in Pinneberg, Germany",53.656589,9.7874979,1,,,,Consulates,"Oberst-v-Stauffenberg-Strasse in Pinneberg, Germany",,german_fires_pinneberg_locations,51e7a841b1022213e5f14863277c424a,german_fires_pinneberg_locations__51e7a841b1022213e5f14863277c424a
obstgarten,"Obstgarten in Pinneberg, Germany",53.6745889,9.7919171,1,,,,AAEntity,"Obstgarten in Pinneberg, Germany",,german_fires_pinneberg_locations,3859b3f8463f6d9389057fd17d1b25d3,german_fires_pinneberg_locations__3859b3f8463f6d9389057fd17d1b25d3
oeltingsallee,"Oeltingsallee in Pinneberg, Germany",53.6517742,9.7936492,1,,,,Refinery,"Oeltingsallee in Pinneberg, Germany",,german_fires_pinneberg_locations,89bdfe377462535c81b0eb48b8ac1194,german_fires_pinneberg_locations__89bdfe377462535c81b0eb48b8ac1194
ohlenkamp,"Ohlenkamp in Pinneberg, Germany",53.6720676,9.7881152,1,,,,Shipping,"Ohlenkamp in Pinneberg, Germany",,german_fires_pinneberg_locations,7e52ab2cbe5ce354d65b40764e36631c,german_fires_pinneberg_locations__7e52ab2cbe5ce354d65b40764e36631c
ohlkoppel,"Ohlkoppel in Pinneberg, Germany",53.6203078,9.7887684,1,,,,Refinery,"Ohlkoppel in Pinneberg, Germany",,german_fires_pinneberg_locations,39f5c735dd43f90a25c367f2d3320b11,german_fires_pinneberg_locations__39f5c735dd43f90a25c367f2d3320b11
op de wisch,"Op de Wisch in Pinneberg, Germany",53.6209375,9.8007498,1,,,,LegislativeCommittee,"Op de Wisch in Pinneberg, Germany",,german_fires_pinneberg_locations,a84c426f4f8b1a84f505a2a4092c777a,german_fires_pinneberg_locations__a84c426f4f8b1a84f505a2a4092c777a
ossenpadd,"Ossenpadd in Pinneberg, Germany",53.6796433,9.7879346,1,,,,Pipeline,"Ossenpadd in Pinneberg, Germany",,german_fires_pinneberg_locations,b23b97da7bfc411df92be2287329f639,german_fires_pinneberg_locations__b23b97da7bfc411df92be2287329f639
ossenpadd-nebenweg,"Ossenpadd-Nebenweg in Pinneberg, Germany",53.6765528,9.7912221,1,,,,Organization,"Ossenpadd-Nebenweg in Pinneberg, Germany",,german_fires_pinneberg_locations,e98c05329a5bcd89c0c02b5ac172161d,german_fires_pinneberg_locations__e98c05329a5bcd89c0c02b5ac172161d
osterholder allee,"Osterholder Allee in Pinneberg, Germany",53.650655,9.7993378,1,,,,Person,"Osterholder Allee in Pinneberg, Germany",,german_fires_pinneberg_locations,26894aa20fa42413df505c7f9d9a6ccd,german_fires_pinneberg_locations__26894aa20fa42413df505c7f9d9a6ccd
osterloher weg,"Osterloher Weg in Pinneberg, Germany",53.6807348,9.7851248,1,,,,Person,"Osterloher Weg in Pinneberg, Germany",,german_fires_pinneberg_locations,26062986e06691b2180e1d27d5567507,german_fires_pinneberg_locations__26062986e06691b2180e1d27d5567507
ostermannweg,"Ostermannweg in Pinneberg, Germany",53.6696517,9.7954287,1,,,,Media,"Ostermannweg in Pinneberg, Germany",,german_fires_pinneberg_locations,01da1455a0fd73ae7955461a94d2206d,german_fires_pinneberg_locations__01da1455a0fd73ae7955461a94d2206d
ottostr.,"Ottostrasse in Pinneberg, Germany",53.6656097,9.7873423,1,,,,Organization,"Ottostrasse in Pinneberg, Germany",,german_fires_pinneberg_locations,c9a5bc596b5d5d8add873b531a8a8d9a,german_fires_pinneberg_locations__c9a5bc596b5d5d8add873b531a8a8d9a
pappelweg,"Pappelweg in Pinneberg, Germany",53.667165,9.792602,1,,,,Legislator,"Pappelweg in Pinneberg, Germany",,german_fires_pinneberg_locations,e01d081bb3126ac2b543bddc1c42fecc,german_fires_pinneberg_locations__e01d081bb3126ac2b543bddc1c42fecc
parkstr.,"Parkstrasse in Pinneberg, Germany",53.6196277,9.7912719,1,,,,Pipeline,"Parkstrasse in Pinneberg, Germany",,german_fires_pinneberg_locations,85e6c1147f4a1dd7a4ad921e0da34232,german_fires_pinneberg_locations__85e6c1147f4a1dd7a4ad921e0da34232
paulstr.,"Paulstrasse in Pinneberg, Germany",53.6593344,9.78342,1,,,,space,"Paulstrasse in Pinneberg, Germany",,german_fires_pinneberg_locations,f8dad3a39e568c304cccb527285a84d6,german_fires_pinneberg_locations__f8dad3a39e568c304cccb527285a84d6
peinerweg,"Peinerweg in Pinneberg, Germany",53.6645774,9.7870042,1,,,,Consulates,"Peinerweg in Pinneberg, Germany",,german_fires_pinneberg_locations,1756093f462cc655c7b500f76af5403e,german_fires_pinneberg_locations__1756093f462cc655c7b500f76af5403e
perleberger str.,"Perleberger Strasse in Pinneberg, Germany",53.6738627,9.7850768,1,,,,Keyphrase,"Perleberger Strasse in Pinneberg, Germany",,german_fires_pinneberg_locations,acd818b23c5610d6b54ce71c0e1217b0,german_fires_pinneberg_locations__acd818b23c5610d6b54ce71c0e1217b0
pestalozzistr.,"Pestalozzistrasse in Pinneberg, Germany",53.6426144,9.8091615,1,,,,Legislator,"Pestalozzistrasse in Pinneberg, Germany",,german_fires_pinneberg_locations,98f138957a1957786d4f1bb5b792794b,german_fires_pinneberg_locations__98f138957a1957786d4f1bb5b792794b
pinnaudamm,"Pinnaudamm in Pinneberg, Germany",53.6627482,9.8077296,1,,,,CompanyKeyword,"Pinnaudamm in Pinneberg, Germany",,german_fires_pinneberg_locations,f9a19bfd14c7e8c6d416da3c84539c22,german_fires_pinneberg_locations__f9a19bfd14c7e8c6d416da3c84539c22
platanenweg,"Platanenweg in Pinneberg, Germany",53.6683108,9.7869966,1,,,,IndustryTerm,"Platanenweg in Pinneberg, Germany",,german_fires_pinneberg_locations,3230b482384e66d61f1c9eb53914ec27,german_fires_pinneberg_locations__3230b482384e66d61f1c9eb53914ec27
prisdorfer str.,"Prisdorfer Strasse in Pinneberg, Germany",53.6683882,9.7849241,1,,,,LegislativeCommittee,"Prisdorfer Strasse in Pinneberg, Germany",,german_fires_pinneberg_locations,a5afcf58f9ca284a245c3f1260ece95a,german_fires_pinneberg_locations__a5afcf58f9ca284a245c3f1260ece95a
quellenweg,"Quellenweg in Pinneberg, Germany",53.6488695,9.8002698,1,,,,LegislativeCommittee,"Quellenweg in Pinneberg, Germany",,german_fires_pinneberg_locations,d01529334a8558df59b9613f7e0ef30a,german_fires_pinneberg_locations__d01529334a8558df59b9613f7e0ef30a
quickborner str.,"Quickborner Strasse in Pinneberg, Germany",53.694897,9.8212132,1,,,,Pipeline,"Quickborner Strasse in Pinneberg, Germany",,german_fires_pinneberg_locations,625b6c22f7543f6f64215d66b6cad4f1,german_fires_pinneberg_locations__625b6c22f7543f6f64215d66b6cad4f1
rabenstr.,"Rabenstrasse in Pinneberg, Germany",53.6475683,9.7790356,1,,,,ForeignMinister,"Rabenstrasse in Pinneberg, Germany",,german_fires_pinneberg_locations,d60427ea4065754cab0e31b69ee16b82,german_fires_pinneberg_locations__d60427ea4065754cab0e31b69ee16b82
rahbargkamp,"Rahbargkamp in Pinneberg, Germany",53.6424779,9.7814653,1,,,,CompanyKeyword,"Rahbargkamp in Pinneberg, Germany",,german_fires_pinneberg_locations,c24a5573869bf8525ee9ab2c038fc814,german_fires_pinneberg_locations__c24a5573869bf8525ee9ab2c038fc814
redder,"Redder in Pinneberg, Germany",53.68468,9.6616399,1,,,,Legislator,"Redder in Pinneberg, Germany",,german_fires_pinneberg_locations,eb51bff0e92f348eeb421d81a7b12ef9,german_fires_pinneberg_locations__eb51bff0e92f348eeb421d81a7b12ef9
rehhagen,"Rehhagen in Pinneberg, Germany",53.63571,9.7945474,1,,,,ForeignMinister,"Rehhagen in Pinneberg, Germany",,german_fires_pinneberg_locations,e1538d911ad969b4b19feb6bafa830ce,german_fires_pinneberg_locations__e1538d911ad969b4b19feb6bafa830ce
rehmen,"Rehmen in Pinneberg, Germany",53.6482454,9.8111385,1,,,,ForeignMinistry,"Rehmen in Pinneberg, Germany",,german_fires_pinneberg_locations,a7cc21698c0b5fef71dabe3ce1a7ebfc,german_fires_pinneberg_locations__a7cc21698c0b5fef71dabe3ce1a7ebfc
reichenberger str.,"Reichenberger Strasse in Pinneberg, Germany",53.669714,9.784138,1,,,,Legislator,"Reichenberger Strasse in Pinneberg, Germany",,german_fires_pinneberg_locations,eb9dc09d8e7b5537428de4719f9eefb6,german_fires_pinneberg_locations__eb9dc09d8e7b5537428de4719f9eefb6
rellinger str.,"Rellinger Strasse in Pinneberg, Germany",53.6475337,9.8198438,1,,,,IndustryTerm,"Rellinger Strasse in Pinneberg, Germany",,german_fires_pinneberg_locations,f085f262dff1377db7a2f1d370c79cf5,german_fires_pinneberg_locations__f085f262dff1377db7a2f1d370c79cf5
rethwiese,"Rethwiese in Pinneberg, Germany",53.6508642,9.8018788,1,,,,Refinery,"Rethwiese in Pinneberg, Germany",,german_fires_pinneberg_locations,852ca1f35ee4782034a3d01bf636938a,german_fires_pinneberg_locations__852ca1f35ee4782034a3d01bf636938a
richard-kohn-str.,"Richard-Kohn-Strasse in Pinneberg, Germany",53.6484704,9.7925347,1,,,,FTO,"Richard-Kohn-Strasse in Pinneberg, Germany",,german_fires_pinneberg_locations,5b9457a47df47da0b6af3b5f7f7a152a,german_fires_pinneberg_locations__5b9457a47df47da0b6af3b5f7f7a152a
rixstr.,"Rixstrasse in Pinneberg, Germany",53.6495178,9.7852216,1,,,,Organization,"Rixstrasse in Pinneberg, Germany",,german_fires_pinneberg_locations,baf3565b14a7955118e9f492f8174f6a,german_fires_pinneberg_locations__baf3565b14a7955118e9f492f8174f6a
rockvillestr.,"Rockvillestrasse in Pinneberg, Germany",53.6558573,9.7977261,1,,,,FTO,"Rockvillestrasse in Pinneberg, Germany",,german_fires_pinneberg_locations,74a89de15f8a31a80ad69f4509b1773f,german_fires_pinneberg_locations__74a89de15f8a31a80ad69f4509b1773f
rosenhof,"Rosenhof in Pinneberg, Germany",53.6575335,9.7975749,1,,,,Consulates,"Rosenhof in Pinneberg, Germany",,german_fires_pinneberg_locations,3625efad91f17fc7ac57bb995bdf4171,german_fires_pinneberg_locations__3625efad91f17fc7ac57bb995bdf4171
rotbuchenkamp,"Rotbuchenkamp in Pinneberg, Germany",53.6500544,9.7724065,1,,,,Wells,"Rotbuchenkamp in Pinneberg, Germany",,german_fires_pinneberg_locations,c7ee6d8f44ee202e7a5632adf3990d46,german_fires_pinneberg_locations__c7ee6d8f44ee202e7a5632adf3990d46
rotdorntwiete,"Rotdorntwiete in Pinneberg, Germany",53.6517458,9.7745669,1,,,,Pipeline,"Rotdorntwiete in Pinneberg, Germany",,german_fires_pinneberg_locations,07e422a76758975b3dbdcfe34aa024af,german_fires_pinneberg_locations__07e422a76758975b3dbdcfe34aa024af
rotkehlchenweg,"Rotkehlchenweg in Pinneberg, Germany",53.644281,9.7769898,1,,,,Keyphrase,"Rotkehlchenweg in Pinneberg, Germany",,german_fires_pinneberg_locations,0ca137f07037af0b459d00b34d484ff8,german_fires_pinneberg_locations__0ca137f07037af0b459d00b34d484ff8
rudolf-kinau-str.,"Rudolf-Kinau-Strasse in Pinneberg, Germany",53.6460511,9.8059272,1,,,,Wells,"Rudolf-Kinau-Strasse in Pinneberg, Germany",,german_fires_pinneberg_locations,5dc716eeaad5fd0556022ad7b42c01f8,german_fires_pinneberg_locations__5dc716eeaad5fd0556022ad7b42c01f8
rubekamp,"Rubekamp in Pinneberg, Germany",53.660682,9.7931985,1,,,,AAEntity,"Rubekamp in Pinneberg, Germany",,german_fires_pinneberg_locations,7b26e7d17e29817b9268fb8a3c2f5495,german_fires_pinneberg_locations__7b26e7d17e29817b9268fb8a3c2f5495
saarlandstr.,"Saarlandstrasse in Pinneberg, Germany",53.656122,9.7897223,1,,,,Organization,"Saarlandstrasse in Pinneberg, Germany",,german_fires_pinneberg_locations,991abd00bfaade984b60b29e04c7650e,german_fires_pinneberg_locations__991abd00bfaade984b60b29e04c7650e
sanddornring,"Sanddornring in Pinneberg, Germany",53.6531594,9.77174,1,,,,Pipeline,"Sanddornring in Pinneberg, Germany",,german_fires_pinneberg_locations,a8f1c05de5aa6af0c9967f65b779ff4c,german_fires_pinneberg_locations__a8f1c05de5aa6af0c9967f65b779ff4c
sandkamp,"Sandkamp in Pinneberg, Germany",53.6425895,9.7958708,1,,,,Person,"Sandkamp in Pinneberg, Germany",,german_fires_pinneberg_locations,019db674becbf5d6c6ae351889280c60,german_fires_pinneberg_locations__019db674becbf5d6c6ae351889280c60
sandkuhlen,"Sandkuhlen in Pinneberg, Germany",53.6432189,9.785371,1,,,,Pipeline,"Sandkuhlen in Pinneberg, Germany",,german_fires_pinneberg_locations,5c2654b84f239f8a5e56d9f48cf826e9,german_fires_pinneberg_locations__5c2654b84f239f8a5e56d9f48cf826e9
sandstucken,"Sandstucken in Pinneberg, Germany",53.643257,9.7948615,1,,,,DiplomaticFacilities,"Sandstucken in Pinneberg, Germany",,german_fires_pinneberg_locations,5f252eb39f3f37f53b4fc65d1711f931,german_fires_pinneberg_locations__5f252eb39f3f37f53b4fc65d1711f931
schaafweide,"Schaafweide in Pinneberg, Germany",53.622176,9.7920465,1,,,,ForeignMinistry,"Schaafweide in Pinneberg, Germany",,german_fires_pinneberg_locations,e0f82fa29d4ba2b306a3002fa8511dd5,german_fires_pinneberg_locations__e0f82fa29d4ba2b306a3002fa8511dd5
scharpenkamp,"Scharpenkamp in Pinneberg, Germany",53.6427498,9.7841793,1,,,,News,"Scharpenkamp in Pinneberg, Germany",,german_fires_pinneberg_locations,b20cdbad1479c7081024a194ad6076c5,german_fires_pinneberg_locations__b20cdbad1479c7081024a194ad6076c5
schauenburgerstr.,"Schauenburgerstrasse in Pinneberg, Germany",53.6599825,9.793387,1,,,,Wells,"Schauenburgerstrasse in Pinneberg, Germany",,german_fires_pinneberg_locations,45f52a445c1f56c4792997c2ec545743,german_fires_pinneberg_locations__45f52a445c1f56c4792997c2ec545743
schenefelder landstr.,"Schenefelder Landstrasse in Pinneberg, Germany",53.6230081,9.7871757,1,,,,Refinery,"Schenefelder Landstrasse in Pinneberg, Germany",,german_fires_pinneberg_locations,6c253e7b7e4cff43cb761e97c12ebffd,german_fires_pinneberg_locations__6c253e7b7e4cff43cb761e97c12ebffd
schillerstr.,"Schillerstrasse in Pinneberg, Germany",53.6655988,9.7910117,1,,,,ForeignMinistry,"Schillerstrasse in Pinneberg, Germany",,german_fires_pinneberg_locations,05e0688e7808adbca0220eb0d4468441,german_fires_pinneberg_locations__05e0688e7808adbca0220eb0d4468441
schlehenkamp,"Schlehenkamp in Pinneberg, Germany",53.6549887,9.7736611,1,,,,Diplomat,"Schlehenkamp in Pinneberg, Germany",,german_fires_pinneberg_locations,9a9bfc2545e61376df46bef87fb77568,german_fires_pinneberg_locations__9a9bfc2545e61376df46bef87fb77568
schlossstr.,"Schlossstrasse in Pinneberg, Germany",53.6594428,9.7855151,1,,,,Keyphrase,"Schlossstrasse in Pinneberg, Germany",,german_fires_pinneberg_locations,4aab548d50a017b24cb82b4346c6b722,german_fires_pinneberg_locations__4aab548d50a017b24cb82b4346c6b722
schopenhauerstr.,"Schopenhauerstrasse in Pinneberg, Germany",53.64706,9.7917314,1,,,,Pipeline,"Schopenhauerstrasse in Pinneberg, Germany",,german_fires_pinneberg_locations,557a9e21c7eb684decba149d459253c3,german_fires_pinneberg_locations__557a9e21c7eb684decba149d459253c3
schulenhorn,"Schulenhorn in Pinneberg, Germany",53.6714586,9.7859067,1,,,,AAEntity,"Schulenhorn in Pinneberg, Germany",,german_fires_pinneberg_locations,5d11e7eff020daacb1abdca034c55c35,german_fires_pinneberg_locations__5d11e7eff020daacb1abdca034c55c35
schulstr.,"Schulstrasse in Pinneberg, Germany",53.6354619,9.8417771,1,,,,LegislativeCommittee,"Schulstrasse in Pinneberg, Germany",,german_fires_pinneberg_locations,946afe6aaf18bb7f45a62e9b761e991b,german_fires_pinneberg_locations__946afe6aaf18bb7f45a62e9b761e991b
schwardtweg,"Schwardtweg in Pinneberg, Germany",53.6549734,9.7816082,1,,,,Refinery,"Schwardtweg in Pinneberg, Germany",,german_fires_pinneberg_locations,6b087f4a6556a19d6dda966ada016f26,german_fires_pinneberg_locations__6b087f4a6556a19d6dda966ada016f26
schoneberger str.,"Schoneberger Strasse in Pinneberg, Germany",53.6700376,9.786712,1,,,,Person,"Schoneberger Strasse in Pinneberg, Germany",,german_fires_pinneberg_locations,fabf4aa9df953cb400d082d51a826351,german_fires_pinneberg_locations__fabf4aa9df953cb400d082d51a826351
schunenkamp,"Schunenkamp in Pinneberg, Germany",53.6194023,9.7966206,1,,,,AAEntity,"Schunenkamp in Pinneberg, Germany",,german_fires_pinneberg_locations,72d9373fab18d33923ce4d387c28af0a,german_fires_pinneberg_locations__72d9373fab18d33923ce4d387c28af0a
siedlereck,"Siedlereck in Pinneberg, Germany",53.6220156,9.7953371,1,,,,Exec,"Siedlereck in Pinneberg, Germany",,german_fires_pinneberg_locations,68c57fb875fb0c18b497d1172840f5d5,german_fires_pinneberg_locations__68c57fb875fb0c18b497d1172840f5d5
siemensstr.,"Siemensstrasse in Pinneberg, Germany",53.6688325,9.7788057,1,,,,Shipping,"Siemensstrasse in Pinneberg, Germany",,german_fires_pinneberg_locations,0a3bd82c8901cd068c0d153815748050,german_fires_pinneberg_locations__0a3bd82c8901cd068c0d153815748050
spatzeneck,"Spatzeneck in Pinneberg, Germany",53.6481175,9.7811735,1,,,,Wells,"Spatzeneck in Pinneberg, Germany",,german_fires_pinneberg_locations,21c7ee37d4462968b135bc7ab309aa47,german_fires_pinneberg_locations__21c7ee37d4462968b135bc7ab309aa47
starenkamp,"Starenkamp in Pinneberg, Germany",53.6469768,9.7840971,1,,,,Pipeline,"Starenkamp in Pinneberg, Germany",,german_fires_pinneberg_locations,34090ff701a5debae31616941beefe65,german_fires_pinneberg_locations__34090ff701a5debae31616941beefe65
stettiner str.,"Stettiner Strasse in Pinneberg, Germany",53.6532763,9.7834975,1,,,,DiplomaticFacilities,"Stettiner Strasse in Pinneberg, Germany",,german_fires_pinneberg_locations,1209628ccae62366a7f398220c38ccfe,german_fires_pinneberg_locations__1209628ccae62366a7f398220c38ccfe
tangstedter str.,"Tangstedter Strasse in Pinneberg, Germany",53.6627476,9.8195249,1,,,,Person,"Tangstedter Strasse in Pinneberg, Germany",,german_fires_pinneberg_locations,8d81a009f85cbc22d6d19b8d92d2ba2e,german_fires_pinneberg_locations__8d81a009f85cbc22d6d19b8d92d2ba2e
tannenweg,"Tannenweg in Pinneberg, Germany",53.6366312,9.7887561,1,,,,CompanyKeyword,"Tannenweg in Pinneberg, Germany",,german_fires_pinneberg_locations,3b61d29990e334089f63370a9570c899,german_fires_pinneberg_locations__3b61d29990e334089f63370a9570c899
taubenstr.,"Taubenstrasse in Pinneberg, Germany",53.6469359,9.7849577,1,,,,CompanyKeyword,"Taubenstrasse in Pinneberg, Germany",,german_fires_pinneberg_locations,cf8bacaf3d93db16bd0eeeca0701d557,german_fires_pinneberg_locations__cf8bacaf3d93db16bd0eeeca0701d557
theodor-storm-str.,"Theodor-Storm-Strasse in Pinneberg, Germany",53.6457014,9.7986431,1,,,,Pipeline,"Theodor-Storm-Strasse in Pinneberg, Germany",,german_fires_pinneberg_locations,804753c777575f7bbea9a5c5048bf1dd,german_fires_pinneberg_locations__804753c777575f7bbea9a5c5048bf1dd
thesdorfer weg,"Thesdorfer Weg in Pinneberg, Germany",53.6448095,9.7954649,1,,,,AAEntity,"Thesdorfer Weg in Pinneberg, Germany",,german_fires_pinneberg_locations,8214a4463bcc4f7ac1cdda791e859665,german_fires_pinneberg_locations__8214a4463bcc4f7ac1cdda791e859665
tilsiter str.,"Tilsiter Strasse in Pinneberg, Germany",53.6503417,9.7844012,1,,,,CompanyKeyword,"Tilsiter Strasse in Pinneberg, Germany",,german_fires_pinneberg_locations,0e66ff4dda834c4236c62f2ec101feb6,german_fires_pinneberg_locations__0e66ff4dda834c4236c62f2ec101feb6
tondernstr.,"Tondernstrasse in Pinneberg, Germany",53.6740506,9.7984653,1,,,,Shipping,"Tondernstrasse in Pinneberg, Germany",,german_fires_pinneberg_locations,1a5c8b8ce124dfb39edadfe0875e38b0,german_fires_pinneberg_locations__1a5c8b8ce124dfb39edadfe0875e38b0
ulmenallee,"Ulmenallee in Pinneberg, Germany",53.6686934,9.7904045,1,,,,DiplomaticFacilities,"Ulmenallee in Pinneberg, Germany",,german_fires_pinneberg_locations,904871f4d20633d9d115378b5ce272e8,german_fires_pinneberg_locations__904871f4d20633d9d115378b5ce272e8
verbindungsstr.,"Verbindungsstrasse in Pinneberg, Germany",53.6591247,9.8021223,1,,,,ForeignMinister,"Verbindungsstrasse in Pinneberg, Germany",,german_fires_pinneberg_locations,a5675a74a0abd2c787d4b2bc472ddec5,german_fires_pinneberg_locations__a5675a74a0abd2c787d4b2bc472ddec5
vogt-ramcke-str.,"Vogt-Ramcke-Strasse in Pinneberg, Germany",53.643813,9.8090368,1,,,,Media,"Vogt-Ramcke-Strasse in Pinneberg, Germany",,german_fires_pinneberg_locations,743d109e395a6851704def7ce9ad0118,german_fires_pinneberg_locations__743d109e395a6851704def7ce9ad0118
von-ahlefeldt-stieg,"Von-Ahlefeldt-Stieg in Pinneberg, Germany",53.6579281,9.7966701,1,,,,Organization,"Von-Ahlefeldt-Stieg in Pinneberg, Germany",,german_fires_pinneberg_locations,df6b493eda8f687b141fc29e7059705b,german_fires_pinneberg_locations__df6b493eda8f687b141fc29e7059705b
vossbarg,"Vossbarg in Pinneberg, Germany",53.6337189,9.7828884,1,,,,Wells,"Vossbarg in Pinneberg, Germany",,german_fires_pinneberg_locations,8b46016fd147b262c2aa6688a7baecf1,german_fires_pinneberg_locations__8b46016fd147b262c2aa6688a7baecf1
wacholderstieg,"Wacholderstieg in Pinneberg, Germany",53.6583703,9.8115823,1,,,,Keyphrase,"Wacholderstieg in Pinneberg, Germany",,german_fires_pinneberg_locations,0cbc2de97241cc6f832daa6b1434131f,german_fires_pinneberg_locations__0cbc2de97241cc6f832daa6b1434131f
waldenauer marktplatz,"Waldenauer Marktplatz in Pinneberg, Germany",53.6210077,9.7947388,1,,,,FTO,"Waldenauer Marktplatz in Pinneberg, Germany",,german_fires_pinneberg_locations,c8f8acab73bc68868b3be520de7d1cf2,german_fires_pinneberg_locations__c8f8acab73bc68868b3be520de7d1cf2
waldenauer weg,"Waldenauer Weg in Pinneberg, Germany",53.6233552,9.7926986,1,,,,Consulates,"Waldenauer Weg in Pinneberg, Germany",,german_fires_pinneberg_locations,79e2d1c88df2d108b2cc911b98a7c4bf,german_fires_pinneberg_locations__79e2d1c88df2d108b2cc911b98a7c4bf
waldstr.,"Waldstrasse in Pinneberg, Germany",53.6582932,9.8076981,1,,,,ForeignMinistry,"Waldstrasse in Pinneberg, Germany",,german_fires_pinneberg_locations,97f0d3e0be0aaa00f20b858d5397703a,german_fires_pinneberg_locations__97f0d3e0be0aaa00f20b858d5397703a
wedeler weg,"Wedeler Weg in Pinneberg, Germany",53.6502891,9.7755736,1,,,,Exec,"Wedeler Weg in Pinneberg, Germany",,german_fires_pinneberg_locations,64835bba47c7b548b38df617e91d7718,german_fires_pinneberg_locations__64835bba47c7b548b38df617e91d7718
weidenstr.,"Weidenstrasse in Pinneberg, Germany",53.6573988,9.809468,1,,,,Exec,"Weidenstrasse in Pinneberg, Germany",,german_fires_pinneberg_locations,8ba7bab84154faf66392ae85568800b2,german_fires_pinneberg_locations__8ba7bab84154faf66392ae85568800b2
westring,"Westring in Pinneberg, Germany",53.6615889,9.7752767,1,,,,FTO,"Westring in Pinneberg, Germany",,german_fires_pinneberg_locations,32a835cfbe2603852a7ab47dee8fa703,german_fires_pinneberg_locations__32a835cfbe2603852a7ab47dee8fa703
wiedenkamp,"Wiedenkamp in Pinneberg, Germany",53.6718591,9.7900493,1,,,,ForeignMinister,"Wiedenkamp in Pinneberg, Germany",,german_fires_pinneberg_locations,c5ba180d071d8f6d134e4452d2411623,german_fires_pinneberg_locations__c5ba180d071d8f6d134e4452d2411623
wiesengrund,"Wiesengrund in Pinneberg, Germany",53.6501406,9.8009253,1,,,,Pipeline,"Wiesengrund in Pinneberg, Germany",,german_fires_pinneberg_locations,ad571c336f36d15c88219c9b57cb04f9,german_fires_pinneberg_locations__ad571c336f36d15c88219c9b57cb04f9
wiesenweg,"Wiesenweg in Pinneberg, Germany",53.6439908,9.8261058,1,,,,DiplomaticFacilities,"Wiesenweg in Pinneberg, Germany",,german_fires_pinneberg_locations,0ee91f55273e2aadbec4018ba0f67df3,german_fires_pinneberg_locations__0ee91f55273e2aadbec4018ba0f67df3
wilhelm-schmitt-str.,"Wilhelm-Schmitt-Strasse in Pinneberg, Germany",53.6422495,9.8172915,1,,,,LegislativeCommittee,"Wilhelm-Schmitt-Strasse in Pinneberg, Germany",,german_fires_pinneberg_locations,ee16c056381dd9c6665b3528765210f3,german_fires_pinneberg_locations__ee16c056381dd9c6665b3528765210f3
wittekstr.,"Wittekstrasse in Pinneberg, Germany",53.6471494,9.8066132,1,,,,Organization,"Wittekstrasse in Pinneberg, Germany",,german_fires_pinneberg_locations,641ce4ca705be755c956d04607e90cc3,german_fires_pinneberg_locations__641ce4ca705be755c956d04607e90cc3
wulfskamp,"Wulfskamp in Pinneberg, Germany",53.6459984,9.8108605,1,,,,AAEntity,"Wulfskamp in Pinneberg, Germany",,german_fires_pinneberg_locations,f545557f79f073c3d7cb670a12dd215a,german_fires_pinneberg_locations__f545557f79f073c3d7cb670a12dd215a
wuppermanstr.,"Wuppermanstrasse in Pinneberg, Germany",53.6682354,9.7821114,1,,,,Wells,"Wuppermanstrasse in Pinneberg, Germany",,german_fires_pinneberg_locations,fc7bb3c3d6e39b92841724c153071c8b,german_fires_pinneberg_locations__fc7bb3c3d6e39b92841724c153071c8b
ziegeleiweg,"Ziegeleiweg in Pinneberg, Germany",53.6670768,9.7807946,1,,,,Pipeline,"Ziegeleiweg in Pinneberg, Germany",,german_fires_pinneberg_locations,74d242ecf33fb73641f04d72a7ff958d,german_fires_pinneberg_locations__74d242ecf33fb73641f04d72a7ff958d
ff_pinneberg,"Pinneberg, Germany",53.65497138,9.795451517,,,,,Keyphrase,"Pinneberg, Germany",,german_fires_pinneberg_locations,d32be24d8c1480702e53034fa6a9fe13,german_fires_pinneberg_locations__d32be24d8c1480702e53034fa6a9fe13
ahornstrasse,"Ahornstrasse in Pinneberg, Germany",53.6679516,9.791749,1,,,,Diplomat,"Ahornstrasse in Pinneberg, Germany",,german_fires_pinneberg_locations,43555aaf30311ec99e5d455de5be00d9,german_fires_pinneberg_locations__43555aaf30311ec99e5d455de5be00d9
akazienweg,"Akazienweg in Pinneberg, Germany",53.6681671,9.790292,1,,,,Diplomat,"Akazienweg in Pinneberg, Germany",,german_fires_pinneberg_locations,017f2959b3f836c569dba3cbe580000a,german_fires_pinneberg_locations__017f2959b3f836c569dba3cbe580000a
albert-schweitzer-strasse,"Albert-Schweitzer-Strasse in Pinneberg, Germany",53.6452892,9.8031183,1,,,,Wells,"Albert-Schweitzer-Strasse in Pinneberg, Germany",,german_fires_pinneberg_locations,3bc4c8d3425bfcc116554b0b5eb13289,german_fires_pinneberg_locations__3bc4c8d3425bfcc116554b0b5eb13289
am drosteipark,"Am Drosteipark in Pinneberg, Germany",53.6599396,9.7971032,1,,,,LegislativeCommittee,"Am Drosteipark in Pinneberg, Germany",,german_fires_pinneberg_locations,54dbd5871793d5826c2fd43ceaffde3d,german_fires_pinneberg_locations__54dbd5871793d5826c2fd43ceaffde3d
am hafen,"Am Hafen in Pinneberg, Germany",53.6635434,9.7846578,1,,,,CompanyKeyword,"Am Hafen in Pinneberg, Germany",,german_fires_pinneberg_locations,1bf31e5acf420795602da374af8cc8ce,german_fires_pinneberg_locations__1bf31e5acf420795602da374af8cc8ce
am hang,"Am Hang in Pinneberg, Germany",53.6759285,9.7950405,1,,,,space,"Am Hang in Pinneberg, Germany",,german_fires_pinneberg_locations,43d377c107c6b07b204a4219e8622057,german_fires_pinneberg_locations__43d377c107c6b07b204a4219e8622057
am hunengrab,"Am Hunengrab in Pinneberg, Germany",53.6355954,9.7890079,1,,,,Exec,"Am Hunengrab in Pinneberg, Germany",,german_fires_pinneberg_locations,a99416b706016126412080af2aaf5455,german_fires_pinneberg_locations__a99416b706016126412080af2aaf5455
am rathaus,"Am Rathaus in Pinneberg, Germany",53.6618601,9.7986658,1,,,,CompanyKeyword,"Am Rathaus in Pinneberg, Germany",,german_fires_pinneberg_locations,0a55e229807c9bc2f75d6138a6f2022d,german_fires_pinneberg_locations__0a55e229807c9bc2f75d6138a6f2022d
am schaferkamp,"Am Schaferkamp in Pinneberg, Germany",53.6491353,9.7753721,1,,,,FTO,"Am Schaferkamp in Pinneberg, Germany",,german_fires_pinneberg_locations,acd382b2d5571770227d71527dac7906,german_fires_pinneberg_locations__acd382b2d5571770227d71527dac7906
am stadtforst,"Am Stadtforst in Pinneberg, Germany",53.6250313,9.7851898,1,,,,Organization,"Am Stadtforst in Pinneberg, Germany",,german_fires_pinneberg_locations,23cdc094d61ff796363143f8ba3813af,german_fires_pinneberg_locations__23cdc094d61ff796363143f8ba3813af
am wall,"Am Wall in Pinneberg, Germany",53.6219214,9.7839116,1,,,,IndustryTerm,"Am Wall in Pinneberg, Germany",,german_fires_pinneberg_locations,8a3733e431f3055127bbbe99b9d02bbe,german_fires_pinneberg_locations__8a3733e431f3055127bbbe99b9d02bbe
amselstieg,"Amselstieg in Pinneberg, Germany",53.6463223,9.7800539,1,,,,Exec,"Amselstieg in Pinneberg, Germany",,german_fires_pinneberg_locations,2729ef943367f7989b83c656e3d5373d,german_fires_pinneberg_locations__2729ef943367f7989b83c656e3d5373d
an den fischteichen,"An den Fischteichen in Pinneberg, Germany",53.6775325,9.7850805,1,,,,LegislativeCommittee,"An den Fischteichen in Pinneberg, Germany",,german_fires_pinneberg_locations,6f08c26f351735a52f784867a98003d8,german_fires_pinneberg_locations__6f08c26f351735a52f784867a98003d8
an der berufsschule,"An der Berufsschule in Pinneberg, Germany",53.6591247,9.8021223,1,,,,Legislator,"An der Berufsschule in Pinneberg, Germany",,german_fires_pinneberg_locations,f46146f67db30eed8a1234bb302b1cb0,german_fires_pinneberg_locations__f46146f67db30eed8a1234bb302b1cb0
an der eiche,"An der Eiche in Pinneberg, Germany",53.6415861,9.7963662,1,,,,Organization,"An der Eiche in Pinneberg, Germany",,german_fires_pinneberg_locations,9ccef468f6dff2a9718f33748bd2ec78,german_fires_pinneberg_locations__9ccef468f6dff2a9718f33748bd2ec78
an der muhlenau,"An der Muhlenau in Pinneberg, Germany",53.6566741,9.7938818,1,,,,Diplomat,"An der Muhlenau in Pinneberg, Germany",,german_fires_pinneberg_locations,93cb88c628ab01f30925cbe042e86c16,german_fires_pinneberg_locations__93cb88c628ab01f30925cbe042e86c16
an der raa,"An der Raa in Pinneberg, Germany",53.6411196,9.7875131,1,,,,Consulates,"An der Raa in Pinneberg, Germany",,german_fires_pinneberg_locations,33e2b1fe55609407331ca2ad3c82ee69,german_fires_pinneberg_locations__33e2b1fe55609407331ca2ad3c82ee69
apenrader strasse,"Apenrader Strasse in Pinneberg, Germany",53.6740794,9.7977775,1,,,,Wells,"Apenrader Strasse in Pinneberg, Germany",,german_fires_pinneberg_locations,3500f2e6cd9feeaaa6fb386efc78a374,german_fires_pinneberg_locations__3500f2e6cd9feeaaa6fb386efc78a374
apfelstieg,"Apfelstieg in Pinneberg, Germany",53.6514032,9.7751388,1,,,,Legislator,"Apfelstieg in Pinneberg, Germany",,german_fires_pinneberg_locations,b11a404e6ddfedd8240d3af62bf17129,german_fires_pinneberg_locations__b11a404e6ddfedd8240d3af62bf17129
aschhooptwiete,"Aschhooptwiete in Pinneberg, Germany",53.6460817,9.7756446,1,,,,Media,"Aschhooptwiete in Pinneberg, Germany",,german_fires_pinneberg_locations,5a1a36f55f57e8b3d157990f9a999ee1,german_fires_pinneberg_locations__5a1a36f55f57e8b3d157990f9a999ee1
aschhoopweg,"Aschhoopweg in Pinneberg, Germany",53.6468613,9.7746206,1,,,,AAEntity,"Aschhoopweg in Pinneberg, Germany",,german_fires_pinneberg_locations,27ca8c0d1fe0cc1c136c02ab65fd3ec1,german_fires_pinneberg_locations__27ca8c0d1fe0cc1c136c02ab65fd3ec1
august-rohmeier-weg,"August-Rohmeier-Weg in Pinneberg, Germany",53.6419362,9.8110574,1,,,,Pipeline,"August-Rohmeier-Weg in Pinneberg, Germany",,german_fires_pinneberg_locations,ffbed5baa14448e208f125a9d925d703,german_fires_pinneberg_locations__ffbed5baa14448e208f125a9d925d703
auhof,"Auhof in Pinneberg, Germany",53.6611971,9.8083716,1,,,,Person,"Auhof in Pinneberg, Germany",,german_fires_pinneberg_locations,a5583c3f40b3b59668a1313c56cbdb7b,german_fires_pinneberg_locations__a5583c3f40b3b59668a1313c56cbdb7b
auwiese,"Auwiese in Pinneberg, Germany",53.6610852,9.8058065,1,,,,Keyphrase,"Auwiese in Pinneberg, Germany",,german_fires_pinneberg_locations,4190d5547ea77f4c3b6433fd8467e924,german_fires_pinneberg_locations__4190d5547ea77f4c3b6433fd8467e924
bahnhofstrasse,"Bahnhofstrasse in Pinneberg, Germany",53.6584078,9.7997275,1,,,,ForeignMinistry,"Bahnhofstrasse in Pinneberg, Germany",,german_fires_pinneberg_locations,fec3fd3bf8d6b2ce3a1663c2465f2f39,german_fires_pinneberg_locations__fec3fd3bf8d6b2ce3a1663c2465f2f39
baumschulenweg,"Baumschulenweg in Pinneberg, Germany",53.6596227,9.8249126,1,,,,ForeignMinister,"Baumschulenweg in Pinneberg, Germany",,german_fires_pinneberg_locations,a5b390f324f3ca98711df1b5544bb159,german_fires_pinneberg_locations__a5b390f324f3ca98711df1b5544bb159
behrensallee,"Behrensallee in Pinneberg, Germany",53.621615,9.7944105,1,,,,space,"Behrensallee in Pinneberg, Germany",,german_fires_pinneberg_locations,76dec8efc277f9e7c0fc4fdebc014c1b,german_fires_pinneberg_locations__76dec8efc277f9e7c0fc4fdebc014c1b
bei der schmiede,"Bei der Schmiede in Pinneberg, Germany",53.6435932,9.8143708,1,,,,Refinery,"Bei der Schmiede in Pinneberg, Germany",,german_fires_pinneberg_locations,28611e2751a6a3255c907019c1e23832,german_fires_pinneberg_locations__28611e2751a6a3255c907019c1e23832
beim ratsberg,"Beim Ratsberg in Pinneberg, Germany",53.6756721,9.7911733,1,,,,Diplomat,"Beim Ratsberg in Pinneberg, Germany",,german_fires_pinneberg_locations,e15f203752819bab5102becdc3d043d2,german_fires_pinneberg_locations__e15f203752819bab5102becdc3d043d2
berliner strasse,"Berliner Strasse in Pinneberg, Germany",53.6691407,9.7870751,1,,,,Media,"Berliner Strasse in Pinneberg, Germany",,german_fires_pinneberg_locations,f4c217f31d7a249b7a2d93e73558ecc8,german_fires_pinneberg_locations__f4c217f31d7a249b7a2d93e73558ecc8
bismarckstrasse,"Bismarckstrasse in Pinneberg, Germany",53.6638308,9.796574,1,,,,Consulates,"Bismarckstrasse in Pinneberg, Germany",,german_fires_pinneberg_locations,54a1fd735b345b91f63857b3264abe35,german_fires_pinneberg_locations__54a1fd735b345b91f63857b3264abe35
blauer kamp,"Blauer Kamp in Pinneberg, Germany",53.6513349,9.7775499,1,,,,Consulates,"Blauer Kamp in Pinneberg, Germany",,german_fires_pinneberg_locations,894b4a4acaec2ad9c10319e85ac28611,german_fires_pinneberg_locations__894b4a4acaec2ad9c10319e85ac28611
bodderbarg,"Bodderbarg in Pinneberg, Germany",53.6501338,9.7907254,1,,,,Consulates,"Bodderbarg in Pinneberg, Germany",,german_fires_pinneberg_locations,28aecbe7d6ecfc38909d644726750950,german_fires_pinneberg_locations__28aecbe7d6ecfc38909d644726750950
bogenstrasse,"Bogenstrasse in Pinneberg, Germany",53.609755,9.8515561,1,,,,FTO,"Bogenstrasse in Pinneberg, Germany",,german_fires_pinneberg_locations,41a66cb5cdfcff8126ecf0146d1f43d8,german_fires_pinneberg_locations__41a66cb5cdfcff8126ecf0146d1f43d8
bonhoefferstrasse,"Bonhoefferstrasse in Pinneberg, Germany",53.652254,9.7896385,1,,,,Legislator,"Bonhoefferstrasse in Pinneberg, Germany",,german_fires_pinneberg_locations,c5971da6a2d3d221d02a92e89582963b,german_fires_pinneberg_locations__c5971da6a2d3d221d02a92e89582963b
borsteler weg,"Borsteler Weg in Pinneberg, Germany",53.6747077,9.7953397,1,,,,IndustryTerm,"Borsteler Weg in Pinneberg, Germany",,german_fires_pinneberg_locations,cc558af5098fc98fa97f40705c8ac05b,german_fires_pinneberg_locations__cc558af5098fc98fa97f40705c8ac05b
brahmsallee,"Brahmsallee in Pinneberg, Germany",53.6494091,9.7967702,1,,,,Person,"Brahmsallee in Pinneberg, Germany",,german_fires_pinneberg_locations,2970f952a19b6f49bb8f93a6aea62202,german_fires_pinneberg_locations__2970f952a19b6f49bb8f93a6aea62202
bredenmoor,"Bredenmoor in Pinneberg, Germany",53.6344987,9.7898257,1,,,,Keyphrase,"Bredenmoor in Pinneberg, Germany",,german_fires_pinneberg_locations,238da0627ca532c688b584304d0ef355,german_fires_pinneberg_locations__238da0627ca532c688b584304d0ef355
breslauer strasse,"Breslauer Strasse in Pinneberg, Germany",53.6517435,9.7828899,1,,,,Exec,"Breslauer Strasse in Pinneberg, Germany",,german_fires_pinneberg_locations,bfeafffc9506a836a0c8fe52d5e2e7ea,german_fires_pinneberg_locations__bfeafffc9506a836a0c8fe52d5e2e7ea
brokwisch,"Brokwisch in Pinneberg, Germany",53.6747265,9.7969159,1,,,,space,"Brokwisch in Pinneberg, Germany",,german_fires_pinneberg_locations,2066f6253a55b6f1c2c588812504688f,german_fires_pinneberg_locations__2066f6253a55b6f1c2c588812504688f
brombeertwiete,"Brombeertwiete in Pinneberg, Germany",53.6533853,9.7738408,1,,,,Organization,"Brombeertwiete in Pinneberg, Germany",,german_fires_pinneberg_locations,2e2845d2634dd65063130281cd8c2040,german_fires_pinneberg_locations__2e2845d2634dd65063130281cd8c2040
buchenstrasse,"Buchenstrasse in Pinneberg, Germany",53.6677462,9.7882934,1,,,,Shipping,"Buchenstrasse in Pinneberg, Germany",,german_fires_pinneberg_locations,2d61e8b8b4dcccaa52171b7d5716fe98,german_fires_pinneberg_locations__2d61e8b8b4dcccaa52171b7d5716fe98
burmeisterallee,"Burmeisterallee in Pinneberg, Germany",53.6502285,9.8054039,1,,,,Diplomat,"Burmeisterallee in Pinneberg, Germany",,german_fires_pinneberg_locations,834b18cee2fc1799b5488822962cd2da,german_fires_pinneberg_locations__834b18cee2fc1799b5488822962cd2da
buschweg,"Buschweg in Pinneberg, Germany",53.622837,9.7839118,1,,,,Refinery,"Buschweg in Pinneberg, Germany",,german_fires_pinneberg_locations,46ece7c09cb1bccb982ee0618268c334,german_fires_pinneberg_locations__46ece7c09cb1bccb982ee0618268c334
clara-bartram-weg,"Clara-Bartram-Weg in Pinneberg, Germany",53.6642316,9.7987594,1,,,,FTO,"Clara-Bartram-Weg in Pinneberg, Germany",,german_fires_pinneberg_locations,93a130b70000ce01d85bf3d9145d6a40,german_fires_pinneberg_locations__93a130b70000ce01d85bf3d9145d6a40
dachspfad,"Dachspfad in Pinneberg, Germany",53.636388,9.792649,1,,,,Wells,"Dachspfad in Pinneberg, Germany",,german_fires_pinneberg_locations,06dc06b46c98ccebf1414c16eb43fb86,german_fires_pinneberg_locations__06dc06b46c98ccebf1414c16eb43fb86
damm,"Damm in Pinneberg, Germany",53.6593085,9.8062726,1,,,,News,"Damm in Pinneberg, Germany",,german_fires_pinneberg_locations,d35dec86651f055058d6d75a10882a1d,german_fires_pinneberg_locations__d35dec86651f055058d6d75a10882a1d
danziger strasse,"Danziger Strasse in Pinneberg, Germany",53.6504456,9.7830995,1,,,,Refinery,"Danziger Strasse in Pinneberg, Germany",,german_fires_pinneberg_locations,b0d93aede65b0de48542efb0be645329,german_fires_pinneberg_locations__b0d93aede65b0de48542efb0be645329
datumer chaussee,"Datumer Chaussee in Pinneberg, Germany",53.6336368,9.7985725,1,,,,News,"Datumer Chaussee in Pinneberg, Germany",,german_fires_pinneberg_locations,2bc9f39bb84995f2b106c64a2f4f07a9,german_fires_pinneberg_locations__2bc9f39bb84995f2b106c64a2f4f07a9
diesterwegstrasse,"Diesterwegstrasse in Pinneberg, Germany",53.6437209,9.81097,1,,,,FTO,"Diesterwegstrasse in Pinneberg, Germany",,german_fires_pinneberg_locations,793013eaad61ed521285533ad603eed0,german_fires_pinneberg_locations__793013eaad61ed521285533ad603eed0
dingstatte,"Dingstatte in Pinneberg, Germany",53.6612186,9.796802,1,,,,ForeignMinistry,"Dingstatte in Pinneberg, Germany",,german_fires_pinneberg_locations,087a4f54c2c72f6c359b8d957a772e6c,german_fires_pinneberg_locations__087a4f54c2c72f6c359b8d957a772e6c
dr.-carl-goerdeler-strasse,"Dr.-Carl-Goerdeler-Strasse in Pinneberg, Germany",53.6550974,9.7881979,1,,,,IndustryTerm,"Dr.-Carl-Goerdeler-Strasse in Pinneberg, Germany",,german_fires_pinneberg_locations,ca23464dfdc44c7612cd0c98328b6e43,german_fires_pinneberg_locations__ca23464dfdc44c7612cd0c98328b6e43
dr.-theodor-haubach-strasse,"Dr.-Theodor-Haubach-Strasse in Pinneberg, Germany",53.6557261,9.7866551,1,,,,Consulates,"Dr.-Theodor-Haubach-Strasse in Pinneberg, Germany",,german_fires_pinneberg_locations,bc7745b086742ef9ee08f61838e40bbc,german_fires_pinneberg_locations__bc7745b086742ef9ee08f61838e40bbc
drosselweg,"Drosselweg in Pinneberg, Germany",53.6451094,9.7799003,1,,,,ForeignMinister,"Drosselweg in Pinneberg, Germany",,german_fires_pinneberg_locations,6965da70abc5a47c8cc8430bc4878e19,german_fires_pinneberg_locations__6965da70abc5a47c8cc8430bc4878e19
drosteiweg,"Drosteiweg in Pinneberg, Germany",53.6586768,9.7957156,1,,,,Diplomat,"Drosteiweg in Pinneberg, Germany",,german_fires_pinneberg_locations,90572c24d0c4a8949a783becb59db37f,german_fires_pinneberg_locations__90572c24d0c4a8949a783becb59db37f
dupenau eck,"Dupenau Eck in Pinneberg, Germany",53.6418529,9.8165668,1,,,,News,"Dupenau Eck in Pinneberg, Germany",,german_fires_pinneberg_locations,2344a9d50b6e99180339c3ad6dde35ba,german_fires_pinneberg_locations__2344a9d50b6e99180339c3ad6dde35ba
dupenwisch,"Dupenwisch in Pinneberg, Germany",53.6458133,9.8224973,1,,,,ForeignMinister,"Dupenwisch in Pinneberg, Germany",,german_fires_pinneberg_locations,a1cf173ed2db86c35617ef1cfb3234e0,german_fires_pinneberg_locations__a1cf173ed2db86c35617ef1cfb3234e0
dusternhoop,"Dusternhoop in Pinneberg, Germany",53.67712,9.7919847,1,,,,Keyphrase,"Dusternhoop in Pinneberg, Germany",,german_fires_pinneberg_locations,ea209b4c89a0b7f8ce0a13682082c262,german_fires_pinneberg_locations__ea209b4c89a0b7f8ce0a13682082c262
ebertpassage,"Ebertpassage in Pinneberg, Germany",53.662266,9.7950475,1,,,,DiplomaticFacilities,"Ebertpassage in Pinneberg, Germany",,german_fires_pinneberg_locations,2a01bb07ddd04e889b5713d3bb706cf8,german_fires_pinneberg_locations__2a01bb07ddd04e889b5713d3bb706cf8
efeuweg,"Efeuweg in Pinneberg, Germany",53.653917,9.773559,1,,,,Legislator,"Efeuweg in Pinneberg, Germany",,german_fires_pinneberg_locations,42834285db2169291b01bb0858ae0cc2,german_fires_pinneberg_locations__42834285db2169291b01bb0858ae0cc2
eggerstedt-kaserne,"Eggerstedt-Kaserne in Pinneberg, Germany",53.6373815,9.7912995,1,,,,Wells,"Eggerstedt-Kaserne in Pinneberg, Germany",,german_fires_pinneberg_locations,6a022091b25f030ebb922e12c26db53d,german_fires_pinneberg_locations__6a022091b25f030ebb922e12c26db53d
eggerstedter strasse,"Eggerstedter Strasse in Pinneberg, Germany",53.6429957,9.7907483,1,,,,Wells,"Eggerstedter Strasse in Pinneberg, Germany",,german_fires_pinneberg_locations,a33d0f4104b1fb78fd6655c3008fe701,german_fires_pinneberg_locations__a33d0f4104b1fb78fd6655c3008fe701
eggerstedter weg,"Eggerstedter Weg in Pinneberg, Germany",53.6434314,9.7821881,1,,,,Legislator,"Eggerstedter Weg in Pinneberg, Germany",,german_fires_pinneberg_locations,fb9c2ba6af83788b767a596a8257162d,german_fires_pinneberg_locations__fb9c2ba6af83788b767a596a8257162d
eibenweg,"Eibenweg in Pinneberg, Germany",53.6674536,9.7885591,1,,,,Media,"Eibenweg in Pinneberg, Germany",,german_fires_pinneberg_locations,57d663753b09323a9fcfcfa02016125e,german_fires_pinneberg_locations__57d663753b09323a9fcfcfa02016125e
eichendorffstrasse,"Eichendorffstrasse in Pinneberg, Germany",53.6464691,9.792458,1,,,,IndustryTerm,"Eichendorffstrasse in Pinneberg, Germany",,german_fires_pinneberg_locations,a19d87e6841a8a8cb74ae8514fca1110,german_fires_pinneberg_locations__a19d87e6841a8a8cb74ae8514fca1110
eichenhorst,"Eichenhorst in Pinneberg, Germany",53.6509027,9.7967119,1,,,,Legislator,"Eichenhorst in Pinneberg, Germany",,german_fires_pinneberg_locations,3d16316dac79702365f96c891f7b61ae,german_fires_pinneberg_locations__3d16316dac79702365f96c891f7b61ae
eichhornchenweg,"Eichhornchenweg in Pinneberg, Germany",53.6351693,9.7970978,1,,,,Organization,"Eichhornchenweg in Pinneberg, Germany",,german_fires_pinneberg_locations,8f0c0bc790b454cd784af24481f78d87,german_fires_pinneberg_locations__8f0c0bc790b454cd784af24481f78d87
elmshorner strasse,"Elmshorner Strasse in Pinneberg, Germany",53.6728502,9.793964,1,,,,News,"Elmshorner Strasse in Pinneberg, Germany",,german_fires_pinneberg_locations,4b37477311c5d942ed7c94c2ef1bcca8,german_fires_pinneberg_locations__4b37477311c5d942ed7c94c2ef1bcca8
elsterstieg,"Elsterstieg in Pinneberg, Germany",53.6487986,9.7781416,1,,,,DiplomaticFacilities,"Elsterstieg in Pinneberg, Germany",,german_fires_pinneberg_locations,53eb039d9f921d71f2c1d5f706b4245a,german_fires_pinneberg_locations__53eb039d9f921d71f2c1d5f706b4245a
emma-bohnemann-strasse,"Emma-Bohnemann-Strasse in Pinneberg, Germany",53.653369,9.7973779,1,,,,AAEntity,"Emma-Bohnemann-Strasse in Pinneberg, Germany",,german_fires_pinneberg_locations,7bde68e90ac1fa01123996260c1cd27d,german_fires_pinneberg_locations__7bde68e90ac1fa01123996260c1cd27d
erlenkratt,"Erlenkratt in Pinneberg, Germany",53.6323834,9.7942649,1,,,,Exec,"Erlenkratt in Pinneberg, Germany",,german_fires_pinneberg_locations,5d8d9593c431242c8fcb70f913aae532,german_fires_pinneberg_locations__5d8d9593c431242c8fcb70f913aae532
eschenweg,"Eschenweg in Pinneberg, Germany",53.6685865,9.7928843,1,,,,Keyphrase,"Eschenweg in Pinneberg, Germany",,german_fires_pinneberg_locations,69511da6175f7831af45d21d221fe881,german_fires_pinneberg_locations__69511da6175f7831af45d21d221fe881
fahltskamp,"Fahltskamp in Pinneberg, Germany",53.6584481,9.8059016,1,,,,Diplomat,"Fahltskamp in Pinneberg, Germany",,german_fires_pinneberg_locations,c2d6c12a74d255d0cfe9dd48a9fb5c50,german_fires_pinneberg_locations__c2d6c12a74d255d0cfe9dd48a9fb5c50
fahltsweide,"Fahltsweide in Pinneberg, Germany",53.6536171,9.810505,1,,,,Person,"Fahltsweide in Pinneberg, Germany",,german_fires_pinneberg_locations,98ade093ed28de02e7dd066aa8033ce4,german_fires_pinneberg_locations__98ade093ed28de02e7dd066aa8033ce4
fasanenweg,"Fasanenweg in Pinneberg, Germany",53.6477169,9.779079,1,,,,space,"Fasanenweg in Pinneberg, Germany",,german_fires_pinneberg_locations,2d1a2a86d0a2c4dd0829c9948fa77f83,german_fires_pinneberg_locations__2d1a2a86d0a2c4dd0829c9948fa77f83
fehrsstrasse,"Fehrsstrasse in Pinneberg, Germany",53.6553414,9.7800848,1,,,,DiplomaticFacilities,"Fehrsstrasse in Pinneberg, Germany",,german_fires_pinneberg_locations,077c7a091311577ee9eb4d98b46319b1,german_fires_pinneberg_locations__077c7a091311577ee9eb4d98b46319b1
feldstrasse,"Feldstrasse in Pinneberg, Germany",53.6520908,9.7880304,1,,,,News,"Feldstrasse in Pinneberg, Germany",,german_fires_pinneberg_locations,b14ddb0bddf697f3774df93dad7c711d,german_fires_pinneberg_locations__b14ddb0bddf697f3774df93dad7c711d
finkeneck,"Finkeneck in Pinneberg, Germany",53.6456812,9.7826921,1,,,,Person,"Finkeneck in Pinneberg, Germany",,german_fires_pinneberg_locations,e19baac777145cc3b93a6dabbaae029e,german_fires_pinneberg_locations__e19baac777145cc3b93a6dabbaae029e
fischhausener strasse,"Fischhausener Strasse in Pinneberg, Germany",53.6508696,9.7847119,1,,,,IndustryTerm,"Fischhausener Strasse in Pinneberg, Germany",,german_fires_pinneberg_locations,aaa770936b9c8b1e3660609d380809ff,german_fires_pinneberg_locations__aaa770936b9c8b1e3660609d380809ff
flagentwiete,"Flagentwiete in Pinneberg, Germany",53.6711249,9.7900282,1,,,,News,"Flagentwiete in Pinneberg, Germany",,german_fires_pinneberg_locations,7994623c877fb80007620a35831d52e4,german_fires_pinneberg_locations__7994623c877fb80007620a35831d52e4
flensburger strasse,"Flensburger Strasse in Pinneberg, Germany",53.6749584,9.800012,1,,,,Organization,"Flensburger Strasse in Pinneberg, Germany",,german_fires_pinneberg_locations,30438b3aec9b32ab59fb61cc82c9e172,german_fires_pinneberg_locations__30438b3aec9b32ab59fb61cc82c9e172
forststrasse,"Forststrasse in Pinneberg, Germany",53.6245066,9.7836132,1,,,,IndustryTerm,"Forststrasse in Pinneberg, Germany",,german_fires_pinneberg_locations,a7811e65bf7c7fb51aa66942aa286968,german_fires_pinneberg_locations__a7811e65bf7c7fb51aa66942aa286968
friedenstrasse,"Friedenstrasse in Pinneberg, Germany",53.6681206,9.7961067,1,,,,Legislator,"Friedenstrasse in Pinneberg, Germany",,german_fires_pinneberg_locations,6ab104b06a26abdde523bd97b39af74f,german_fires_pinneberg_locations__6ab104b06a26abdde523bd97b39af74f
friedrich-ebert-strasse,"Friedrich-Ebert-Strasse in Pinneberg, Germany",53.6627328,9.797353,1,,,,Person,"Friedrich-Ebert-Strasse in Pinneberg, Germany",,german_fires_pinneberg_locations,9002d0e1d1774c55dc7194fb11723559,german_fires_pinneberg_locations__9002d0e1d1774c55dc7194fb11723559
fritz-reuter-strasse,"Fritz-Reuter-Strasse in Pinneberg, Germany",53.6452371,9.8001202,1,,,,Exec,"Fritz-Reuter-Strasse in Pinneberg, Germany",,german_fires_pinneberg_locations,af0426d4176862b96e1675830955ec76,german_fires_pinneberg_locations__af0426d4176862b96e1675830955ec76
frobelstrasse,"Frobelstrasse in Pinneberg, Germany",53.6437968,9.8042255,1,,,,Wells,"Frobelstrasse in Pinneberg, Germany",,german_fires_pinneberg_locations,75a2cd1d6b0e8beb2e01c9955acaa6fe,german_fires_pinneberg_locations__75a2cd1d6b0e8beb2e01c9955acaa6fe
fuchsbau,"Fuchsbau in Pinneberg, Germany",53.6364705,9.7982507,1,,,,ForeignMinister,"Fuchsbau in Pinneberg, Germany",,german_fires_pinneberg_locations,083f75127f97f566194258f7d4ca9b1e,german_fires_pinneberg_locations__083f75127f97f566194258f7d4ca9b1e
gehrstucken,"Gehrstucken in Pinneberg, Germany",53.6461743,9.8232192,1,,,,Media,"Gehrstucken in Pinneberg, Germany",,german_fires_pinneberg_locations,5a5db7f4eadc00b6d4c24974be7fd0b4,german_fires_pinneberg_locations__5a5db7f4eadc00b6d4c24974be7fd0b4
generaloberst-beck-strasse,"Generaloberst-Beck-Strasse in Pinneberg, Germany",53.6540163,9.7888754,1,,,,ForeignMinistry,"Generaloberst-Beck-Strasse in Pinneberg, Germany",,german_fires_pinneberg_locations,d465f343c263fb922eea7710524f6b4d,german_fires_pinneberg_locations__d465f343c263fb922eea7710524f6b4d
gerhart-hauptmann-strasse,"Gerhart-Hauptmann-Strasse in Pinneberg, Germany",53.6461054,9.7999972,1,,,,LegislativeCommittee,"Gerhart-Hauptmann-Strasse in Pinneberg, Germany",,german_fires_pinneberg_locations,8e7e73b9e200c1309d6307cf5abe9002,german_fires_pinneberg_locations__8e7e73b9e200c1309d6307cf5abe9002
