german_text,caption_text,lat,lon,ranking,default location,default_lat,default_lon,ENTITY_LABEL,name,description,source,source_identifier,global_identifier
windberg,"Windberg in Monchengladbach, Germany",51.2104644,6.4201162,2,"Monchengladbach, Germany",51.17935007,6.441964147,LegislativeCommittee,"Windberg in Monchengladbach, Germany",,german_fires_monchengladbach_locations,8091202be04e6b97c8a4fd8db86e98a4,german_fires_monchengladbach_locations__21ab70b87b88d893b571124ae275da9e
eicken,"Eicken in Monchengladbach, Germany",51.2090336,6.4461041,2,,,,Refinery,"Eicken in Monchengladbach, Germany",,german_fires_monchengladbach_locations,c4e3ce0c1df30bff094f2c0aab7a687f,german_fires_monchengladbach_locations__9d822ea3cba6763ebd51631fb3170159
am wasserturm,"Am Wasserturm in Monchengladbach, Germany",51.2009403,6.4261424,2,,,,ForeignMinister,"Am Wasserturm in Monchengladbach, Germany",,german_fires_monchengladbach_locations,996756bc1026d9d0f7d15c49c1db9ec1,german_fires_monchengladbach_locations__db65ca953d9f1539562673d4b39248be
gladbach,"Gladbach in Monchengladbach, Germany",51.1938316,6.4360109,2,,,,DiplomaticFacilities,"Gladbach in Monchengladbach, Germany",,german_fires_monchengladbach_locations,e5664209f3dfff392001b0c078975eda,german_fires_monchengladbach_locations__ce0d9422c6fceaaeebff28c0de5de02c
waldhausen,"Waldhausen in Monchengladbach, Germany",51.1938738,6.411364,2,,,,CompanyKeyword,"Waldhausen in Monchengladbach, Germany",,german_fires_monchengladbach_locations,c199e9083a0241e3e84e990419f26274,german_fires_monchengladbach_locations__978755f35bad70a445f7b7f62978bd5b
westend,"Westend in Monchengladbach, Germany",51.1877959,6.4263986,2,,,,Shipping,"Westend in Monchengladbach, Germany",,german_fires_monchengladbach_locations,b5ffb6d8fe73032207527f1d1452dbf9,german_fires_monchengladbach_locations__d0ea170837d361a4445494d944561619
dahl,"Dahl in Monchengladbach, Germany",51.1818956,6.4381851,2,,,,Exec,"Dahl in Monchengladbach, Germany",,german_fires_monchengladbach_locations,89969800e90a93f0c4bddff217d858e8,german_fires_monchengladbach_locations__b705fb28dec5fe395ef17e64d3da4577
ohler,"Ohler in Monchengladbach, Germany",51.1776035,6.4207627,2,,,,Organization,"Ohler in Monchengladbach, Germany",,german_fires_monchengladbach_locations,31e25f653710907c80371cf42e333d2e,german_fires_monchengladbach_locations__46a2f36587e327b95541d9754b7b7ef8
hardt-mitte,"Hardt-Mitte in Monchengladbach, Germany",51.2112429,6.3578374,2,,,,Diplomat,"Hardt-Mitte in Monchengladbach, Germany",,german_fires_monchengladbach_locations,13caf18181dddf7b65635d2b99b80a43,german_fires_monchengladbach_locations__f2332e7858bd1d83a822b60fb2b7137c
venn,"Venn in Monchengladbach, Germany",51.1987421,6.3944067,2,,,,FTO,"Venn in Monchengladbach, Germany",,german_fires_monchengladbach_locations,b6e7b850e45656dea45d2ab56357ad18,german_fires_monchengladbach_locations__68121353d4923117eb53ddb3180326b4
hardter wald,"Hardter Wald in Monchengladbach, Germany",51.1918991,6.3271669,2,,,,Legislator,"Hardter Wald in Monchengladbach, Germany",,german_fires_monchengladbach_locations,b963fdca03d229a00eebebc4687b88c1,german_fires_monchengladbach_locations__3fa9112cd73248151a81458cd4876681
bettrath-hoven,"Bettrath-Hoven in Monchengladbach, Germany",51.222215,6.4512125,2,,,,Organization,"Bettrath-Hoven in Monchengladbach, Germany",,german_fires_monchengladbach_locations,8e429763ef930a6be891c080e252194f,german_fires_monchengladbach_locations__c01fa3fc9cd4ec57bc71a36bf5b0cf1f
flughafen,"Flughafen in Monchengladbach, Germany",51.2310314,6.5009299,2,,,,Keyphrase,"Flughafen in Monchengladbach, Germany",,german_fires_monchengladbach_locations,f9495184a6d9de71354a20f4288e9b01,german_fires_monchengladbach_locations__44b8ff378f8ffa256b7bac85b233b17a
neuwerk-mitte,"Neuwerk-Mitte in Monchengladbach, Germany",51.2231585,6.4757172,2,,,,Pipeline,"Neuwerk-Mitte in Monchengladbach, Germany",,german_fires_monchengladbach_locations,91306db06efdae9fd143cdd77e2afeb9,german_fires_monchengladbach_locations__bb07902bccf20f84a1c4699d9999c6dc
uedding,"Uedding in Monchengladbach, Germany",51.212423,6.4798075,2,,,,Person,"Uedding in Monchengladbach, Germany",,german_fires_monchengladbach_locations,afe550fdf51957f557b2ad225aef1876,german_fires_monchengladbach_locations__334539684fa60087760ec814d573cb16
lurrip,"Lurrip in Monchengladbach, Germany",51.2010233,6.4722194,2,,,,Shipping,"Lurrip in Monchengladbach, Germany",,german_fires_monchengladbach_locations,722e580997eb8badd4a467b02a598ba6,german_fires_monchengladbach_locations__c2dc7253ec15f7e399690aab3d4f979e
hardterbroich-pesch,"Hardterbroich-Pesch in Monchengladbach, Germany",51.1927566,6.4554951,2,,,,Keyphrase,"Hardterbroich-Pesch in Monchengladbach, Germany",,german_fires_monchengladbach_locations,eaa1a63f2e4bb18af12af2e9da3c5c7e,german_fires_monchengladbach_locations__2bf7d5558559fd0f20f8339085371e7b
bungt,"Bungt in Monchengladbach, Germany",51.192038,6.4684874,2,,,,Pipeline,"Bungt in Monchengladbach, Germany",,german_fires_monchengladbach_locations,08adee9e1fdd9474d51a8a9d8413b960,german_fires_monchengladbach_locations__8b1c4ae50f9993533ae560f9e104c7fe
giesenkirchen-nord,"Giesenkirchen-Nord in Monchengladbach, Germany",51.1691364,6.5026358,2,,,,LegislativeCommittee,"Giesenkirchen-Nord in Monchengladbach, Germany",,german_fires_monchengladbach_locations,5a99ad5f3d6222db47e3d865886a1dec,german_fires_monchengladbach_locations__3a4053c8ee65020afe3d33bcd9d57652
schelsen,"Schelsen in Monchengladbach, Germany",51.1525029,6.5184859,2,,,,ForeignMinistry,"Schelsen in Monchengladbach, Germany",,german_fires_monchengladbach_locations,8dc6d4121959b53c1569d6658787c387,german_fires_monchengladbach_locations__e03dfa9b006c006afe5c5d8029ded283
giesenkirchen-mitte,"Giesenkirchen-Mitte in Monchengladbach, Germany",51.1543102,6.4860269,2,,,,Pipeline,"Giesenkirchen-Mitte in Monchengladbach, Germany",,german_fires_monchengladbach_locations,e793126cdcca4f4104e44ab3dc0c6859,german_fires_monchengladbach_locations__64e5a9f1a580a88dd1f4ae18b69c8cd6
schloss rheydt,"Schloss Rheydt in Monchengladbach, Germany",51.1821665,6.4814659,2,,,,LegislativeCommittee,"Schloss Rheydt in Monchengladbach, Germany",,german_fires_monchengladbach_locations,9aeb19a9f40b2b28904fa2f631607837,german_fires_monchengladbach_locations__30bb19f64542a12b7a1487336d75e379
bonnenbroich-geneicken,"Bonnenbroich-Geneicken in Monchengladbach, Germany",51.1764831,6.4648774,2,,,,Shipping,"Bonnenbroich-Geneicken in Monchengladbach, Germany",,german_fires_monchengladbach_locations,52a533323549bad7bed6edc271040662,german_fires_monchengladbach_locations__6e714fce63607d25fa6bbb1588755c13
rheydt,"Rheydt in Monchengladbach, Germany",51.1686686,6.4469619,2,,,,DiplomaticFacilities,"Rheydt in Monchengladbach, Germany",,german_fires_monchengladbach_locations,a992b1f70d966e2ae6f048d9bba6642d,german_fires_monchengladbach_locations__f26002dfb79c13a704ac33b86da4d4f5
mulfort,"Mulfort in Monchengladbach, Germany",51.1553898,6.4665579,2,,,,Pipeline,"Mulfort in Monchengladbach, Germany",,german_fires_monchengladbach_locations,72f55ab72f1819192f487cb609c693b1,german_fires_monchengladbach_locations__8bffe41e5b106fc72c47e9db1850ff5a
heyden,"Heyden in Monchengladbach, Germany",51.1576721,6.4490153,2,,,,Shipping,"Heyden in Monchengladbach, Germany",,german_fires_monchengladbach_locations,97ebd67187de845cb13d7d4f85c10974,german_fires_monchengladbach_locations__5811704f9dbafe6b0b41af9a5880a7ff
geistenbeck,"Geistenbeck in Monchengladbach, Germany",51.1516408,6.4394091,2,,,,space,"Geistenbeck in Monchengladbach, Germany",,german_fires_monchengladbach_locations,e4efb89bfd0870e34125fd84215d36c1,german_fires_monchengladbach_locations__5801ca585daec9b417293b5f31cb5253
pongs,"Pongs in Monchengladbach, Germany",51.1637913,6.4093718,2,,,,Exec,"Pongs in Monchengladbach, Germany",,german_fires_monchengladbach_locations,af782a9ba436bd7ae69acb155e156d59,german_fires_monchengladbach_locations__5bebe78f491b7933bdc43bcc064947d7
schrievers,"Schrievers in Monchengladbach, Germany",51.1692912,6.4287027,2,,,,FTO,"Schrievers in Monchengladbach, Germany",,german_fires_monchengladbach_locations,410c55d3c908b37de08ac914312f8da6,german_fires_monchengladbach_locations__f13bf6da7bf41735966f39f04ae83985
grenzlandstadion,"Grenzlandstadion in Monchengladbach, Germany",51.1761737,6.4467236,2,,,,space,"Grenzlandstadion in Monchengladbach, Germany",,german_fires_monchengladbach_locations,4db327b05ce2ed120eb7287801ff56b4,german_fires_monchengladbach_locations__05a70fbaa5ddf4c7cb22f31ce043d2ef
schmolderpark,"Schmolderpark in Monchengladbach, Germany",51.1627219,6.4288299,2,,,,Organization,"Schmolderpark in Monchengladbach, Germany",,german_fires_monchengladbach_locations,13a40b5bbd644c0a9fd56bfd3add5598,german_fires_monchengladbach_locations__f1afa26e27008943ca6e21465feaca50
hockstein,"Hockstein in Monchengladbach, Germany",51.1527118,6.419955,2,,,,ForeignMinister,"Hockstein in Monchengladbach, Germany",,german_fires_monchengladbach_locations,a0bbf562ef087dbaf6bb763d7b31ae94,german_fires_monchengladbach_locations__7bf74cb3fde89d5f4578ce2493765d72
odenkirchen-west,"Odenkirchen-West in Monchengladbach, Germany",51.1360945,6.4358186,2,,,,IndustryTerm,"Odenkirchen-West in Monchengladbach, Germany",,german_fires_monchengladbach_locations,559ec72da3fad7f4098b97324e525079,german_fires_monchengladbach_locations__8be966ab7af38c6d9142ffa80d7c7b79
odenkirchen-mitte,"Odenkirchen-Mitte in Monchengladbach, Germany",51.1322513,6.4579086,2,,,,LegislativeCommittee,"Odenkirchen-Mitte in Monchengladbach, Germany",,german_fires_monchengladbach_locations,a12d0f789ca9c97042fdd90ef2470d29,german_fires_monchengladbach_locations__abca8dda28f9ed36e7542c4b23083b6b
sasserath,"Sasserath in Monchengladbach, Germany",51.1216219,6.4619544,2,,,,Consulates,"Sasserath in Monchengladbach, Germany",,german_fires_monchengladbach_locations,c5137e0a4f64a55821a3bb81b0f77e8f,german_fires_monchengladbach_locations__cf08f06f791450846f5811c5b5b66241
wickrath-mitte,"Wickrath-Mitte in Monchengladbach, Germany",51.1351071,6.4060597,2,,,,CompanyKeyword,"Wickrath-Mitte in Monchengladbach, Germany",,german_fires_monchengladbach_locations,d42c387c16a14545d597f2395a1c6852,german_fires_monchengladbach_locations__11f150f14ddab8085fdb122d35fb78fb
wickrath-west,"Wickrath-West in Monchengladbach, Germany",51.1157995,6.3754068,2,,,,FTO,"Wickrath-West in Monchengladbach, Germany",,german_fires_monchengladbach_locations,f043c8c4acd90f7bfd705107e1458e08,german_fires_monchengladbach_locations__4b1594fc5bdb1c23912a7cb3aee75177
wickrathberg,"Wickrathberg in Monchengladbach, Germany",51.1109044,6.4168906,2,,,,ForeignMinistry,"Wickrathberg in Monchengladbach, Germany",,german_fires_monchengladbach_locations,1dd1f92670017e24ab570155c4706dc2,german_fires_monchengladbach_locations__6ecc6701a83bdd48b6bb7edd5c8f8f2b
wanlo,"Wanlo in Monchengladbach, Germany",51.0936652,6.396545,2,,,,IndustryTerm,"Wanlo in Monchengladbach, Germany",,german_fires_monchengladbach_locations,92f7871dafe2116cf12a7f9267793c12,german_fires_monchengladbach_locations__3531718d82653a293f7e638e2539a4d9
hehn,"Hehn in Monchengladbach, Germany",51.1814755,6.374027,2,,,,ForeignMinister,"Hehn in Monchengladbach, Germany",,german_fires_monchengladbach_locations,b0b3f1dad1fef77257836a7163daa652,german_fires_monchengladbach_locations__4fb21bb32251f417a4b24c35882d011a
holt,"Holt in Monchengladbach, Germany",51.1852427,6.4011646,2,,,,Wells,"Holt in Monchengladbach, Germany",,german_fires_monchengladbach_locations,ae250d0304f7e843db0e4c388ed469e6,german_fires_monchengladbach_locations__a0d5e5f98edcfff2fb70121c578d566a
hauptquartier,"Hauptquartier in Monchengladbach, Germany",51.1746208,6.3068506,2,,,,News,"Hauptquartier in Monchengladbach, Germany",,german_fires_monchengladbach_locations,346095dee84078b7a799d83611f73a57,german_fires_monchengladbach_locations__69d8ff67c8fe1509ebd323f4d679c46e
rheindahlen-land,"Rheindahlen-Land in Monchengladbach, Germany",51.1690417,6.3613395,2,,,,FTO,"Rheindahlen-Land in Monchengladbach, Germany",,german_fires_monchengladbach_locations,881fe2719967f890b9c411cc859df337,german_fires_monchengladbach_locations__8c3f1549b9039e526f1f85c0d06a7d69
rheindahlen-mitte,"Rheindahlen-Mitte in Monchengladbach, Germany",51.1507196,6.3604385,2,,,,LegislativeCommittee,"Rheindahlen-Mitte in Monchengladbach, Germany",,german_fires_monchengladbach_locations,7954be6f4742288a7240544a14d8de4e,german_fires_monchengladbach_locations__73117862e2768f243564264d5d634245
monchengladbach-windberg,"Windberg in Monchengladbach, Germany",51.2104644,6.4201162,2,,,,Media,"Windberg in Monchengladbach, Germany",,german_fires_monchengladbach_locations,f74362ffe5f23064e3bbfc52554a31f0,german_fires_monchengladbach_locations__21ab70b87b88d893b571124ae275da9e
monchengladbach-eicken,"Eicken in Monchengladbach, Germany",51.2090336,6.4461041,2,,,,Legislator,"Eicken in Monchengladbach, Germany",,german_fires_monchengladbach_locations,38015a1409e7e70dfb83841439df35c9,german_fires_monchengladbach_locations__9d822ea3cba6763ebd51631fb3170159
monchengladbach-am wasserturm,"Am Wasserturm in Monchengladbach, Germany",51.2009403,6.4261424,2,,,,Shipping,"Am Wasserturm in Monchengladbach, Germany",,german_fires_monchengladbach_locations,e9fb9b23b4dc83f709cbd64501c986bd,german_fires_monchengladbach_locations__db65ca953d9f1539562673d4b39248be
monchengladbach-gladbach,"Gladbach in Monchengladbach, Germany",51.1938316,6.4360109,2,,,,ForeignMinistry,"Gladbach in Monchengladbach, Germany",,german_fires_monchengladbach_locations,3a89940807b99622a5d66c6efa8ff14a,german_fires_monchengladbach_locations__ce0d9422c6fceaaeebff28c0de5de02c
monchengladbach-waldhausen,"Waldhausen in Monchengladbach, Germany",51.1938738,6.411364,2,,,,Pipeline,"Waldhausen in Monchengladbach, Germany",,german_fires_monchengladbach_locations,4ed89e7c3f0b40a4eea1ab8155d0f710,german_fires_monchengladbach_locations__978755f35bad70a445f7b7f62978bd5b
monchengladbach-westend,"Westend in Monchengladbach, Germany",51.1877959,6.4263986,2,,,,Refinery,"Westend in Monchengladbach, Germany",,german_fires_monchengladbach_locations,4674bb55cc470d474222ffd3db39e179,german_fires_monchengladbach_locations__d0ea170837d361a4445494d944561619
monchengladbach-dahl,"Dahl in Monchengladbach, Germany",51.1818956,6.4381851,2,,,,ForeignMinister,"Dahl in Monchengladbach, Germany",,german_fires_monchengladbach_locations,2fa7a2c76e21a16a9adde08f0bff956a,german_fires_monchengladbach_locations__b705fb28dec5fe395ef17e64d3da4577
monchengladbach-ohler,"Ohler in Monchengladbach, Germany",51.1776035,6.4207627,2,,,,Organization,"Ohler in Monchengladbach, Germany",,german_fires_monchengladbach_locations,c4b85d6b6a413af81b754304f79f121f,german_fires_monchengladbach_locations__46a2f36587e327b95541d9754b7b7ef8
monchengladbach-hardt-mitte,"Hardt-Mitte in Monchengladbach, Germany",51.2112429,6.3578374,2,,,,ForeignMinistry,"Hardt-Mitte in Monchengladbach, Germany",,german_fires_monchengladbach_locations,d27e37d8ee9ac7c229ba49eb59e86ee0,german_fires_monchengladbach_locations__f2332e7858bd1d83a822b60fb2b7137c
monchengladbach-venn,"Venn in Monchengladbach, Germany",51.1987421,6.3944067,2,,,,Keyphrase,"Venn in Monchengladbach, Germany",,german_fires_monchengladbach_locations,16700b905945ef59695283d46aeb1b70,german_fires_monchengladbach_locations__68121353d4923117eb53ddb3180326b4
monchengladbach-hardter wald,"Hardter Wald in Monchengladbach, Germany",51.1918991,6.3271669,2,,,,ForeignMinistry,"Hardter Wald in Monchengladbach, Germany",,german_fires_monchengladbach_locations,0c7e6dff49b30efbe5fffb47898945e8,german_fires_monchengladbach_locations__3fa9112cd73248151a81458cd4876681
monchengladbach-bettrath-hoven,"Bettrath-Hoven in Monchengladbach, Germany",51.222215,6.4512125,2,,,,DiplomaticFacilities,"Bettrath-Hoven in Monchengladbach, Germany",,german_fires_monchengladbach_locations,d613f0c8fc5b20a86548c9c9a0e790f5,german_fires_monchengladbach_locations__c01fa3fc9cd4ec57bc71a36bf5b0cf1f
monchengladbach-flughafen,"Flughafen in Monchengladbach, Germany",51.2310314,6.5009299,2,,,,Pipeline,"Flughafen in Monchengladbach, Germany",,german_fires_monchengladbach_locations,bdd7336694261a85d4b8a6f5057c7b1b,german_fires_monchengladbach_locations__44b8ff378f8ffa256b7bac85b233b17a
monchengladbach-neuwerk-mitte,"Neuwerk-Mitte in Monchengladbach, Germany",51.2231585,6.4757172,2,,,,Media,"Neuwerk-Mitte in Monchengladbach, Germany",,german_fires_monchengladbach_locations,9f07d09503dc33f47e1c6eaac1ef149d,german_fires_monchengladbach_locations__bb07902bccf20f84a1c4699d9999c6dc
monchengladbach-uedding,"Uedding in Monchengladbach, Germany",51.212423,6.4798075,2,,,,ForeignMinister,"Uedding in Monchengladbach, Germany",,german_fires_monchengladbach_locations,4bf8618318056f7c591f2752ea40f85f,german_fires_monchengladbach_locations__334539684fa60087760ec814d573cb16
monchengladbach-lurrip,"Lurrip in Monchengladbach, Germany",51.2010233,6.4722194,2,,,,Organization,"Lurrip in Monchengladbach, Germany",,german_fires_monchengladbach_locations,54d2a11e726da3d147721fbb56236f1b,german_fires_monchengladbach_locations__c2dc7253ec15f7e399690aab3d4f979e
monchengladbach-hardterbroich-pesch,"Hardterbroich-Pesch in Monchengladbach, Germany",51.1927566,6.4554951,2,,,,DiplomaticFacilities,"Hardterbroich-Pesch in Monchengladbach, Germany",,german_fires_monchengladbach_locations,f76bb53976d5a12819693bc9cc552c74,german_fires_monchengladbach_locations__2bf7d5558559fd0f20f8339085371e7b
monchengladbach-bungt,"Bungt in Monchengladbach, Germany",51.192038,6.4684874,2,,,,Shipping,"Bungt in Monchengladbach, Germany",,german_fires_monchengladbach_locations,88560260e4af2666c5e5f088822731d1,german_fires_monchengladbach_locations__8b1c4ae50f9993533ae560f9e104c7fe
monchengladbach-giesenkirchen-nord,"Giesenkirchen-Nord in Monchengladbach, Germany",51.1691364,6.5026358,2,,,,Diplomat,"Giesenkirchen-Nord in Monchengladbach, Germany",,german_fires_monchengladbach_locations,8dd6c8b18660c3c8ae5f733a21327109,german_fires_monchengladbach_locations__3a4053c8ee65020afe3d33bcd9d57652
monchengladbach-schelsen,"Schelsen in Monchengladbach, Germany",51.1525029,6.5184859,2,,,,Refinery,"Schelsen in Monchengladbach, Germany",,german_fires_monchengladbach_locations,d210337fe0e1601c0e2b8e8f1558e8d8,german_fires_monchengladbach_locations__e03dfa9b006c006afe5c5d8029ded283
monchengladbach-giesenkirchen-mitte,"Giesenkirchen-Mitte in Monchengladbach, Germany",51.1543102,6.4860269,2,,,,space,"Giesenkirchen-Mitte in Monchengladbach, Germany",,german_fires_monchengladbach_locations,b3a31ee57bac7596c86ad488ee427171,german_fires_monchengladbach_locations__64e5a9f1a580a88dd1f4ae18b69c8cd6
monchengladbach-schloss rheydt,"Schloss Rheydt in Monchengladbach, Germany",51.1821665,6.4814659,2,,,,ForeignMinistry,"Schloss Rheydt in Monchengladbach, Germany",,german_fires_monchengladbach_locations,697b482116409437dbb0d7450174e994,german_fires_monchengladbach_locations__30bb19f64542a12b7a1487336d75e379
monchengladbach-bonnenbroich-geneicken,"Bonnenbroich-Geneicken in Monchengladbach, Germany",51.1764831,6.4648774,2,,,,AAEntity,"Bonnenbroich-Geneicken in Monchengladbach, Germany",,german_fires_monchengladbach_locations,3c62311395fb668fe549f109457a0603,german_fires_monchengladbach_locations__6e714fce63607d25fa6bbb1588755c13
monchengladbach-rheydt,"Rheydt in Monchengladbach, Germany",51.1686686,6.4469619,2,,,,News,"Rheydt in Monchengladbach, Germany",,german_fires_monchengladbach_locations,c4a9a888a6f1a8c8e6d1ff2624a998d2,german_fires_monchengladbach_locations__f26002dfb79c13a704ac33b86da4d4f5
monchengladbach-mulfort,"Mulfort in Monchengladbach, Germany",51.1553898,6.4665579,2,,,,News,"Mulfort in Monchengladbach, Germany",,german_fires_monchengladbach_locations,ca1515b5d350b8ed0d75ecfa485da0f1,german_fires_monchengladbach_locations__8bffe41e5b106fc72c47e9db1850ff5a
monchengladbach-heyden,"Heyden in Monchengladbach, Germany",51.1576721,6.4490153,2,,,,AAEntity,"Heyden in Monchengladbach, Germany",,german_fires_monchengladbach_locations,8a0a1bfb5baa2663e9f190b394e4387c,german_fires_monchengladbach_locations__5811704f9dbafe6b0b41af9a5880a7ff
monchengladbach-geistenbeck,"Geistenbeck in Monchengladbach, Germany",51.1516408,6.4394091,2,,,,Legislator,"Geistenbeck in Monchengladbach, Germany",,german_fires_monchengladbach_locations,b9c30e4d2a51db4f0dd58f2745e69819,german_fires_monchengladbach_locations__5801ca585daec9b417293b5f31cb5253
monchengladbach-pongs,"Pongs in Monchengladbach, Germany",51.1637913,6.4093718,2,,,,Wells,"Pongs in Monchengladbach, Germany",,german_fires_monchengladbach_locations,6ebb01eb3d9a5f9fceef09f9f60476b2,german_fires_monchengladbach_locations__5bebe78f491b7933bdc43bcc064947d7
monchengladbach-schrievers,"Schrievers in Monchengladbach, Germany",51.1692912,6.4287027,2,,,,FTO,"Schrievers in Monchengladbach, Germany",,german_fires_monchengladbach_locations,235d056553473998e8344869b39445ea,german_fires_monchengladbach_locations__f13bf6da7bf41735966f39f04ae83985
monchengladbach-grenzlandstadion,"Grenzlandstadion in Monchengladbach, Germany",51.1761737,6.4467236,2,,,,DiplomaticFacilities,"Grenzlandstadion in Monchengladbach, Germany",,german_fires_monchengladbach_locations,26eac865705444fcc2007efe5f8728d4,german_fires_monchengladbach_locations__05a70fbaa5ddf4c7cb22f31ce043d2ef
monchengladbach-schmolderpark,"Schmolderpark in Monchengladbach, Germany",51.1627219,6.4288299,2,,,,Pipeline,"Schmolderpark in Monchengladbach, Germany",,german_fires_monchengladbach_locations,19fd0863ee5ffca535aece4f384c93b9,german_fires_monchengladbach_locations__f1afa26e27008943ca6e21465feaca50
monchengladbach-hockstein,"Hockstein in Monchengladbach, Germany",51.1527118,6.419955,2,,,,space,"Hockstein in Monchengladbach, Germany",,german_fires_monchengladbach_locations,92bf4565ff4c2b632f8804fe1c33dcc7,german_fires_monchengladbach_locations__7bf74cb3fde89d5f4578ce2493765d72
monchengladbach-odenkirchen-west,"Odenkirchen-West in Monchengladbach, Germany",51.1360945,6.4358186,2,,,,Wells,"Odenkirchen-West in Monchengladbach, Germany",,german_fires_monchengladbach_locations,b0a38b54dfe9549211c17ec1ddc710b7,german_fires_monchengladbach_locations__8be966ab7af38c6d9142ffa80d7c7b79
monchengladbach-odenkirchen-mitte,"Odenkirchen-Mitte in Monchengladbach, Germany",51.1322513,6.4579086,2,,,,Person,"Odenkirchen-Mitte in Monchengladbach, Germany",,german_fires_monchengladbach_locations,b190d238aa12a3c5e243934076e17ccf,german_fires_monchengladbach_locations__abca8dda28f9ed36e7542c4b23083b6b
monchengladbach-sasserath,"Sasserath in Monchengladbach, Germany",51.1216219,6.4619544,2,,,,Media,"Sasserath in Monchengladbach, Germany",,german_fires_monchengladbach_locations,ca0f0bf08a468183542b964f5382af38,german_fires_monchengladbach_locations__cf08f06f791450846f5811c5b5b66241
monchengladbach-wickrath-mitte,"Wickrath-Mitte in Monchengladbach, Germany",51.1351071,6.4060597,2,,,,AAEntity,"Wickrath-Mitte in Monchengladbach, Germany",,german_fires_monchengladbach_locations,7ab477e4cacb4e1f3c912ceed3b65696,german_fires_monchengladbach_locations__11f150f14ddab8085fdb122d35fb78fb
monchengladbach-wickrath-west,"Wickrath-West in Monchengladbach, Germany",51.1157995,6.3754068,2,,,,Pipeline,"Wickrath-West in Monchengladbach, Germany",,german_fires_monchengladbach_locations,5481bb7b7ff8f171fff376b8a9a8c7e0,german_fires_monchengladbach_locations__4b1594fc5bdb1c23912a7cb3aee75177
monchengladbach-wickrathberg,"Wickrathberg in Monchengladbach, Germany",51.1109044,6.4168906,2,,,,IndustryTerm,"Wickrathberg in Monchengladbach, Germany",,german_fires_monchengladbach_locations,fa1a248d58e6f6b9632ec3629e70a8c1,german_fires_monchengladbach_locations__6ecc6701a83bdd48b6bb7edd5c8f8f2b
monchengladbach-wanlo,"Wanlo in Monchengladbach, Germany",51.0936652,6.396545,2,,,,IndustryTerm,"Wanlo in Monchengladbach, Germany",,german_fires_monchengladbach_locations,473334f77e4d39a34add78adc83dded9,german_fires_monchengladbach_locations__3531718d82653a293f7e638e2539a4d9
monchengladbach-hehn,"Hehn in Monchengladbach, Germany",51.1814755,6.374027,2,,,,Wells,"Hehn in Monchengladbach, Germany",,german_fires_monchengladbach_locations,2ace32c8fa7824d0244542fdd259c98e,german_fires_monchengladbach_locations__4fb21bb32251f417a4b24c35882d011a
monchengladbach-holt,"Holt in Monchengladbach, Germany",51.1852427,6.4011646,2,,,,Pipeline,"Holt in Monchengladbach, Germany",,german_fires_monchengladbach_locations,e7b9462845b6bf2f96f1ec17f20accb9,german_fires_monchengladbach_locations__a0d5e5f98edcfff2fb70121c578d566a
monchengladbach-hauptquartier,"Hauptquartier in Monchengladbach, Germany",51.1746208,6.3068506,2,,,,ForeignMinister,"Hauptquartier in Monchengladbach, Germany",,german_fires_monchengladbach_locations,8a208bf7093d611a4cd217e1c7ab5c39,german_fires_monchengladbach_locations__69d8ff67c8fe1509ebd323f4d679c46e
monchengladbach-rheindahlen-land,"Rheindahlen-Land in Monchengladbach, Germany",51.1690417,6.3613395,2,,,,Person,"Rheindahlen-Land in Monchengladbach, Germany",,german_fires_monchengladbach_locations,e49764ef46f276bc319b9ff5f4b048dc,german_fires_monchengladbach_locations__8c3f1549b9039e526f1f85c0d06a7d69
monchengladbach-rheindahlen-mitte,"Rheindahlen-Mitte in Monchengladbach, Germany",51.1507196,6.3604385,2,,,,News,"Rheindahlen-Mitte in Monchengladbach, Germany",,german_fires_monchengladbach_locations,e970325f1633a0745df91685cba4616c,german_fires_monchengladbach_locations__73117862e2768f243564264d5d634245
am schlagbaum,"Am Schlagbaum in Monchengladbach, Germany",51.12944,6.3212991,1,,,,Organization,"Am Schlagbaum in Monchengladbach, Germany",,german_fires_monchengladbach_locations,e614859d877cd833c7786c0464db1799,german_fires_monchengladbach_locations__90f0be4e30a369c53a4eacf33b3dcb32
anna-schiller-stiege,"Anna-Schiller-Stiege in Monchengladbach, Germany",51.193603,6.4291968,1,,,,Legislator,"Anna-Schiller-Stiege in Monchengladbach, Germany",,german_fires_monchengladbach_locations,ef9c77f141b4e44ab9164d0c836f8e57,german_fires_monchengladbach_locations__ba9a624f6586c7586aa0b7778c46a0e9
aretzplatzke,"Aretzplatzke in Monchengladbach, Germany",51.1745698,6.3855055,1,,,,Keyphrase,"Aretzplatzke in Monchengladbach, Germany",,german_fires_monchengladbach_locations,b05e5989638138cec1843db5c9b61bf8,german_fires_monchengladbach_locations__513491e15ef06bbbceccff2c538648f6
belgrader strasse,"Belgrader Strasse in Monchengladbach, Germany",51.1793753,6.3940947,1,,,,Pipeline,"Belgrader Strasse in Monchengladbach, Germany",,german_fires_monchengladbach_locations,9c986b5a0c5a60e149df778eb77c442b,german_fires_monchengladbach_locations__62637d48e0d0010c7779e3e5e7dcd23d
beller busch,"Beller Busch in Monchengladbach, Germany",51.145265,6.4521804,1,,,,CompanyKeyword,"Beller Busch in Monchengladbach, Germany",,german_fires_monchengladbach_locations,61092bdd9fbd0c008f2043340384195d,german_fires_monchengladbach_locations__33b43062d398e150dd7bfd62d85d205e
beller feld,"Beller Feld in Monchengladbach, Germany",51.1456545,6.458218,1,,,,Media,"Beller Feld in Monchengladbach, Germany",,german_fires_monchengladbach_locations,44faf9e0ab667a470b38b31e81efe6c1,german_fires_monchengladbach_locations__3bc7596610b74d8e23c6dda205e3aa8b
brentanostrasse,"Brentanostrasse in Monchengladbach, Germany",51.1551904,6.3604976,1,,,,Pipeline,"Brentanostrasse in Monchengladbach, Germany",,german_fires_monchengladbach_locations,64288f4a53e7ad2f604f201fad8abbe6,german_fires_monchengladbach_locations__55d037b6ddae71738ade5ca166303928
denbigh lane,"Denbigh Lane in Monchengladbach, Germany",51.1696303,6.3107421,1,,,,Refinery,"Denbigh Lane in Monchengladbach, Germany",,german_fires_monchengladbach_locations,50942804b627f433da6b7e78d7f7c103,german_fires_monchengladbach_locations__9fe65d3b02ec43068f8a733afc7cdf36
dr.-adalbert-jordan-strasse,"Dr.-Adalbert-Jordan-Strasse in Monchengladbach, Germany",51.17421,6.388409,1,,,,Consulates,"Dr.-Adalbert-Jordan-Strasse in Monchengladbach, Germany",,german_fires_monchengladbach_locations,30950b9f47da20cb9a538c48f978de42,german_fires_monchengladbach_locations__bdb5755649a3eddc42024bdc0875d264
dr.-alfred-gerhards-strasse,"Dr.-Alfred-Gerhards-Strasse in Monchengladbach, Germany",51.176159,6.3894584,1,,,,ForeignMinister,"Dr.-Alfred-Gerhards-Strasse in Monchengladbach, Germany",,german_fires_monchengladbach_locations,06a5902929349e16933450cbad45d2dc,german_fires_monchengladbach_locations__e350d3f22388833aaa983b0ea04e09cb
dr.-helmut-beyer-weg,"Dr.-Helmut-Beyer-Weg in Monchengladbach, Germany",51.213381,6.4754276,1,,,,News,"Dr.-Helmut-Beyer-Weg in Monchengladbach, Germany",,german_fires_monchengladbach_locations,ce7bce2a01c2c04527acedb75a95d7d9,german_fires_monchengladbach_locations__a91f4b7a4e56e773dd7bd2b1bece4e03
edmund-erlemann-platz,"Edmund-Erlemann-Platz in Monchengladbach, Germany",51.1938708,6.4317758,1,,,,Legislator,"Edmund-Erlemann-Platz in Monchengladbach, Germany",,german_fires_monchengladbach_locations,4414967f7e5660c1b24e1ff642a8be9b,german_fires_monchengladbach_locations__edf03ef6f524ae3ade3ef6a38ec04128
fife drive,"Fife Drive in Monchengladbach, Germany",51.1700517,6.2977867,1,,,,Legislator,"Fife Drive in Monchengladbach, Germany",,german_fires_monchengladbach_locations,94bd62be902652ac252303485aff90f1,german_fires_monchengladbach_locations__361e68bdb53186d86055dec89372c95f
fohlenallee,"Fohlenallee in Monchengladbach, Germany",51.1745698,6.3855055,1,,,,Wells,"Fohlenallee in Monchengladbach, Germany",,german_fires_monchengladbach_locations,dc8cfd12891bf218b8d87e2336fdd6d9,german_fires_monchengladbach_locations__9c2a6c3d3fef91792c28f52d340071c5
fretwell road,"Fretwell Road in Monchengladbach, Germany",51.1591938,6.3042407,1,,,,Diplomat,"Fretwell Road in Monchengladbach, Germany",,german_fires_monchengladbach_locations,a29c705e5f3de3a03b6fe32dbb76db47,german_fires_monchengladbach_locations__13d6b99832dd3cc6ed1b4e9012b4e9dc
geistenbecker ring,"Geistenbecker Ring in Monchengladbach, Germany",51.1473416,6.4395255,1,,,,DiplomaticFacilities,"Geistenbecker Ring in Monchengladbach, Germany",,german_fires_monchengladbach_locations,28d5126d876be57fe334a8a3d56c5317,german_fires_monchengladbach_locations__d2e18f400310b7800df10bd8bbe6c776
george-c.-marshall-platz,"George-C.-Marshall-Platz in Monchengladbach, Germany",39.1127549,-77.558673,1,,,,space,"George-C.-Marshall-Platz in Monchengladbach, Germany",,german_fires_monchengladbach_locations,6d2800763999cd6aae53fce99356fd43,german_fires_monchengladbach_locations__a44ccdc5d1b762450f43a3b9210a7794
gerkerather hofe,"Gerkerather Hofe in Monchengladbach, Germany",51.1745698,6.3855055,1,,,,LegislativeCommittee,"Gerkerather Hofe in Monchengladbach, Germany",,german_fires_monchengladbach_locations,7fed0a958d50d31afd7187b5fcf05553,german_fires_monchengladbach_locations__d2cc0120367663645add38d592089b73
geroplatz,"Geroplatz in Monchengladbach, Germany",51.1912134,6.4313991,1,,,,space,"Geroplatz in Monchengladbach, Germany",,german_fires_monchengladbach_locations,87bc009de2987dd2c20afee277e6bb1d,german_fires_monchengladbach_locations__bb5dc8950573be3008c357a01cdbe3c5
gloucester drive,"Gloucester Drive in Monchengladbach, Germany",51.1723328,6.3264415,1,,,,ForeignMinistry,"Gloucester Drive in Monchengladbach, Germany",,german_fires_monchengladbach_locations,5ca42bc96350a34485b814a6edeeacec,german_fires_monchengladbach_locations__3a135d613cada67a54be421550a80b8d
grachtstrasse,"Grachtstrasse in Monchengladbach, Germany",51.1668669,6.4479887,1,,,,Legislator,"Grachtstrasse in Monchengladbach, Germany",,german_fires_monchengladbach_locations,8929abf2b2f3ed0e86ef872a3349199e,german_fires_monchengladbach_locations__7e72b313b12abbd725d9cb00bcf643e6
hermann-piecq-anlage,"Hermann-Piecq-Anlage in Monchengladbach, Germany",51.1985953,6.4281767,1,,,,DiplomaticFacilities,"Hermann-Piecq-Anlage in Monchengladbach, Germany",,german_fires_monchengladbach_locations,4ac76247ec38fecbda7e0705d574cc4e,german_fires_monchengladbach_locations__e4cdf530862dba567c7e413aef9fc1ab
johannes-cladders-platz,"Johannes-Cladders-Platz in Monchengladbach, Germany",51.1933106,6.432975,1,,,,Keyphrase,"Johannes-Cladders-Platz in Monchengladbach, Germany",,german_fires_monchengladbach_locations,2f27aad8d464a765f304243a7dfe95e6,german_fires_monchengladbach_locations__1f67c280686387e4d0cfcb6b2f9d1bed
kaulenpesch,"Kaulenpesch in Monchengladbach, Germany",51.1947235,6.3856637,1,,,,News,"Kaulenpesch in Monchengladbach, Germany",,german_fires_monchengladbach_locations,fbe651127e88e444a257ee559e6fb6d2,german_fires_monchengladbach_locations__7156c539d8243ce72f6d68ae81154c85
kent ride,"Kent Ride in Monchengladbach, Germany",51.1703657,6.3099366,1,,,,AAEntity,"Kent Ride in Monchengladbach, Germany",,german_fires_monchengladbach_locations,1e273d717d11ecc69a71ced5c598d7f8,german_fires_monchengladbach_locations__46225216732f08ec3db98c0b9c2815ab
kinross drive,"Kinross Drive in Monchengladbach, Germany",51.173482,6.3275649,1,,,,IndustryTerm,"Kinross Drive in Monchengladbach, Germany",,german_fires_monchengladbach_locations,4639b89410c77e806f332fd251f6a8a9,german_fires_monchengladbach_locations__b3bcc6c8b5c75072739c4bcfb564ab52
lee potter drive,"Lee Potter Drive in Monchengladbach, Germany",51.1540815,6.3043928,1,,,,Person,"Lee Potter Drive in Monchengladbach, Germany",,german_fires_monchengladbach_locations,cd35bef731f3073881046e3871616235,german_fires_monchengladbach_locations__cfc58ddaeeed89a43ac01d100f7ad039
maarplatz,"Maarplatz in Monchengladbach, Germany",51.1731002,6.4652229,1,,,,Diplomat,"Maarplatz in Monchengladbach, Germany",,german_fires_monchengladbach_locations,369595fc832644d954ef6e8b913c5caa,german_fires_monchengladbach_locations__a259e964ef1b2b19d25846074ad4abc4
malta way,"Malta Way in Monchengladbach, Germany",51.1784886,6.3330103,1,,,,ForeignMinistry,"Malta Way in Monchengladbach, Germany",,german_fires_monchengladbach_locations,689c1a20b75b4f409b274b665079a4d7,german_fires_monchengladbach_locations__1ab825c120a741dc0601f87c1b9040f3
marienplatz,"Marienplatz in Monchengladbach, Germany",51.165691,6.4419375,1,,,,DiplomaticFacilities,"Marienplatz in Monchengladbach, Germany",,german_fires_monchengladbach_locations,b993296290e8f1acbbe42da93ec1c217,german_fires_monchengladbach_locations__e944dcb43bc1b0d7647ed098db1114f4
martin-luther-platz,"Martin-Luther-Platz in Monchengladbach, Germany",51.13374,6.4532261,1,,,,FTO,"Martin-Luther-Platz in Monchengladbach, Germany",,german_fires_monchengladbach_locations,af8244b299824260b8f66b2a83b0a6a7,german_fires_monchengladbach_locations__2f546b3508855395b019d64558e77943
matthias-kronen-weg,"Matthias-Kronen-Weg in Monchengladbach, Germany",51.186042,6.4204655,1,,,,Person,"Matthias-Kronen-Weg in Monchengladbach, Germany",,german_fires_monchengladbach_locations,da4076fb0931f6a130ddc210ae523ce8,german_fires_monchengladbach_locations__1a8f8fbfa39a6727b1bd5d5cbfbb386e
norfolk lane,"Norfolk Lane in Monchengladbach, Germany",51.170215,6.3090804,1,,,,Organization,"Norfolk Lane in Monchengladbach, Germany",,german_fires_monchengladbach_locations,e201559077dc58436ef2c4a9eaa0d1ab,german_fires_monchengladbach_locations__3b3e607f4e5aae5c8344687dad12f111
orschelsweg,"Orschelsweg in Monchengladbach, Germany",51.1880705,6.3261941,1,,,,IndustryTerm,"Orschelsweg in Monchengladbach, Germany",,german_fires_monchengladbach_locations,ab2d5be6a548c1ba88e7e0a243887f4d,german_fires_monchengladbach_locations__d249aa85db31f6aa220f2b65fb783a76
paulstrasse,"Paulstrasse in Monchengladbach, Germany",51.1679589,6.4412077,1,,,,Organization,"Paulstrasse in Monchengladbach, Germany",,german_fires_monchengladbach_locations,46f1a7aa49481b4b4a617fde2134c44b,german_fires_monchengladbach_locations__12b75b2c46b7775c3aa95a457f132b2b
peter-beier-platz,"Peter-Beier-Platz in Monchengladbach, Germany",50.8043097,6.4798065,1,,,,Person,"Peter-Beier-Platz in Monchengladbach, Germany",,german_fires_monchengladbach_locations,d36a06e286996a7b45620135de6f8978,german_fires_monchengladbach_locations__0cacff4be7371de0eefa2b08418bda84
peter-schumacher-platz,"Peter-Schumacher-Platz in Monchengladbach, Germany",51.2245264,6.4732561,1,,,,Pipeline,"Peter-Schumacher-Platz in Monchengladbach, Germany",,german_fires_monchengladbach_locations,4849797ba0e75ece9f0bb146cf0795b0,german_fires_monchengladbach_locations__9c1a2241e6ce07c9c98e7b03fe10327a
portalstieg,"Portalstieg in Monchengladbach, Germany",51.1925048,6.4304471,1,,,,Diplomat,"Portalstieg in Monchengladbach, Germany",,german_fires_monchengladbach_locations,3eadd07702e2198471dc99ca244b22d9,german_fires_monchengladbach_locations__7f3d4b0ab51978d8641f2025cfb2e854
propst-kauff-stiege,"Propst-Kauff-Stiege in Monchengladbach, Germany",51.1937494,6.4322733,1,,,,ForeignMinistry,"Propst-Kauff-Stiege in Monchengladbach, Germany",,german_fires_monchengladbach_locations,6142f7ae12a05793d8c1116b4b2d3995,german_fires_monchengladbach_locations__ca46449ff6a7c1644e18cdd02da0bee6
remigiusstrasse,"Remigiusstrasse in Monchengladbach, Germany",51.1530081,6.4846214,1,,,,Media,"Remigiusstrasse in Monchengladbach, Germany",,german_fires_monchengladbach_locations,ca938169adfeb784724c4b99e3bd978d,german_fires_monchengladbach_locations__36b9287c8e7bb23766effbd54f52bbe1
romanstrasse,"Romanstrasse in Monchengladbach, Germany",51.2095817,6.4836811,1,,,,AAEntity,"Romanstrasse in Monchengladbach, Germany",,german_fires_monchengladbach_locations,14ca091d78fd001363ef2c24d52f8172,german_fires_monchengladbach_locations__144d7c6b9edb558b301e2406b514af04
rook road,"Rook Road in Monchengladbach, Germany",51.1594152,6.3085178,1,,,,Keyphrase,"Rook Road in Monchengladbach, Germany",,german_fires_monchengladbach_locations,a52930239c0d4ddcfb36240ec6b432dd,german_fires_monchengladbach_locations__8f599c636c5f40020eb1b060079e670a
schillerplatz,"Schillerplatz in Monchengladbach, Germany",51.1992328,6.442846,1,,,,Pipeline,"Schillerplatz in Monchengladbach, Germany",,german_fires_monchengladbach_locations,493f29de029ad1880401f21e2459006f,german_fires_monchengladbach_locations__1f4fc45a92efd78029fc3344d94ac0d2
schrodter feld,"Schrodter Feld in Monchengladbach, Germany",51.1664455,6.477862,1,,,,ForeignMinister,"Schrodter Feld in Monchengladbach, Germany",,german_fires_monchengladbach_locations,f679753121ab845b052d1be6783a9c12,german_fires_monchengladbach_locations__424535d311e8720cf879904e14268f30
schwester-gisela-weg,"Schwester-Gisela-Weg in Monchengladbach, Germany",51.2189102,6.464364,1,,,,AAEntity,"Schwester-Gisela-Weg in Monchengladbach, Germany",,german_fires_monchengladbach_locations,58d227fc337a466ea7a024ec68de7901,german_fires_monchengladbach_locations__593a633a6728bbf336682bbc8322c995
st.-apollinaris-platz,"St.-Apollinaris-Platz in Monchengladbach, Germany",51.1874195,6.4660457,1,,,,Legislator,"St.-Apollinaris-Platz in Monchengladbach, Germany",,german_fires_monchengladbach_locations,a5d271be4456aadcd989fda6039dba34,german_fires_monchengladbach_locations__cd4a2bad8b4e762776822570cc536513
steegesweg,"Steegesweg in Monchengladbach, Germany",51.1572985,6.4369331,1,,,,Consulates,"Steegesweg in Monchengladbach, Germany",,german_fires_monchengladbach_locations,adfe4bff5e98790389eac9834bb819a4,german_fires_monchengladbach_locations__759bdea8d29363485532e3b8dbef1f3e
suffolk lane,"Suffolk Lane in Monchengladbach, Germany",51.1693188,6.3102818,1,,,,DiplomaticFacilities,"Suffolk Lane in Monchengladbach, Germany",,german_fires_monchengladbach_locations,a88a3f4e33577c35ff7021d5d455cd57,german_fires_monchengladbach_locations__a37230757474a923af27e63338ec26fc
surrey ride,"Surrey Ride in Monchengladbach, Germany",51.1708663,6.3088956,1,,,,Media,"Surrey Ride in Monchengladbach, Germany",,german_fires_monchengladbach_locations,fb398c07f7024ebd30c1033b1e75a838,german_fires_monchengladbach_locations__b3bd1910f8f79e347e4f40b239768506
sutherland lane,"Sutherland Lane in Monchengladbach, Germany",51.1690692,6.3102868,1,,,,space,"Sutherland Lane in Monchengladbach, Germany",,german_fires_monchengladbach_locations,058a986a897326ff86165346b04ac1ca,german_fires_monchengladbach_locations__651f04887413a1a16018ddf770ef319a
tilsiter strasse,"Tilsiter Strasse in Monchengladbach, Germany",51.2035138,6.4172827,1,,,,Keyphrase,"Tilsiter Strasse in Monchengladbach, Germany",,german_fires_monchengladbach_locations,43ab2c412dcfc2de159cfba47b551213,german_fires_monchengladbach_locations__4031d0467f79a4617564ed8ae9092aa7
uferweg,"Uferweg in Monchengladbach, Germany",51.1369316,6.4510345,1,,,,Organization,"Uferweg in Monchengladbach, Germany",,german_fires_monchengladbach_locations,ffe5ef999ef3de46dbdbf7ddb44476e8,german_fires_monchengladbach_locations__d694b380f25df10694925a8231305340
wallsendpromenade,"Wallsendpromenade in Monchengladbach, Germany",51.1591684,6.4258877,1,,,,Keyphrase,"Wallsendpromenade in Monchengladbach, Germany",,german_fires_monchengladbach_locations,874147a7299c0d5c4ed4a80265c65cfd,german_fires_monchengladbach_locations__9502037e105d8674c6532996d23d66fa
wattstrasse,"Wattstrasse in Monchengladbach, Germany",51.2055025,6.4516549,1,,,,ForeignMinistry,"Wattstrasse in Monchengladbach, Germany",,german_fires_monchengladbach_locations,97ca95cdcaf71b6242d4160a790236c5,german_fires_monchengladbach_locations__b7c83ebecc37f6664ffadd3f20a1a7a1
westmoreland lane,"Westmoreland Lane in Monchengladbach, Germany",51.1693428,6.3098736,1,,,,News,"Westmoreland Lane in Monchengladbach, Germany",,german_fires_monchengladbach_locations,b1ba44d6ddfd50b333559aecf830b076,german_fires_monchengladbach_locations__f1a1399ebf9b427d1962be318c9ca709
am beller wehr,"Am Beller Wehr in Monchengladbach, Germany",51.1498417,6.4539327,1,,,,FTO,"Am Beller Wehr in Monchengladbach, Germany",,german_fires_monchengladbach_locations,1a60db20c60edb61f169c3c163b54b94,german_fires_monchengladbach_locations__5114e4778888522c223dd04decc6fbdb
hindenburgstrasse,"Hindenburgstrasse in Monchengladbach, Germany",51.1978271,6.4445238,1,,,,Consulates,"Hindenburgstrasse in Monchengladbach, Germany",,german_fires_monchengladbach_locations,f93c461a8e68e2509fb36237a25cf806,german_fires_monchengladbach_locations__f504546d8f33fe49ece83ee372875991
theodor-heuss-strasse,"Theodor-Heuss-Strasse in Monchengladbach, Germany",51.1852131,6.4439881,1,,,,DiplomaticFacilities,"Theodor-Heuss-Strasse in Monchengladbach, Germany",,german_fires_monchengladbach_locations,7cdb56f0d86536c89e7b24d0359962ea,german_fires_monchengladbach_locations__aed1d67ac4a439524099587f1343744a
krefelder strasse,"Krefelder Strasse in Monchengladbach, Germany",51.2177556,6.4763374,1,,,,DiplomaticFacilities,"Krefelder Strasse in Monchengladbach, Germany",,german_fires_monchengladbach_locations,0615c456039b5e31c60991e3e959f859,german_fires_monchengladbach_locations__7ef82f7323b735932a6e708670a7bfd7
carl-diem-strasse,"Carl-Diem-Strasse in Monchengladbach, Germany",51.1945205,6.4625297,1,,,,News,"Carl-Diem-Strasse in Monchengladbach, Germany",,german_fires_monchengladbach_locations,41695b37fdff28f5a1bfdda686a571c3,german_fires_monchengladbach_locations__940807969ed058cbc4f1031312fdac59
an der rheydter hohe,"An der Rheydter Hohe in Monchengladbach, Germany",51.1591131,6.4112935,1,,,,LegislativeCommittee,"An der Rheydter Hohe in Monchengladbach, Germany",,german_fires_monchengladbach_locations,10b2d9417927ec0ca91bf2340c7ec748,german_fires_monchengladbach_locations__4e2723646f357f11e1e727aad6476941
wilhelm-krumme-strasse,"Wilhelm-Krumme-Strasse in Monchengladbach, Germany",51.1266477,6.4574898,1,,,,ForeignMinistry,"Wilhelm-Krumme-Strasse in Monchengladbach, Germany",,german_fires_monchengladbach_locations,d5479681cf0c70892e2cd05848e6732b,german_fires_monchengladbach_locations__cd72dac86a7fb5c9a1c6b015b4e275fa
woof,"Woof in Monchengladbach, Germany",51.1520496,6.3238618,1,,,,Exec,"Woof in Monchengladbach, Germany",,german_fires_monchengladbach_locations,a9b0202a8b38855c8c9d978445dea248,german_fires_monchengladbach_locations__ee5e0e314f68a99b44c4734772120e1c
leppershutte,"Leppershutte in Monchengladbach, Germany",51.1716105,6.5185977,1,,,,IndustryTerm,"Leppershutte in Monchengladbach, Germany",,german_fires_monchengladbach_locations,588733e7124a5d74836d4e7436dec3ad,german_fires_monchengladbach_locations__68ea5e520a76e9f44244c6763b85b522
taubenhutte,"Taubenhutte in Monchengladbach, Germany",51.1700269,6.5121006,1,,,,FTO,"Taubenhutte in Monchengladbach, Germany",,german_fires_monchengladbach_locations,77013c1fd75de8ef3696d240b3fa2a48,german_fires_monchengladbach_locations__ad485d8052d894b7c106b1db1584fdaa
jahnstrasse,"Jahnstrasse in Monchengladbach, Germany",51.1371815,6.4181135,1,,,,DiplomaticFacilities,"Jahnstrasse in Monchengladbach, Germany",,german_fires_monchengladbach_locations,fa0b6e1b3ab6ba0bc1c435b903b73fe0,german_fires_monchengladbach_locations__b8775740298aa4aabd9a13f5a1103c17
bruckenstrasse,"Bruckenstrasse in Monchengladbach, Germany",51.1550512,6.4602143,1,,,,Consulates,"Bruckenstrasse in Monchengladbach, Germany",,german_fires_monchengladbach_locations,b853aceea8dfc2fd993ffb9739b561e7,german_fires_monchengladbach_locations__bbd94f8a2f3a1a947f996535bad45418
konnental,"Konnental in Monchengladbach, Germany",51.1227564,6.4399562,1,,,,Refinery,"Konnental in Monchengladbach, Germany",,german_fires_monchengladbach_locations,339f6d8d6f00183da8694bad4950b7a8,german_fires_monchengladbach_locations__e781e0f35dbe728853c57fa6e0b98e01
heiligenpesch,"Heiligenpesch in Monchengladbach, Germany",51.1809383,6.3712792,1,,,,ForeignMinister,"Heiligenpesch in Monchengladbach, Germany",,german_fires_monchengladbach_locations,e5c5d8b7c517d9486c9dab0ede93f56f,german_fires_monchengladbach_locations__412fb33c2db85b94162a1c7847f07871
hermann-ehlers-strasse,"Hermann-Ehlers-Strasse in Monchengladbach, Germany",51.1521128,6.3663232,1,,,,ForeignMinistry,"Hermann-Ehlers-Strasse in Monchengladbach, Germany",,german_fires_monchengladbach_locations,78dbcfe79eaa22a3c0f76d6d98170872,german_fires_monchengladbach_locations__b1d236cd4295534eada991a396690868
an den huren,"An den Huren in Monchengladbach, Germany",51.2116454,6.4795108,1,,,,Wells,"An den Huren in Monchengladbach, Germany",,german_fires_monchengladbach_locations,4b9cb6569e1ed27f9e3bc051acbe3b31,german_fires_monchengladbach_locations__5ff770bf9c329f7b8003e6244b6f8a38
webershutte,"Webershutte in Monchengladbach, Germany",51.207086,6.4825421,1,,,,Exec,"Webershutte in Monchengladbach, Germany",,german_fires_monchengladbach_locations,59256ea70598fe5aac8639c532b62562,german_fires_monchengladbach_locations__84dae3e6d478a6a44fd4722b08c7b34a
neersbroicher strasse,"Neersbroicher Strasse in Monchengladbach, Germany",51.2281408,6.4801084,1,,,,LegislativeCommittee,"Neersbroicher Strasse in Monchengladbach, Germany",,german_fires_monchengladbach_locations,8806bb75a297ba31b0a439fd34b4f456,german_fires_monchengladbach_locations__b9d4504dc3cf014e0bce5da5ea7fe541
vorster strasse,"Vorster Strasse in Monchengladbach, Germany",51.1989597,6.3581523,1,,,,Keyphrase,"Vorster Strasse in Monchengladbach, Germany",,german_fires_monchengladbach_locations,afe82a57cf592220249460181f33f1a2,german_fires_monchengladbach_locations__d41250e8d8e273c6dffd052237dfbc84
landgrafenstrasse,"Landgrafenstrasse in Monchengladbach, Germany",51.1841734,6.4240142,1,,,,Diplomat,"Landgrafenstrasse in Monchengladbach, Germany",,german_fires_monchengladbach_locations,ac61a8e5a14e053ab9491009d44ca4dd,german_fires_monchengladbach_locations__b82accc22dcc3e940a6a937c229275ca
graf-haeseler-strasse,"Graf-Haeseler-Strasse in Monchengladbach, Germany",51.2200717,6.4419873,1,,,,LegislativeCommittee,"Graf-Haeseler-Strasse in Monchengladbach, Germany",,german_fires_monchengladbach_locations,ed9d33c7623c4fb07bb3660dd799f602,german_fires_monchengladbach_locations__745bf775c546e2696411f0233a19bc79
hovener strasse,"Hovener Strasse in Monchengladbach, Germany",51.2230157,6.4552943,1,,,,Refinery,"Hovener Strasse in Monchengladbach, Germany",,german_fires_monchengladbach_locations,40bd4a4b76c772dcc001bee2f74a68bb,german_fires_monchengladbach_locations__04457e8436514c2b484a1ee5422c3da7
heinrich-pesch-strasse,"Heinrich-Pesch-Strasse in Monchengladbach, Germany",51.1712698,6.4366472,1,,,,space,"Heinrich-Pesch-Strasse in Monchengladbach, Germany",,german_fires_monchengladbach_locations,ca6c0ec1ce1415c2d2c0cd50d98f7757,german_fires_monchengladbach_locations__6ed93bd26d9ab6d16f4ef95b643d87a0
bertolt-brecht-platz,"Bertolt-Brecht-Platz in Monchengladbach, Germany",51.200332,6.3850714,1,,,,Keyphrase,"Bertolt-Brecht-Platz in Monchengladbach, Germany",,german_fires_monchengladbach_locations,f5efb4965be897c9f4e7635c0115648e,german_fires_monchengladbach_locations__9c329b909b565674cdeec864e921c4ed
brucknerallee,"Brucknerallee in Monchengladbach, Germany",51.1730149,6.443718,1,,,,CompanyKeyword,"Brucknerallee in Monchengladbach, Germany",,german_fires_monchengladbach_locations,df3824c6f31a5dca749c3c5b9685cc2b,german_fires_monchengladbach_locations__10691cfd5220190ee305c9617035ad3e
am romerlager,"Am Romerlager in Monchengladbach, Germany",51.148638,6.4579537,1,,,,AAEntity,"Am Romerlager in Monchengladbach, Germany",,german_fires_monchengladbach_locations,b39086838eaf69254a0557470556c297,german_fires_monchengladbach_locations__8f8bae2a536b72f7d284c661b583dae8
gerkerathwinkel,"Gerkerathwinkel in Monchengladbach, Germany",51.1685323,6.3526111,1,,,,ForeignMinistry,"Gerkerathwinkel in Monchengladbach, Germany",,german_fires_monchengladbach_locations,82d2f92f0589f4a3ff2e981bf45e47e8,german_fires_monchengladbach_locations__3ac874ebaad31297d6fd213f8c6044f8
schloss-dyck-strasse,"Schloss-Dyck-Strasse in Monchengladbach, Germany",51.1499156,6.5170964,1,,,,IndustryTerm,"Schloss-Dyck-Strasse in Monchengladbach, Germany",,german_fires_monchengladbach_locations,80393e1958336517d0046d545fba7ba4,german_fires_monchengladbach_locations__dddf174a64103d687522172b68912e5d
mossenweg,"Mossenweg in Monchengladbach, Germany",51.2083617,6.386403,1,,,,Pipeline,"Mossenweg in Monchengladbach, Germany",,german_fires_monchengladbach_locations,5b2a8892f52c9ee9d0d155ca35391851,german_fires_monchengladbach_locations__cebbc860d72e1fae27e593fa120cd3e7
marie-juchacz-strasse,"Marie-Juchacz-Strasse in Monchengladbach, Germany",51.1230784,6.4329268,1,,,,space,"Marie-Juchacz-Strasse in Monchengladbach, Germany",,german_fires_monchengladbach_locations,8eaeae716e8dbffc6476459397699630,german_fires_monchengladbach_locations__8250f74f11480cbf7a9f971bea550b14
mennrathschmidt,"Mennrathschmidt in Monchengladbach, Germany",51.1404938,6.3855365,1,,,,Media,"Mennrathschmidt in Monchengladbach, Germany",,german_fires_monchengladbach_locations,8f69245d6b8ad97b20396b7186529a5e,german_fires_monchengladbach_locations__4b51c014d925d8f121a49f1fe4e6c842
donker strasse,"Donker Strasse in Monchengladbach, Germany",51.2385699,6.4634764,1,,,,Keyphrase,"Donker Strasse in Monchengladbach, Germany",,german_fires_monchengladbach_locations,9ad4094e5491ecbd30e0f58de8b7f00a,german_fires_monchengladbach_locations__9bde53bcf9dce39fbe065912a1e30e02
preyerstrasse,"Preyerstrasse in Monchengladbach, Germany",51.1684403,6.418407,1,,,,Keyphrase,"Preyerstrasse in Monchengladbach, Germany",,german_fires_monchengladbach_locations,f746a236903b5b65ce0ecfba3a304d9a,german_fires_monchengladbach_locations__91d569969e583ff2ac269dc477188fdb
rommelsmaar,"Rommelsmaar in Monchengladbach, Germany",51.1575071,6.5231284,1,,,,Consulates,"Rommelsmaar in Monchengladbach, Germany",,german_fires_monchengladbach_locations,06a226248e86f01beec63589572fc02a,german_fires_monchengladbach_locations__f2e8874a2d9994258f81fa18588da624
eichenstrasse,"Eichenstrasse in Monchengladbach, Germany",51.182643,6.4658261,1,,,,Media,"Eichenstrasse in Monchengladbach, Germany",,german_fires_monchengladbach_locations,3d2364a98c81c0881e10db563e60949f,german_fires_monchengladbach_locations__bcceb364e01f8c742c4abd58ed7a31dc
dohrer strasse,"Dohrer Strasse in Monchengladbach, Germany",51.1581702,6.467246,1,,,,Wells,"Dohrer Strasse in Monchengladbach, Germany",,german_fires_monchengladbach_locations,c0a3cd9425a487505cad350742b21d50,german_fires_monchengladbach_locations__e8f24daed1efce4f50515df45162521b
hehn,"Hehn in Monchengladbach, Germany",51.1814755,6.374027,1,,,,News,"Hehn in Monchengladbach, Germany",,german_fires_monchengladbach_locations,87583a5aeae5b54f4963683d20e6a3a1,german_fires_monchengladbach_locations__4fb21bb32251f417a4b24c35882d011a
ruckes,"Ruckes in Monchengladbach, Germany",51.1659244,6.4916602,1,,,,Exec,"Ruckes in Monchengladbach, Germany",,german_fires_monchengladbach_locations,f1ee780acf0bb85697afefdc2b833b3a,german_fires_monchengladbach_locations__7416c316187152ef2f5e607e80dc61f0
aachener strasse,"Aachener Strasse in Monchengladbach, Germany",51.1847171,6.4134782,1,,,,Consulates,"Aachener Strasse in Monchengladbach, Germany",,german_fires_monchengladbach_locations,8cbb81bcc001039895c2dccbed135c64,german_fires_monchengladbach_locations__d1db4771795c20e254676a11734f73b2
tomper weg,"Tomper Weg in Monchengladbach, Germany",51.2085597,6.3350453,1,,,,Keyphrase,"Tomper Weg in Monchengladbach, Germany",,german_fires_monchengladbach_locations,9921b2a7b3af0230e22e5f5a7209c710,german_fires_monchengladbach_locations__f972d5a79eb67b197e573bfe647b2029
maarstrasse,"Maarstrasse in Monchengladbach, Germany",51.1729925,6.4634394,1,,,,Organization,"Maarstrasse in Monchengladbach, Germany",,german_fires_monchengladbach_locations,824fa6a5cb2f32077d6e3d1f50f6be42,german_fires_monchengladbach_locations__c169a8dc5e00779c6122adee28eca779
blaffert,"Blaffert in Monchengladbach, Germany",51.1620025,6.4779784,1,,,,Media,"Blaffert in Monchengladbach, Germany",,german_fires_monchengladbach_locations,fc3b14c3cd5966bb4ad86a555104c99f,german_fires_monchengladbach_locations__d4640339a1719fd0bdf06a30844ddddd
engelsmuhlenweg,"Engelsmuhlenweg in Monchengladbach, Germany",51.217372,6.4837454,1,,,,Person,"Engelsmuhlenweg in Monchengladbach, Germany",,german_fires_monchengladbach_locations,3124408c3c94c7fb068474e6a9c45a19,german_fires_monchengladbach_locations__ff855e84d6bc177a3517264e884bde9b
wilhelmstrasse,"Wilhelmstrasse in Monchengladbach, Germany",51.1932273,6.4398651,1,,,,IndustryTerm,"Wilhelmstrasse in Monchengladbach, Germany",,german_fires_monchengladbach_locations,dabc146eb93de6832d1b7c0cf6bca5f3,german_fires_monchengladbach_locations__92a7d1e8ed59ff9fcc9ad4f4ee6f16f8
lambertsstrasse,"Lambertsstrasse in Monchengladbach, Germany",51.1935746,6.4391285,1,,,,LegislativeCommittee,"Lambertsstrasse in Monchengladbach, Germany",,german_fires_monchengladbach_locations,b888857713f70f925cee6f8aa47e1b9c,german_fires_monchengladbach_locations__e0f7d54db28a9aa7bf6acb73058012ea
burggrafenstrasse,"Burggrafenstrasse in Monchengladbach, Germany",51.1916908,6.4197036,1,,,,Person,"Burggrafenstrasse in Monchengladbach, Germany",,german_fires_monchengladbach_locations,39378cf3088d9540c6d17117f6994147,german_fires_monchengladbach_locations__d25ad45ff84c8dbda472cec1991a1561
herrather linde,"Herrather Linde in Monchengladbach, Germany",51.1003668,6.3642545,1,,,,LegislativeCommittee,"Herrather Linde in Monchengladbach, Germany",,german_fires_monchengladbach_locations,39c0ec11554fe05efbee0f6cf2067ffd,german_fires_monchengladbach_locations__dbec1de2352db8e7aec7174ae949cbe1
reyerstrasse,"Reyerstrasse in Monchengladbach, Germany",51.195904,6.4634595,1,,,,Person,"Reyerstrasse in Monchengladbach, Germany",,german_fires_monchengladbach_locations,b351925c5285dab8e5df38c5f517bad5,german_fires_monchengladbach_locations__11dd11531a71026d8c9f322ce8c6bce7
dohler strasse,"Dohler Strasse in Monchengladbach, Germany",51.178792,6.4627162,1,,,,Exec,"Dohler Strasse in Monchengladbach, Germany",,german_fires_monchengladbach_locations,ec755754d7d9851114fef22d3441aa87,german_fires_monchengladbach_locations__78bf4f8ea74ce31dce367e83df638d14
mongshof,"Mongshof in Monchengladbach, Germany",51.1169416,6.4481136,1,,,,LegislativeCommittee,"Mongshof in Monchengladbach, Germany",,german_fires_monchengladbach_locations,a56c3e04749807a64116ed7310b7f305,german_fires_monchengladbach_locations__fb18d1670d50681b3573171647a61830
urftstrasse,"Urftstrasse in Monchengladbach, Germany",51.1609432,6.4290374,1,,,,FTO,"Urftstrasse in Monchengladbach, Germany",,german_fires_monchengladbach_locations,ce1237fb92d550e7adb0db961c4a5499,german_fires_monchengladbach_locations__e7345b59564ed96f21904b2b6c74e85d
marie-bernays-ring,"Marie-Bernays-Ring in Monchengladbach, Germany",51.1201011,6.4335864,1,,,,CompanyKeyword,"Marie-Bernays-Ring in Monchengladbach, Germany",,german_fires_monchengladbach_locations,f50cd75b3aa117487f02b44d149b2c63,german_fires_monchengladbach_locations__d5d6c47d04b5e016b151a8578ce3ceb1
hompeschstrasse,"Hompeschstrasse in Monchengladbach, Germany",51.1342171,6.4019254,1,,,,Pipeline,"Hompeschstrasse in Monchengladbach, Germany",,german_fires_monchengladbach_locations,a4f2644995860d52fa9f0ddadb57cf79,german_fires_monchengladbach_locations__723070a643690e360b1dd387df10bb31
pongser strasse,"Pongser Strasse in Monchengladbach, Germany",51.1664995,6.415308,1,,,,Wells,"Pongser Strasse in Monchengladbach, Germany",,german_fires_monchengladbach_locations,60b8d970c52ada4d2a80689350d63c1a,german_fires_monchengladbach_locations__a035daebd7dd251c01553dcb69a2aaad
ohlerhof,"Ohlerhof in Monchengladbach, Germany",51.175371,6.4265849,1,,,,DiplomaticFacilities,"Ohlerhof in Monchengladbach, Germany",,german_fires_monchengladbach_locations,82d4354aadb2f0cd50f1763e9db07c62,german_fires_monchengladbach_locations__106db47ed61dade5cf896d117d99d247
engelblecker strasse,"Engelblecker Strasse in Monchengladbach, Germany",51.2173354,6.4692269,1,,,,Organization,"Engelblecker Strasse in Monchengladbach, Germany",,german_fires_monchengladbach_locations,21ef352d60f7657e61c825bad1d7b861,german_fires_monchengladbach_locations__28a3822dc890a222a7d7c6f9435562b9
genholland,"Genholland in Monchengladbach, Germany",51.1277621,6.3568226,1,,,,FTO,"Genholland in Monchengladbach, Germany",,german_fires_monchengladbach_locations,54086a1f347a9a933f7ee98fc8c89d80,german_fires_monchengladbach_locations__66ab3fd8aec2d6a27e99925a636fcc15
meerkamp,"Meerkamp in Monchengladbach, Germany",51.1661605,6.483426,1,,,,ForeignMinistry,"Meerkamp in Monchengladbach, Germany",,german_fires_monchengladbach_locations,cdf8304f4e51dbb836948099296028b5,german_fires_monchengladbach_locations__b3cacfeb0e31d4f86e5f7dd59a26d5df
plattenstrasse,"Plattenstrasse in Monchengladbach, Germany",51.0985681,6.413823,1,,,,AAEntity,"Plattenstrasse in Monchengladbach, Germany",,german_fires_monchengladbach_locations,ad1a60c4243a959da7a2c5015991894c,german_fires_monchengladbach_locations__70412aac651d7a4d97f2dff0d97b0972
korschenbroicher strasse,"Korschenbroicher Strasse in Monchengladbach, Germany",51.1983597,6.4671701,1,,,,Shipping,"Korschenbroicher Strasse in Monchengladbach, Germany",,german_fires_monchengladbach_locations,465402fed505ce614ac848b2c2ef9b77,german_fires_monchengladbach_locations__bed3f078a8eb55ac24411c16106bb225
selma-horn-weg,"Selma-Horn-Weg in Monchengladbach, Germany",51.1257616,6.457433,1,,,,FTO,"Selma-Horn-Weg in Monchengladbach, Germany",,german_fires_monchengladbach_locations,ec554a3866a054994cfa9bfa825084d7,german_fires_monchengladbach_locations__81469854e0750cfc556e3bf42491afe1
fuchskuhlenweg,"Fuchskuhlenweg in Monchengladbach, Germany",51.142418,6.4369411,1,,,,News,"Fuchskuhlenweg in Monchengladbach, Germany",,german_fires_monchengladbach_locations,abdf6d985eee0eae29dec5846a0e84be,german_fires_monchengladbach_locations__028f4420a2aacfec524e1a38b643564d
flachsbleiche,"Flachsbleiche in Monchengladbach, Germany",51.1680353,6.3816484,1,,,,IndustryTerm,"Flachsbleiche in Monchengladbach, Germany",,german_fires_monchengladbach_locations,d04fe1c47397d0d783301f89e3c6ea9e,german_fires_monchengladbach_locations__89e745ae1ce22df18e5d45b2e15151c4
klusenstrasse,"Klusenstrasse in Monchengladbach, Germany",51.1524794,6.4147689,1,,,,Refinery,"Klusenstrasse in Monchengladbach, Germany",,german_fires_monchengladbach_locations,03e361d30b9a6dd567b0090047dd0f3f,german_fires_monchengladbach_locations__ee9aa1746a1a6f122ebeb459475b6d19
jakobshohe,"Jakobshohe in Monchengladbach, Germany",51.2147885,6.4780166,1,,,,Consulates,"Jakobshohe in Monchengladbach, Germany",,german_fires_monchengladbach_locations,20cb33848cdef9f9b3230744db464e29,german_fires_monchengladbach_locations__97186d3b51c432943480ead3a168dfb8
kabelstrasse,"Kabelstrasse in Monchengladbach, Germany",51.1831311,6.4204037,1,,,,IndustryTerm,"Kabelstrasse in Monchengladbach, Germany",,german_fires_monchengladbach_locations,40df2451cb55648940ac0be498303fa5,german_fires_monchengladbach_locations__08713cd7943b2dd50c39a26e0cd55180
heinz-nixdorf-strasse,"Heinz-Nixdorf-Strasse in Monchengladbach, Germany",51.1725807,6.3906398,1,,,,News,"Heinz-Nixdorf-Strasse in Monchengladbach, Germany",,german_fires_monchengladbach_locations,a831c074af2e12a18a41df6fbdfc6fe8,german_fires_monchengladbach_locations__a2d547c478aed7ab4fc56dde9e7470df
hehner strasse,"Hehner Strasse in Monchengladbach, Germany",51.1887932,6.4098852,1,,,,ForeignMinistry,"Hehner Strasse in Monchengladbach, Germany",,german_fires_monchengladbach_locations,eb73bf1c2c66e82c512e84d424542474,german_fires_monchengladbach_locations__4568cb995d6dbeedb93b3c374483849e
voosen,"Voosen in Monchengladbach, Germany",51.1513016,6.3798403,1,,,,Refinery,"Voosen in Monchengladbach, Germany",,german_fires_monchengladbach_locations,39b3e1fc36cdd91dfe3f6ac6b1c8c068,german_fires_monchengladbach_locations__f8cdd1dbfa59afdc2b3e735860790891
windmuhlenweg,"Windmuhlenweg in Monchengladbach, Germany",51.2015838,6.4025159,1,,,,Person,"Windmuhlenweg in Monchengladbach, Germany",,german_fires_monchengladbach_locations,08b063bf70caca933d72c189ce665fbe,german_fires_monchengladbach_locations__88937645ab327d71646d750e051f27bf
kirchhofstrasse,"Kirchhofstrasse in Monchengladbach, Germany",51.134139,6.4570547,1,,,,News,"Kirchhofstrasse in Monchengladbach, Germany",,german_fires_monchengladbach_locations,8c4ca2fa678c2d63fa1058e8f6402f81,german_fires_monchengladbach_locations__25eef4e2c087ab72b1ef8c731bdf9cd9
im grund,"Im Grund in Monchengladbach, Germany",51.1507619,6.4160839,1,,,,Wells,"Im Grund in Monchengladbach, Germany",,german_fires_monchengladbach_locations,899fb7dd25346933510286366afe383b,german_fires_monchengladbach_locations__e533b9849d99e34a569389bf2586af70
jorespfad,"Jorespfad in Monchengladbach, Germany",51.2057658,6.4672966,1,,,,Organization,"Jorespfad in Monchengladbach, Germany",,german_fires_monchengladbach_locations,a693a21ddf832abae2d53badb0a153a5,german_fires_monchengladbach_locations__b2d88f5380610919b1ec5cb80d47c34e
grunstrasse,"Grunstrasse in Monchengladbach, Germany",51.1283191,6.4553164,1,,,,Pipeline,"Grunstrasse in Monchengladbach, Germany",,german_fires_monchengladbach_locations,b90155737067a55a62829ee286e3c459,german_fires_monchengladbach_locations__5779d809c0c385e45c3a8de8aa6cc8de
giesenkirchener strasse,"Giesenkirchener Strasse in Monchengladbach, Germany",51.150362,6.4641035,1,,,,LegislativeCommittee,"Giesenkirchener Strasse in Monchengladbach, Germany",,german_fires_monchengladbach_locations,def94b0e6823bf78e5559400aa6e57e0,german_fires_monchengladbach_locations__68e31d42437b4aae1b5679a3ba745bb0
am flughafen,"Am Flughafen in Monchengladbach, Germany",51.2314873,6.493787,1,,,,Legislator,"Am Flughafen in Monchengladbach, Germany",,german_fires_monchengladbach_locations,61493251488911bcc1d324a920f6b454,german_fires_monchengladbach_locations__8f9b02d76fa92db59bfb48100297fb06
wehnerstrasse,"Wehnerstrasse in Monchengladbach, Germany",51.1959993,6.4195443,1,,,,Media,"Wehnerstrasse in Monchengladbach, Germany",,german_fires_monchengladbach_locations,263772e563d38ed5177674224ee02fa0,german_fires_monchengladbach_locations__144f07e072a51e5b6d1905d497cd79a6
bockerkamp,"Bockerkamp in Monchengladbach, Germany",51.2255032,6.4552087,1,,,,space,"Bockerkamp in Monchengladbach, Germany",,german_fires_monchengladbach_locations,26368913f7b8b2a2cdf891f63e1077e2,german_fires_monchengladbach_locations__8d9721ba0afffa8be319cfda59df12a0
friesenstrasse,"Friesenstrasse in Monchengladbach, Germany",51.1562312,6.4810931,1,,,,FTO,"Friesenstrasse in Monchengladbach, Germany",,german_fires_monchengladbach_locations,fd77190afc4401093e69c66ebec0eae8,german_fires_monchengladbach_locations__a30eccbb8d98447038beea70f8a52017
muhlenstrasse,"Muhlenstrasse in Monchengladbach, Germany",51.1694284,6.4480212,1,,,,DiplomaticFacilities,"Muhlenstrasse in Monchengladbach, Germany",,german_fires_monchengladbach_locations,f76f0833be9afeb3b613f5a46cbd75ef,german_fires_monchengladbach_locations__9ff4dfca74dab62c1ffbd9e46f1a36f0
steinsstrasse,"Steinsstrasse in Monchengladbach, Germany",51.1492057,6.4468901,1,,,,Media,"Steinsstrasse in Monchengladbach, Germany",,german_fires_monchengladbach_locations,5bf02bf2430ae55738b0eca0308e0d27,german_fires_monchengladbach_locations__e559a78b114a45d78b658a98890e38df
burgfreiheit,"Burgfreiheit in Monchengladbach, Germany",51.1342913,6.4526518,1,,,,Wells,"Burgfreiheit in Monchengladbach, Germany",,german_fires_monchengladbach_locations,4adadaa3c2dd3c6a5236b88f116e1be0,german_fires_monchengladbach_locations__67af248381302d04e0751a6c0bb1c272
hackesstrasse,"Hackesstrasse in Monchengladbach, Germany",51.2255063,6.4438697,1,,,,Person,"Hackesstrasse in Monchengladbach, Germany",,german_fires_monchengladbach_locations,57df0da8e79203dca7b0ba939293e188,german_fires_monchengladbach_locations__15ac1490bb6ce37dcf86cd8ae259f380
friedrich-ebert-strasse,"Friedrich-Ebert-Strasse in Monchengladbach, Germany",51.1698161,6.4398924,1,,,,IndustryTerm,"Friedrich-Ebert-Strasse in Monchengladbach, Germany",,german_fires_monchengladbach_locations,2d5b390a501c119aaa7a23fa94fce82f,german_fires_monchengladbach_locations__5822a540bb98fd88a503486f2a55b74c
broicher strasse,"Broicher Strasse in Monchengladbach, Germany",51.1557493,6.3454418,1,,,,CompanyKeyword,"Broicher Strasse in Monchengladbach, Germany",,german_fires_monchengladbach_locations,ed3e563e2153a452b06b266306309922,german_fires_monchengladbach_locations__248c0e33a2114660d4b730d3f53e91f2
bellstieg,"Bellstieg in Monchengladbach, Germany",51.2004869,6.4474475,1,,,,Pipeline,"Bellstieg in Monchengladbach, Germany",,german_fires_monchengladbach_locations,16e4291f8323209df9c28e64ff3b2a5a,german_fires_monchengladbach_locations__5d3006051410c3d415b5158546495bab
tackhutte,"Tackhutte in Monchengladbach, Germany",51.1715268,6.480636,1,,,,FTO,"Tackhutte in Monchengladbach, Germany",,german_fires_monchengladbach_locations,bfa748b51810e0ba67ac7325140f42af,german_fires_monchengladbach_locations__3d5f20fb9e0f708d097857f9ad30c533
bendhutter strasse,"Bendhutter Strasse in Monchengladbach, Germany",51.2207598,6.4728807,1,,,,News,"Bendhutter Strasse in Monchengladbach, Germany",,german_fires_monchengladbach_locations,b3ef5ed1f9e96c90c1aeba98adc32a82,german_fires_monchengladbach_locations__f0b7fb5956be20461f9299ea652241dd
pfarrer-orth-weg,"Pfarrer-Orth-Weg in Monchengladbach, Germany",51.1978289,6.3575211,1,,,,Media,"Pfarrer-Orth-Weg in Monchengladbach, Germany",,german_fires_monchengladbach_locations,35f0e801a0caa4d0d0fb3cbab05ea2bf,german_fires_monchengladbach_locations__39e37e826c8996291ef79b97e61c4869
hardenbergstrasse,"Hardenbergstrasse in Monchengladbach, Germany",51.1591376,6.4527416,1,,,,Media,"Hardenbergstrasse in Monchengladbach, Germany",,german_fires_monchengladbach_locations,2abb423ec641c802101ea7d0362e1e38,german_fires_monchengladbach_locations__454c3c15fd5dd11a193e3fd47ac1e463
steinmetzstrasse,"Steinmetzstrasse in Monchengladbach, Germany",51.1974561,6.4424233,1,,,,space,"Steinmetzstrasse in Monchengladbach, Germany",,german_fires_monchengladbach_locations,a3b691ecf255eca0a3bbb73408f4f741,german_fires_monchengladbach_locations__5bd23252385496f2857145e3bd14c266
sittardstrasse,"Sittardstrasse in Monchengladbach, Germany",51.1983103,6.4415879,1,,,,DiplomaticFacilities,"Sittardstrasse in Monchengladbach, Germany",,german_fires_monchengladbach_locations,146c61b542432d4231a0fa744c4d70ca,german_fires_monchengladbach_locations__c99d2807c3bfba5193fd9d0eaa0f69d9
ringesfeldchen,"Ringesfeldchen in Monchengladbach, Germany",51.1666652,6.5266519,1,,,,News,"Ringesfeldchen in Monchengladbach, Germany",,german_fires_monchengladbach_locations,d1600cde19a20597c4ce101e8f6cb1b8,german_fires_monchengladbach_locations__427b94d240e0482fa6e4fc4f152f2cc2
schonskanterweg,"Schonskanterweg in Monchengladbach, Germany",51.2156754,6.4820044,1,,,,AAEntity,"Schonskanterweg in Monchengladbach, Germany",,german_fires_monchengladbach_locations,07277de334751f1a5a4be80f32f92f83,german_fires_monchengladbach_locations__f2615ea0af3f12d71a6925b323bb03f5
im flachsfeld,"Im Flachsfeld in Monchengladbach, Germany",51.1438844,6.4429831,1,,,,Diplomat,"Im Flachsfeld in Monchengladbach, Germany",,german_fires_monchengladbach_locations,fd8b2053501163e9f9792db8cfcf5072,german_fires_monchengladbach_locations__e24bcbec6a353a31ba778865bee32de0
gelderner strasse,"Gelderner Strasse in Monchengladbach, Germany",51.1371158,6.4196391,1,,,,LegislativeCommittee,"Gelderner Strasse in Monchengladbach, Germany",,german_fires_monchengladbach_locations,8dc9bcb5810be0e46ce4dae63ebc0d42,german_fires_monchengladbach_locations__0b93b35f1c59a1426846f9c6cd11ed3f
schelsenweg,"Schelsenweg in Monchengladbach, Germany",51.1518484,6.4930274,1,,,,Person,"Schelsenweg in Monchengladbach, Germany",,german_fires_monchengladbach_locations,06a41a4480937099f69189143abb9fe1,german_fires_monchengladbach_locations__01fbc755b2be0b946dbc12e12b4694f1
annakirchstrasse,"Annakirchstrasse in Monchengladbach, Germany",51.2056329,6.4168626,1,,,,Person,"Annakirchstrasse in Monchengladbach, Germany",,german_fires_monchengladbach_locations,46b54a69753d0530a3efc4e4349c9827,german_fires_monchengladbach_locations__6c96bb2f8930808e0261d36114c965e6
venner strasse,"Venner Strasse in Monchengladbach, Germany",51.2071513,6.3968495,1,,,,IndustryTerm,"Venner Strasse in Monchengladbach, Germany",,german_fires_monchengladbach_locations,0bd6dec8501b7efa52142b57c93cec4a,german_fires_monchengladbach_locations__8186897f897666ceb626dd37c87c26ef
geistenbecker feld,"Geistenbecker Feld in Monchengladbach, Germany",51.1502198,6.4361989,1,,,,FTO,"Geistenbecker Feld in Monchengladbach, Germany",,german_fires_monchengladbach_locations,b0257729019c54fb857366708e720a27,german_fires_monchengladbach_locations__b54a1c1c80e75949a9b95dc1372e1254
sophienstrasse,"Sophienstrasse in Monchengladbach, Germany",51.1935462,6.4479123,1,,,,Consulates,"Sophienstrasse in Monchengladbach, Germany",,german_fires_monchengladbach_locations,c6c947e8306135db77c38fbba56753c7,german_fires_monchengladbach_locations__5ad8bb039ef80fe9ff6583b0ef425917
stapper weg,"Stapper Weg in Monchengladbach, Germany",51.1474139,6.440002,1,,,,CompanyKeyword,"Stapper Weg in Monchengladbach, Germany",,german_fires_monchengladbach_locations,3cf911e44046877881aaeb66f82e15e1,german_fires_monchengladbach_locations__221ff4085242cfa5d6e6765592eb0481
neusser strasse,"Neusser Strasse in Monchengladbach, Germany",51.2040783,6.4744641,1,,,,ForeignMinistry,"Neusser Strasse in Monchengladbach, Germany",,german_fires_monchengladbach_locations,78f55d362182c10cbef9778ec5755847,german_fires_monchengladbach_locations__14ed9f0319f7809adf2b33ad1c68cbcd
broseweg,"Broseweg in Monchengladbach, Germany",51.2072153,6.4454609,1,,,,DiplomaticFacilities,"Broseweg in Monchengladbach, Germany",,german_fires_monchengladbach_locations,2455e8ac1cfda4be6e171160aa82143f,german_fires_monchengladbach_locations__668b2c8ba0288688b33075731f9124a1
saarlandallee,"Saarlandallee in Monchengladbach, Germany",51.2038323,6.4320601,1,,,,space,"Saarlandallee in Monchengladbach, Germany",,german_fires_monchengladbach_locations,6cffbbce8bbce161760d2b6b4b2a1bcf,german_fires_monchengladbach_locations__0cb0d57d2ef8dfa571668d014dd6b7e8
alsstrasse,"Alsstrasse in Monchengladbach, Germany",51.2067686,6.4555302,1,,,,Organization,"Alsstrasse in Monchengladbach, Germany",,german_fires_monchengladbach_locations,baa1639a38b75ae7b5cf8591aa7f079d,german_fires_monchengladbach_locations__b121852a0495a73b2123934ede7fd560
huttendyk,"Huttendyk in Monchengladbach, Germany",51.2275204,6.444986,1,,,,Keyphrase,"Huttendyk in Monchengladbach, Germany",,german_fires_monchengladbach_locations,ac4351943fbbfbe7837421e6b0b7ce75,german_fires_monchengladbach_locations__fb7158b6d658417a4263031126c73cdc
labbstrasse,"Labbstrasse in Monchengladbach, Germany",51.2039295,6.3340371,1,,,,Pipeline,"Labbstrasse in Monchengladbach, Germany",,german_fires_monchengladbach_locations,78779be9e894f52db0977f8fd6872e3a,german_fires_monchengladbach_locations__cf5e38db1bcb8a37a0c80bea1d402c53
dahlener strasse,"Dahlener Strasse in Monchengladbach, Germany",51.1621588,6.4206026,1,,,,IndustryTerm,"Dahlener Strasse in Monchengladbach, Germany",,german_fires_monchengladbach_locations,52caf2398a3ae31dbee9a5e95e4501a2,german_fires_monchengladbach_locations__98887b324aa755571ee65d8a7bf8ea0b
odenkirchener strasse,"Odenkirchener Strasse in Monchengladbach, Germany",51.1583502,6.4470005,1,,,,space,"Odenkirchener Strasse in Monchengladbach, Germany",,german_fires_monchengladbach_locations,61bd37488b4dae9e72585b30882959a7,german_fires_monchengladbach_locations__6ddcd3d6db513cbd6131b89e4b798169
broichhausenstrasse,"Broichhausenstrasse in Monchengladbach, Germany",51.1317704,6.4154025,1,,,,Organization,"Broichhausenstrasse in Monchengladbach, Germany",,german_fires_monchengladbach_locations,5fd085e5bd72ea044525227ef314dc9d,german_fires_monchengladbach_locations__05d8c77eb57c715b6f5727107c807ce6
hochstadenstrasse,"Hochstadenstrasse in Monchengladbach, Germany",51.1314884,6.4188234,1,,,,Organization,"Hochstadenstrasse in Monchengladbach, Germany",,german_fires_monchengladbach_locations,03e9b2f00e08fada5577c9f13a0af457,german_fires_monchengladbach_locations__007aa5f8d844fc248e2a12fb362ed4b9
bahnstrasse,"Bahnstrasse in Monchengladbach, Germany",51.1832605,6.4143528,1,,,,Legislator,"Bahnstrasse in Monchengladbach, Germany",,german_fires_monchengladbach_locations,bf4fceb500da2e75bb8066b24e41720f,german_fires_monchengladbach_locations__6516e5fc765a2a863988b6d8ec974fec
corresburger weg,"Corresburger Weg in Monchengladbach, Germany",51.1544204,6.5152366,1,,,,IndustryTerm,"Corresburger Weg in Monchengladbach, Germany",,german_fires_monchengladbach_locations,57ce1b0c5b1633507536a143dd0d7d06,german_fires_monchengladbach_locations__7637007682d7fd74125b23f33edc198b
theodor-storm-strasse,"Theodor-Storm-Strasse in Monchengladbach, Germany",51.1543088,6.4835452,1,,,,Wells,"Theodor-Storm-Strasse in Monchengladbach, Germany",,german_fires_monchengladbach_locations,b2d6982a549c10c7ec4d164e503ac8f2,german_fires_monchengladbach_locations__fc23ad99a32ee15dc469b1d37e09d40f
kamphausener hohe,"Kamphausener Hohe in Monchengladbach, Germany",51.1360157,6.4593858,1,,,,Keyphrase,"Kamphausener Hohe in Monchengladbach, Germany",,german_fires_monchengladbach_locations,884b8ce19090216685d6ec8f6181f6a8,german_fires_monchengladbach_locations__155a3085c967e02e93e30aba026ff128
dammer strasse,"Dammer Strasse in Monchengladbach, Germany",51.2227719,6.4759467,1,,,,Refinery,"Dammer Strasse in Monchengladbach, Germany",,german_fires_monchengladbach_locations,f8f1dd6d986e944d7c413997431d2c30,german_fires_monchengladbach_locations__7cc71b0ae01c74595d280fe2f354bf5c
pescher strasse,"Pescher Strasse in Monchengladbach, Germany",51.1939161,6.453138,1,,,,ForeignMinistry,"Pescher Strasse in Monchengladbach, Germany",,german_fires_monchengladbach_locations,a6cf378aa11e9f3aa840fa8b966208e9,german_fires_monchengladbach_locations__469d837763cd85138a2eb44734e0caec
ritterstrasse,"Ritterstrasse in Monchengladbach, Germany",51.1806102,6.4724004,1,,,,Refinery,"Ritterstrasse in Monchengladbach, Germany",,german_fires_monchengladbach_locations,82d4c2cc03e95bae4989bd641b7e5260,german_fires_monchengladbach_locations__0623335cca44042637dae652916331c1
baueshutte,"Baueshutte in Monchengladbach, Germany",51.1632703,6.4955557,1,,,,DiplomaticFacilities,"Baueshutte in Monchengladbach, Germany",,german_fires_monchengladbach_locations,d823fe62e5774d34520d2fc93105679a,german_fires_monchengladbach_locations__2fd9e218c7f5c3e861f6a352bcd6ccb2
in der bungt,"In der Bungt in Monchengladbach, Germany",51.19221,6.4716952,1,,,,Legislator,"In der Bungt in Monchengladbach, Germany",,german_fires_monchengladbach_locations,7c4815ebf36e647bf806152c9ede71d6,german_fires_monchengladbach_locations__402b6233977c515de2c0e0729bb9471f
theodor-trippel-strasse,"Theodor-Trippel-Strasse in Monchengladbach, Germany",51.123706,6.3949201,1,,,,LegislativeCommittee,"Theodor-Trippel-Strasse in Monchengladbach, Germany",,german_fires_monchengladbach_locations,dc9fcf30e4691ff5168cd825c243318f,german_fires_monchengladbach_locations__88054c8f74a80d4b71f2073bfed27494
geistenbecker strasse,"Geistenbecker Strasse in Monchengladbach, Germany",51.1483195,6.4436341,1,,,,LegislativeCommittee,"Geistenbecker Strasse in Monchengladbach, Germany",,german_fires_monchengladbach_locations,ebb1caf53b88d0c4fc144da472e98968,german_fires_monchengladbach_locations__f531fba7748bbe0e1507c15a848692b3
ronneterheide,"Ronneterheide in Monchengladbach, Germany",51.1928691,6.3993646,1,,,,Organization,"Ronneterheide in Monchengladbach, Germany",,german_fires_monchengladbach_locations,4d933f504eae6d59eb1cfa1e3a17ef09,german_fires_monchengladbach_locations__29087281d407169bd3528f5a24c0799d
luisental,"Luisental in Monchengladbach, Germany",51.1461157,6.4462102,1,,,,News,"Luisental in Monchengladbach, Germany",,german_fires_monchengladbach_locations,107028acbeda05405f5a880b1ef528a3,german_fires_monchengladbach_locations__fe21f29d956ca258349ac4bbdf7fb9fa
gotzweg,"Gotzweg in Monchengladbach, Germany",51.1517758,6.4427638,1,,,,ForeignMinistry,"Gotzweg in Monchengladbach, Germany",,german_fires_monchengladbach_locations,74b40e4728a6b6b50e45e210cd26c86b,german_fires_monchengladbach_locations__5d511c444f524a2bc3ff53e537ba48ef
tomper feld,"Tomper Feld in Monchengladbach, Germany",51.2086335,6.3367998,1,,,,Keyphrase,"Tomper Feld in Monchengladbach, Germany",,german_fires_monchengladbach_locations,66ecb3799ac8162d7390cdb796ce4ce8,german_fires_monchengladbach_locations__8a78905ebc8069a3fb703ec809a76302
an den fichten,"An den Fichten in Monchengladbach, Germany",51.1383245,6.4429289,1,,,,Pipeline,"An den Fichten in Monchengladbach, Germany",,german_fires_monchengladbach_locations,55c18463b11768196c2949c7df645c7d,german_fires_monchengladbach_locations__eff17de14e6149aad5ae027fc56867e6
johannes-brockers-strasse,"Johannes-Brockers-Strasse in Monchengladbach, Germany",51.2224796,6.4454771,1,,,,DiplomaticFacilities,"Johannes-Brockers-Strasse in Monchengladbach, Germany",,german_fires_monchengladbach_locations,225ae8eac0f3bf8f27a9fe7ffedb7a7e,german_fires_monchengladbach_locations__8c9fdd22ffc4512838f8f87af5fa664f
viersener strasse,"Viersener Strasse in Monchengladbach, Germany",51.2069401,6.4242906,1,,,,LegislativeCommittee,"Viersener Strasse in Monchengladbach, Germany",,german_fires_monchengladbach_locations,624967627410c35b31e530869ef1d489,german_fires_monchengladbach_locations__bb341ca0cbb6a985c4d9c6a703a15faa
wanloer strasse,"Wanloer Strasse in Monchengladbach, Germany",51.1080278,6.3842146,1,,,,FTO,"Wanloer Strasse in Monchengladbach, Germany",,german_fires_monchengladbach_locations,12c8bf4a19d507d805a2d192bcb427c3,german_fires_monchengladbach_locations__eceaa7ff516cc45f5a320f55c9bc7088
mittelstrasse,"Mittelstrasse in Monchengladbach, Germany",51.1626237,6.4385617,1,,,,DiplomaticFacilities,"Mittelstrasse in Monchengladbach, Germany",,german_fires_monchengladbach_locations,f87570bd15959583d68696ababefe949,german_fires_monchengladbach_locations__4bbb7a3e52705064dcfdf6fa355a19de
hehnerholt,"Hehnerholt in Monchengladbach, Germany",51.1848033,6.4006233,1,,,,Media,"Hehnerholt in Monchengladbach, Germany",,german_fires_monchengladbach_locations,e50d25463987547113a82dd1890a1d11,german_fires_monchengladbach_locations__48e19ebe2aa9db8968453c68d914dc28
dominikus-vraetz-strasse,"Dominikus-Vraetz-Strasse in Monchengladbach, Germany",51.1581479,6.4902518,1,,,,Diplomat,"Dominikus-Vraetz-Strasse in Monchengladbach, Germany",,german_fires_monchengladbach_locations,c7a232916af273314f5232381629a6de,german_fires_monchengladbach_locations__97dc2e654837b04879f1e44adc60ceb9
schurenweg,"Schurenweg in Monchengladbach, Germany",51.208906,6.4348713,1,,,,FTO,"Schurenweg in Monchengladbach, Germany",,german_fires_monchengladbach_locations,5d69262dee4456873ca276588097055d,german_fires_monchengladbach_locations__552f13aee243e9bd08d95ff46efb6f03
susanne-beckers-weg,"Susanne-Beckers-Weg in Monchengladbach, Germany",51.1677088,6.3874367,1,,,,Media,"Susanne-Beckers-Weg in Monchengladbach, Germany",,german_fires_monchengladbach_locations,0acc10f77d07d3c9dfe032184a1c72c5,german_fires_monchengladbach_locations__9818e36afa32bf8939d2f1cf18519b86
kleinenbroicher strasse,"Kleinenbroicher Strasse in Monchengladbach, Germany",51.1576926,6.4918811,1,,,,Exec,"Kleinenbroicher Strasse in Monchengladbach, Germany",,german_fires_monchengladbach_locations,96c09792b11aafc1d10b2f9a9835ceab,german_fires_monchengladbach_locations__afab499fc8b584d0df623bdc7e94fc48
stakelberg,"Stakelberg in Monchengladbach, Germany",51.2095401,6.4268788,1,,,,Diplomat,"Stakelberg in Monchengladbach, Germany",,german_fires_monchengladbach_locations,0025e8cd569c36732e2256257af6b349,german_fires_monchengladbach_locations__dc8b108a8effff1d70ac1b6fce5232c8
mutter-ey-strasse,"Mutter-Ey-Strasse in Monchengladbach, Germany",51.1328986,6.4021587,1,,,,Pipeline,"Mutter-Ey-Strasse in Monchengladbach, Germany",,german_fires_monchengladbach_locations,a6d97298af375af2bcded3d810bc0b12,german_fires_monchengladbach_locations__09a7aefac3e3c225d7333e5132a07413
sandkaule,"Sandkaule in Monchengladbach, Germany",51.2121579,6.4434983,1,,,,AAEntity,"Sandkaule in Monchengladbach, Germany",,german_fires_monchengladbach_locations,e1c91200c4f584d0fbc1240c4f692717,german_fires_monchengladbach_locations__9d9079c38f32da159e95b7a79c9d9e90
elisabeth-selbert-weg,"Elisabeth-Selbert-Weg in Monchengladbach, Germany",51.2050097,6.4588827,1,,,,IndustryTerm,"Elisabeth-Selbert-Weg in Monchengladbach, Germany",,german_fires_monchengladbach_locations,f2efadcf738959e5b1b60ff39975b528,german_fires_monchengladbach_locations__719b9966962c59a45a1bd419c9326fd9
oststrasse,"Oststrasse in Monchengladbach, Germany",51.1894834,6.4476381,1,,,,LegislativeCommittee,"Oststrasse in Monchengladbach, Germany",,german_fires_monchengladbach_locations,17645a95e0217258ddbf0961f53ef687,german_fires_monchengladbach_locations__d9b21267d513b92b08cf72d828125cac
lurriper strasse,"Lurriper Strasse in Monchengladbach, Germany",51.1995111,6.459018,1,,,,News,"Lurriper Strasse in Monchengladbach, Germany",,german_fires_monchengladbach_locations,a771f35c44939b0ace7ebde09079284c,german_fires_monchengladbach_locations__dff9ed904e0128e368ad832c229ae792
antonie-boetzelen-ring,"Antonie-Boetzelen-Ring in Monchengladbach, Germany",51.1662356,6.3885204,1,,,,Consulates,"Antonie-Boetzelen-Ring in Monchengladbach, Germany",,german_fires_monchengladbach_locations,b93c1be46875bdce5a2101af33f5e15d,german_fires_monchengladbach_locations__4992482fb4b5dce18a0dad26a7601550
leibnizstrasse,"Leibnizstrasse in Monchengladbach, Germany",51.1893259,6.4267243,1,,,,Exec,"Leibnizstrasse in Monchengladbach, Germany",,german_fires_monchengladbach_locations,4f62c86b452252eac49909e2b4c2e78d,german_fires_monchengladbach_locations__0a0e8e89a0eb1c900e871e3d1298a1ee
kaldenkirchener strasse,"Kaldenkirchener Strasse in Monchengladbach, Germany",51.2136889,6.4338582,1,,,,Legislator,"Kaldenkirchener Strasse in Monchengladbach, Germany",,german_fires_monchengladbach_locations,013581ccbad334105b72211efa7ef94a,german_fires_monchengladbach_locations__cb2d5744a4d83b663504bda2ec42bc75
mulgaustrasse,"Mulgaustrasse in Monchengladbach, Germany",51.1446916,6.4564685,1,,,,Keyphrase,"Mulgaustrasse in Monchengladbach, Germany",,german_fires_monchengladbach_locations,fa49adc7791be5b0783510e4975423f5,german_fires_monchengladbach_locations__629a759b23ffb9e2220f4ec64203067a
rheydter strasse,"Rheydter Strasse in Monchengladbach, Germany",51.1820919,6.4402886,1,,,,Keyphrase,"Rheydter Strasse in Monchengladbach, Germany",,german_fires_monchengladbach_locations,6e3460fb0333fec9a67d8410e4380742,german_fires_monchengladbach_locations__7135c545e74f8c91f28b2090bf9f3a9c
trompeterallee,"Trompeterallee in Monchengladbach, Germany",51.1392221,6.4101959,1,,,,Keyphrase,"Trompeterallee in Monchengladbach, Germany",,german_fires_monchengladbach_locations,45c3fbe10978c7ecaf48d39a0995292c,german_fires_monchengladbach_locations__44e858a5e90037f1b104469fba8af0eb
sasserather feld,"Sasserather Feld in Monchengladbach, Germany",51.1233201,6.4616425,1,,,,News,"Sasserather Feld in Monchengladbach, Germany",,german_fires_monchengladbach_locations,ee6c99661f5104112acc092542a01840,german_fires_monchengladbach_locations__b3e1d969f9095fbfa0a1f364aae9df96
geneickener strasse,"Geneickener Strasse in Monchengladbach, Germany",51.1747647,6.4688918,1,,,,Wells,"Geneickener Strasse in Monchengladbach, Germany",,german_fires_monchengladbach_locations,20914d69f15a0425dd72cf508a8d45f7,german_fires_monchengladbach_locations__0f02eac9a5edfa46d724d4f42728876d
rasseln,"Rasseln in Monchengladbach, Germany",51.2191076,6.3641512,1,,,,DiplomaticFacilities,"Rasseln in Monchengladbach, Germany",,german_fires_monchengladbach_locations,b05aebed3716074e2c4e241bf6d40b9f,german_fires_monchengladbach_locations__408c33e595e527e0d910fe957ff01842
hermann-noell-strasse,"Hermann-Noell-Strasse in Monchengladbach, Germany",51.1241729,6.3887452,1,,,,IndustryTerm,"Hermann-Noell-Strasse in Monchengladbach, Germany",,german_fires_monchengladbach_locations,d39b1d5844f06a9898c4f7444106c567,german_fires_monchengladbach_locations__cc26c3ba3868b438609feed9a09fb841
stiegerfeldstrasse,"Stiegerfeldstrasse in Monchengladbach, Germany",51.1851718,6.4617774,1,,,,Exec,"Stiegerfeldstrasse in Monchengladbach, Germany",,german_fires_monchengladbach_locations,1fff3347324c63876d26ce9b58dba5ec,german_fires_monchengladbach_locations__ecfe85a54801a375199556fbd767c7df
eichendorffweg,"Eichendorffweg in Monchengladbach, Germany",51.1391691,6.4038102,1,,,,Diplomat,"Eichendorffweg in Monchengladbach, Germany",,german_fires_monchengladbach_locations,82e162bacae386bbade082dd54c2a729,german_fires_monchengladbach_locations__fe6b737513509d5dd1dd1bd45847d735
holter kreuz,"Holter Kreuz in Monchengladbach, Germany",51.1850785,6.3972211,1,,,,LegislativeCommittee,"Holter Kreuz in Monchengladbach, Germany",,german_fires_monchengladbach_locations,0487d4c19910d0400a7977a5d8f39dee,german_fires_monchengladbach_locations__48bf5dc2f28c7f89bfcd317c7491c9e8
charlottenstrasse,"Charlottenstrasse in Monchengladbach, Germany",51.1926826,6.4548725,1,,,,Consulates,"Charlottenstrasse in Monchengladbach, Germany",,german_fires_monchengladbach_locations,32bf2aa7df4861169666612e4a950a9f,german_fires_monchengladbach_locations__eddaa52c84a6162490183a27382e61cf
schroffstrasse,"Schroffstrasse in Monchengladbach, Germany",51.1465702,6.4356977,1,,,,FTO,"Schroffstrasse in Monchengladbach, Germany",,german_fires_monchengladbach_locations,4de1beab5aa002e7bb39116f0e0e5ef6,german_fires_monchengladbach_locations__8d15e1de97dda0e71edcc07ed64e8634
am kirschbaum,"Am Kirschbaum in Monchengladbach, Germany",51.1961795,6.3436222,1,,,,LegislativeCommittee,"Am Kirschbaum in Monchengladbach, Germany",,german_fires_monchengladbach_locations,c66669ea0d0692235b9c9a055235846b,german_fires_monchengladbach_locations__74580792ad637b2985b71ccbd5f815ff
hardterbroicher strasse,"Hardterbroicher Strasse in Monchengladbach, Germany",51.1876546,6.4620013,1,,,,Person,"Hardterbroicher Strasse in Monchengladbach, Germany",,german_fires_monchengladbach_locations,b86e8e2c3e409457adb6e5ec656a5249,german_fires_monchengladbach_locations__8b0e0cd46a4fece247c512a0c45c829a
gladbacher strasse,"Gladbacher Strasse in Monchengladbach, Germany",51.1627026,6.3755835,1,,,,space,"Gladbacher Strasse in Monchengladbach, Germany",,german_fires_monchengladbach_locations,50d60d4cd3395b589aff453043559337,german_fires_monchengladbach_locations__3289468d40e97c639edf15fe25b7a8e8
kloetersgasse,"Kloetersgasse in Monchengladbach, Germany",51.1676282,6.4396173,1,,,,Diplomat,"Kloetersgasse in Monchengladbach, Germany",,german_fires_monchengladbach_locations,16fd785eb6fab6d60308e9736475cb22,german_fires_monchengladbach_locations__1a492180b1654c9e91b88c98eff2b4bc
kurt-jacobi-strasse,"Kurt-Jacobi-Strasse in Monchengladbach, Germany",51.1330044,6.4044595,1,,,,IndustryTerm,"Kurt-Jacobi-Strasse in Monchengladbach, Germany",,german_fires_monchengladbach_locations,ccb385ae70c4a151dc8219d8e69affb9,german_fires_monchengladbach_locations__d0801ab3a3e5c8f3b0b5d49348cb4a28
nachtigallenweg,"Nachtigallenweg in Monchengladbach, Germany",51.1996561,6.4858397,1,,,,Wells,"Nachtigallenweg in Monchengladbach, Germany",,german_fires_monchengladbach_locations,1bc5ca609a7f50ff101fbfbe2674873d,german_fires_monchengladbach_locations__e1f62eb2295b7ff73658378ff2d34b6f
mowenweg,"Mowenweg in Monchengladbach, Germany",51.1546389,6.4138192,1,,,,Exec,"Mowenweg in Monchengladbach, Germany",,german_fires_monchengladbach_locations,64883c625426df9a5f2de5e16949d6ba,german_fires_monchengladbach_locations__08d66ad82ee6ec6716ddcf0fdb44c003
helmut-freuen-ring,"Helmut-Freuen-Ring in Monchengladbach, Germany",51.1748624,6.4349691,1,,,,News,"Helmut-Freuen-Ring in Monchengladbach, Germany",,german_fires_monchengladbach_locations,4894c19c863b4180514fb0a5005b2501,german_fires_monchengladbach_locations__2e618f1fedaa1412008ceb99952baaaa
iltisweg,"Iltisweg in Monchengladbach, Germany",51.1697302,6.4286037,1,,,,Organization,"Iltisweg in Monchengladbach, Germany",,german_fires_monchengladbach_locations,30f67d5e8346255a84a67cfd00aa7157,german_fires_monchengladbach_locations__e56685eeaea5bd03c52c111cb7274403
braunsstrasse,"Braunsstrasse in Monchengladbach, Germany",51.2065999,6.4069576,1,,,,Refinery,"Braunsstrasse in Monchengladbach, Germany",,german_fires_monchengladbach_locations,0a107229d2eb562f729b8d3e03a676cb,german_fires_monchengladbach_locations__c7a3a04a72b6cd7df52e3fd005d3487b
sasserath,"Sasserath in Monchengladbach, Germany",51.1216219,6.4619544,1,,,,AAEntity,"Sasserath in Monchengladbach, Germany",,german_fires_monchengladbach_locations,7b2d6500e8ee88e6dc1dd960ad08f9fa,german_fires_monchengladbach_locations__cf08f06f791450846f5811c5b5b66241
grossheide,"Grossheide in Monchengladbach, Germany",51.21294,6.417276,1,,,,Organization,"Grossheide in Monchengladbach, Germany",,german_fires_monchengladbach_locations,013dd2d42de6cd473e5a95345d64e030,german_fires_monchengladbach_locations__558f710e5f514eddc7855b5a87b66c66
bleckhutter weg,"Bleckhutter Weg in Monchengladbach, Germany",51.2223868,6.4568226,1,,,,Organization,"Bleckhutter Weg in Monchengladbach, Germany",,german_fires_monchengladbach_locations,183b3a2ed221a9872c4a844b8a29ea6d,german_fires_monchengladbach_locations__f8e35045ffca2023330c3078556b1cfe
konstantinstrasse,"Konstantinstrasse in Monchengladbach, Germany",51.1563669,6.4907686,1,,,,Diplomat,"Konstantinstrasse in Monchengladbach, Germany",,german_fires_monchengladbach_locations,97944cddcd744b1633492cc43f1464d6,german_fires_monchengladbach_locations__3ced78400779592f9ae41e1f99ee45ac
ronneterkamp,"Ronneterkamp in Monchengladbach, Germany",51.1921473,6.3988728,1,,,,ForeignMinister,"Ronneterkamp in Monchengladbach, Germany",,german_fires_monchengladbach_locations,dddb66f8a21e47083d9df0627a32771b,german_fires_monchengladbach_locations__30290d007fb942580057cd42b136c7af
mennrath,"Mennrath in Monchengladbach, Germany",51.1383362,6.3830219,1,,,,space,"Mennrath in Monchengladbach, Germany",,german_fires_monchengladbach_locations,002ed86d86e7b85b90b81c96313284e4,german_fires_monchengladbach_locations__62cca1ac0a9aefe64c87018dcfcfbfd1
mulforter zeug,"Mulforter Zeug in Monchengladbach, Germany",51.1439991,6.449302,1,,,,space,"Mulforter Zeug in Monchengladbach, Germany",,german_fires_monchengladbach_locations,8d745012edd97fcf231e1c41f5214a48,german_fires_monchengladbach_locations__d591afa3cb979a4ac0b0c94be2b11e48
gasthausstrasse,"Gasthausstrasse in Monchengladbach, Germany",51.1939302,6.4286897,1,,,,Legislator,"Gasthausstrasse in Monchengladbach, Germany",,german_fires_monchengladbach_locations,9d54f63075533e4343ab80fce25f5307,german_fires_monchengladbach_locations__0fe676e4daea8e5b35db97d4a3f85c50
laurentiusplatz,"Laurentiusplatz in Monchengladbach, Germany",51.1325222,6.4506928,1,,,,AAEntity,"Laurentiusplatz in Monchengladbach, Germany",,german_fires_monchengladbach_locations,229f9c7ec8ddf99b988c762a2d296076,german_fires_monchengladbach_locations__e6cc0b06f691799a4fa90b0b363bef4c
erzbergerstrasse,"Erzbergerstrasse in Monchengladbach, Germany",51.190697,6.4490068,1,,,,CompanyKeyword,"Erzbergerstrasse in Monchengladbach, Germany",,german_fires_monchengladbach_locations,9355e54458c11f2c482b3a482de7155c,german_fires_monchengladbach_locations__0c1467e2a2e03a75c38937b68e3fa69d
ginsterweg,"Ginsterweg in Monchengladbach, Germany",51.1943379,6.3483427,1,,,,ForeignMinister,"Ginsterweg in Monchengladbach, Germany",,german_fires_monchengladbach_locations,f51fa89351e3b3b2f2913575523e8871,german_fires_monchengladbach_locations__a0d1594a6e06cbf6884b084c49e2ec41
gerberstrasse,"Gerberstrasse in Monchengladbach, Germany",51.1458468,6.4433304,1,,,,Wells,"Gerberstrasse in Monchengladbach, Germany",,german_fires_monchengladbach_locations,9d5b57c178bf03d70617702e18c5bfcb,german_fires_monchengladbach_locations__c4282cf61030fa0b0c6e6c14001d5716
kohrstrasse,"Kohrstrasse in Monchengladbach, Germany",51.1446258,6.4443311,1,,,,ForeignMinistry,"Kohrstrasse in Monchengladbach, Germany",,german_fires_monchengladbach_locations,e5c9ba699f42a1003038ea1ac4357324,german_fires_monchengladbach_locations__105114127504f639504af8da396e0272
sponnradsweg,"Sponnradsweg in Monchengladbach, Germany",51.2051165,6.3445718,1,,,,Diplomat,"Sponnradsweg in Monchengladbach, Germany",,german_fires_monchengladbach_locations,89c07ae1be211401ffdfb46dc77d0af2,german_fires_monchengladbach_locations__04a26be93dddb3bc6daa2ed2673bc3f3
fockestrasse,"Fockestrasse in Monchengladbach, Germany",51.1833459,6.4032383,1,,,,Legislator,"Fockestrasse in Monchengladbach, Germany",,german_fires_monchengladbach_locations,2792beb93fc9362a68bc5832db4abba8,german_fires_monchengladbach_locations__643f26ad7db64ae8f67bb1bc9172f018
schrieversberg,"Schrieversberg in Monchengladbach, Germany",51.168103,6.4307103,1,,,,AAEntity,"Schrieversberg in Monchengladbach, Germany",,german_fires_monchengladbach_locations,0a55a2469454fbabfc8b39378077cf20,german_fires_monchengladbach_locations__f93e89711d1ad95192de0946304c7bd8
oberlinstrasse,"Oberlinstrasse in Monchengladbach, Germany",51.1694049,6.4302023,1,,,,AAEntity,"Oberlinstrasse in Monchengladbach, Germany",,german_fires_monchengladbach_locations,70603bccb752779bcc002f790b7c1f89,german_fires_monchengladbach_locations__689be452068cc08f4885f22d21d72de5
wilhelm-strater-strasse,"Wilhelm-Strater-Strasse in Monchengladbach, Germany",51.1699786,6.4418449,1,,,,ForeignMinister,"Wilhelm-Strater-Strasse in Monchengladbach, Germany",,german_fires_monchengladbach_locations,124845f6d5fbaa8851f7fe5c3088a650,german_fires_monchengladbach_locations__588436c3cc68983805fe850b58ec8023
ortshof,"Ortshof in Monchengladbach, Germany",51.2190651,6.4544445,1,,,,Diplomat,"Ortshof in Monchengladbach, Germany",,german_fires_monchengladbach_locations,21f2c18899ce1745902a523492d10961,german_fires_monchengladbach_locations__fff3ff70c5046d738450696aacc22747
ehlerstrasse,"Ehlerstrasse in Monchengladbach, Germany",51.2181827,6.4728509,1,,,,LegislativeCommittee,"Ehlerstrasse in Monchengladbach, Germany",,german_fires_monchengladbach_locations,25296545bb4dcf623e1cfe04b3e2ada4,german_fires_monchengladbach_locations__135722c41ed6db7da49e36836aed8397
merowingerstrasse,"Merowingerstrasse in Monchengladbach, Germany",51.1765754,6.469674,1,,,,Shipping,"Merowingerstrasse in Monchengladbach, Germany",,german_fires_monchengladbach_locations,8219e85a90ef44ea8bc4295bf8d3c3e9,german_fires_monchengladbach_locations__41d808242a4bef0ca54b63e95c21e493
wolfsittard,"Wolfsittard in Monchengladbach, Germany",51.1747858,6.3725418,1,,,,Refinery,"Wolfsittard in Monchengladbach, Germany",,german_fires_monchengladbach_locations,ea41c88a043396bf00c6c51b1e4481dd,german_fires_monchengladbach_locations__4298c190bb0517bf4bd2f03439088f4d
kuhlenweg,"Kuhlenweg in Monchengladbach, Germany",51.1546239,6.4393232,1,,,,ForeignMinister,"Kuhlenweg in Monchengladbach, Germany",,german_fires_monchengladbach_locations,ac920d8908affd90dcc8a1d4f3fc0e01,german_fires_monchengladbach_locations__657d416880b0dd595a5eaae8bff10163
grevenbroicher strasse,"Grevenbroicher Strasse in Monchengladbach, Germany",51.1851192,6.4562058,1,,,,CompanyKeyword,"Grevenbroicher Strasse in Monchengladbach, Germany",,german_fires_monchengladbach_locations,adc422059004f5cafa1149e30c617dba,german_fires_monchengladbach_locations__da9a6e242924b3d9e731c417ef7adb6e
metzenweg,"Metzenweg in Monchengladbach, Germany",51.2003502,6.4148344,1,,,,Person,"Metzenweg in Monchengladbach, Germany",,german_fires_monchengladbach_locations,cd2b712df15dd29365eec975dca2add8,german_fires_monchengladbach_locations__b14e64bd476e4177f014d60bd8932df2
herrather weg,"Herrather Weg in Monchengladbach, Germany",51.1047123,6.3727813,1,,,,AAEntity,"Herrather Weg in Monchengladbach, Germany",,german_fires_monchengladbach_locations,064f10012c01822bb56da3d46fbb72e4,german_fires_monchengladbach_locations__37e15ac9522bcedd57b43e30a859840b
ronneter,"Ronneter in Monchengladbach, Germany",51.1932696,6.3989004,1,,,,FTO,"Ronneter in Monchengladbach, Germany",,german_fires_monchengladbach_locations,7fca309c2b728e8abfd98e50ebce6b45,german_fires_monchengladbach_locations__38c93825825d46d907605dd3eb3bf8fa
hardter strasse,"Hardter Strasse in Monchengladbach, Germany",51.1644666,6.3464862,1,,,,Organization,"Hardter Strasse in Monchengladbach, Germany",,german_fires_monchengladbach_locations,191e94ac9dc11bd97a9fa990714e3353,german_fires_monchengladbach_locations__54d6e895bc233718726567f11b3a08e8
am wickrather tor,"Am Wickrather Tor in Monchengladbach, Germany",51.1470277,6.3648031,1,,,,space,"Am Wickrather Tor in Monchengladbach, Germany",,german_fires_monchengladbach_locations,7168ac5aa4a1b7222f923d68d7fb2421,german_fires_monchengladbach_locations__774b3968be2685432eee626ab977d82b
neuhofstrasse,"Neuhofstrasse in Monchengladbach, Germany",51.2035952,6.4432785,1,,,,Refinery,"Neuhofstrasse in Monchengladbach, Germany",,german_fires_monchengladbach_locations,76f954ce9865f5342e66521840b7b1d2,german_fires_monchengladbach_locations__012d510bae2b899fc89dbbfe27405f69
schwogenstrasse,"Schwogenstrasse in Monchengladbach, Germany",51.205701,6.4402933,1,,,,Refinery,"Schwogenstrasse in Monchengladbach, Germany",,german_fires_monchengladbach_locations,c39a0501bd8e2016c0c538e39f447482,german_fires_monchengladbach_locations__2528c103b0ce2902be9361ea109a7d43
an der siep,"An der Siep in Monchengladbach, Germany",51.1632045,6.4830664,1,,,,Legislator,"An der Siep in Monchengladbach, Germany",,german_fires_monchengladbach_locations,f82f25954a8f85f97291feaae72778a6,german_fires_monchengladbach_locations__7d78da825677155b92cc2fbd45ae6850
loosenweg,"Loosenweg in Monchengladbach, Germany",51.2200444,6.4657069,1,,,,Shipping,"Loosenweg in Monchengladbach, Germany",,german_fires_monchengladbach_locations,be57bd90535b1609297015b2c7174fc9,german_fires_monchengladbach_locations__f7cb203a1ff6189eeb2b9f28cb6c0218
gingterkamp,"Gingterkamp in Monchengladbach, Germany",51.1719702,6.3993961,1,,,,ForeignMinister,"Gingterkamp in Monchengladbach, Germany",,german_fires_monchengladbach_locations,0528f0d3fb3ff2c74a0d26b7167895dc,german_fires_monchengladbach_locations__c21ad3fd8612dbeaa237fcc16f1d9242
alfons-schulz-strasse,"Alfons-Schulz-Strasse in Monchengladbach, Germany",51.2220654,6.450267,1,,,,News,"Alfons-Schulz-Strasse in Monchengladbach, Germany",,german_fires_monchengladbach_locations,38e071c8a6ae482ed49d572c10a39471,german_fires_monchengladbach_locations__796ebd8ad52eb2c5ac1cbc51c2b386a9
