german_text,caption_text,lat,lon,ranking,default location,default_lat,default_lon,.1,.2,.3,.4,ENTITY_LABEL,name,description,source,source_identifier,global_identifier
aachener strasse,"Aachener Strasse in Berlin, Germany",52.4814493,13.3189377,1,"Berlin, Germany",52.52096863,13.4034395,,,,,Person,"Aachener Strasse in Berlin, Germany",,german_fires_berlin_locations,cace6c8f30182ec7db0f8af4d97d3453,german_fires_berlin_locations__cace6c8f30182ec7db0f8af4d97d3453
aalemannufer,"Aalemannufer in Berlin, Germany",52.5731282,13.2186147,1,,,,,,,ss,ForeignMinister,"Aalemannufer in Berlin, Germany",,german_fires_berlin_locations,c8e65197b99676429081f8fadadeca64,german_fires_berlin_locations__c8e65197b99676429081f8fadadeca64
aalesunder strasse,"Aalesunder Strasse in Berlin, Germany",52.5554941,13.4077031,1,,,,,,,u,space,"Aalesunder Strasse in Berlin, Germany",,german_fires_berlin_locations,090c5a4fd738aa2b8efabee7829b3dd1,german_fires_berlin_locations__090c5a4fd738aa2b8efabee7829b3dd1
aalstieg,"Aalstieg in Berlin, Germany",52.4353359,13.6908451,1,,,,,,,a,ForeignMinister,"Aalstieg in Berlin, Germany",,german_fires_berlin_locations,8407d13445844d00dc274553604177c3,german_fires_berlin_locations__8407d13445844d00dc274553604177c3
aarauer strasse,"Aarauer Strasse in Berlin, Germany",52.4258362,13.2903645,1,,,,,,,o,Exec,"Aarauer Strasse in Berlin, Germany",,german_fires_berlin_locations,586e3fe1ab0c84642647b04b9bd67c7f,german_fires_berlin_locations__586e3fe1ab0c84642647b04b9bd67c7f
aarberger strasse,"Aarberger Strasse in Berlin, Germany",52.4254044,13.3008282,1,,,,,,,,AAEntity,"Aarberger Strasse in Berlin, Germany",,german_fires_berlin_locations,3621de769294c5ce2388e375d9b8dd22,german_fires_berlin_locations__3621de769294c5ce2388e375d9b8dd22
aaron-bernstein-platz,"Aaron-Bernstein-Platz in Berlin, Germany",52.5096488,13.3759441,1,,,,,,,,Pipeline,"Aaron-Bernstein-Platz in Berlin, Germany",,german_fires_berlin_locations,de2266990aa51c35d6793f664928ca1c,german_fires_berlin_locations__de2266990aa51c35d6793f664928ca1c
abajstrasse,"Abajstrasse in Berlin, Germany",52.5903316,13.3918658,1,,,,,,,,IndustryTerm,"Abajstrasse in Berlin, Germany",,german_fires_berlin_locations,5129f5359072bff0fcbc0b307a2813c9,german_fires_berlin_locations__5129f5359072bff0fcbc0b307a2813c9
abbé-lemire-weg,"Abbé-Lemire-Weg in Berlin, Germany",52.5200066,13.404954,1,,,,,,,,space,"Abbé-Lemire-Weg in Berlin, Germany",,german_fires_berlin_locations,9cb5df77a64b42642e5fd810768676c6,german_fires_berlin_locations__9cb5df77a64b42642e5fd810768676c6
abbestrasse,"Abbestrasse in Berlin, Germany",52.5167095,13.321157,1,,,,,,,,Consulates,"Abbestrasse in Berlin, Germany",,german_fires_berlin_locations,e51730dc026eb136ed42196a49eae911,german_fires_berlin_locations__e51730dc026eb136ed42196a49eae911
abendfrieden,"Abendfrieden in Berlin, Germany",52.9281698,12.7820479,1,,,,,,,,Shipping,"Abendfrieden in Berlin, Germany",,german_fires_berlin_locations,cb1ab9b42371024fe8c446167d717679,german_fires_berlin_locations__cb1ab9b42371024fe8c446167d717679
abendrotweg,"Abendrotweg in Berlin, Germany",52.3924538,13.39032,1,,,,,,,,DiplomaticFacilities,"Abendrotweg in Berlin, Germany",,german_fires_berlin_locations,a68c9f80385cc58f311c0720be0359f3,german_fires_berlin_locations__a68c9f80385cc58f311c0720be0359f3
abendseglersteig,"Abendseglersteig in Berlin, Germany",52.5200066,13.404954,1,,,,,,,,Pipeline,"Abendseglersteig in Berlin, Germany",,german_fires_berlin_locations,6f2212f1ecb4bcd4fe87cd999b87c330,german_fires_berlin_locations__6f2212f1ecb4bcd4fe87cd999b87c330
abram-joffe-strasse,"Abram-Joffe-Strasse in Berlin, Germany",52.4331505,13.5290213,1,,,,,,,,space,"Abram-Joffe-Strasse in Berlin, Germany",,german_fires_berlin_locations,3b5549d86fe75d71a288345f53816e61,german_fires_berlin_locations__3b5549d86fe75d71a288345f53816e61
abramowitschallee,"Abramowitschallee in Berlin, Germany",52.5096488,13.3759441,1,,,,,,,,Person,"Abramowitschallee in Berlin, Germany",,german_fires_berlin_locations,a35184c328b35b2a8e00b608d9380c84,german_fires_berlin_locations__a35184c328b35b2a8e00b608d9380c84
abteibrucke,"Abteibrucke in Berlin, Germany",52.486361,13.4806779,1,,,,,,,,Exec,"Abteibrucke in Berlin, Germany",,german_fires_berlin_locations,9602036830308b8606bd52a4147469e6,german_fires_berlin_locations__9602036830308b8606bd52a4147469e6
abtstrasse,"Abtstrasse in Berlin, Germany",52.4350348,13.5425835,1,,,,,,,,Organization,"Abtstrasse in Berlin, Germany",,german_fires_berlin_locations,1a14dfd76753a3617eb2ed47c7040d65,german_fires_berlin_locations__1a14dfd76753a3617eb2ed47c7040d65
abtweilerstrasse,"Abtweilerstrasse in Berlin, Germany",52.4131229,13.6758848,1,,,,,,,,Organization,"Abtweilerstrasse in Berlin, Germany",,german_fires_berlin_locations,25454565247e48b78ef6b766e5225d30,german_fires_berlin_locations__25454565247e48b78ef6b766e5225d30
achardstrasse,"Achardstrasse in Berlin, Germany",52.4993975,13.5827589,1,,,,,,,,ForeignMinistry,"Achardstrasse in Berlin, Germany",,german_fires_berlin_locations,900c0a79d99acc86d13e71abddb455e6,german_fires_berlin_locations__900c0a79d99acc86d13e71abddb455e6
achenbachstrasse,"Achenbachstrasse in Berlin, Germany",52.5418269,13.2029079,1,,,,,,,,ForeignMinistry,"Achenbachstrasse in Berlin, Germany",,german_fires_berlin_locations,6d30ce841b42a8e5d4286bf51d21c435,german_fires_berlin_locations__6d30ce841b42a8e5d4286bf51d21c435
achenseeweg,"Achenseeweg in Berlin, Germany",52.4129806,13.3341069,1,,,,,,,,CompanyKeyword,"Achenseeweg in Berlin, Germany",,german_fires_berlin_locations,48f6a4f967cfcd928d2d25e4821afcd1,german_fires_berlin_locations__48f6a4f967cfcd928d2d25e4821afcd1
achillesstrasse,"Achillesstrasse in Berlin, Germany",52.6175948,13.488975,1,,,,,,,,LegislativeCommittee,"Achillesstrasse in Berlin, Germany",,german_fires_berlin_locations,66aaeed9d62432c233f1f1c5355fafc2,german_fires_berlin_locations__66aaeed9d62432c233f1f1c5355fafc2
achtermannstrasse,"Achtermannstrasse in Berlin, Germany",52.5774418,13.4219117,1,,,,,,,,Wells,"Achtermannstrasse in Berlin, Germany",,german_fires_berlin_locations,f31a292168c704c110407d0a717b41e4,german_fires_berlin_locations__f31a292168c704c110407d0a717b41e4
achtrutenberg,"Achtrutenberg in Berlin, Germany",52.6203226,13.4815155,1,,,,,,,,Wells,"Achtrutenberg in Berlin, Germany",,german_fires_berlin_locations,98010e8d82e3eeb33d2ce14a7f51e531,german_fires_berlin_locations__98010e8d82e3eeb33d2ce14a7f51e531
ackerplanweg,"Ackerplanweg in Berlin, Germany",52.5968211,13.2999959,1,,,,,,,,Keyphrase,"Ackerplanweg in Berlin, Germany",,german_fires_berlin_locations,267aacab111f999ffe168ad6d7286dfb,german_fires_berlin_locations__267aacab111f999ffe168ad6d7286dfb
ackerstrasse,"Ackerstrasse in Berlin, Germany",52.5354643,13.3901136,1,,,,,,,,LegislativeCommittee,"Ackerstrasse in Berlin, Germany",,german_fires_berlin_locations,07f2bb79389380c7b6b3679f9c021acf,german_fires_berlin_locations__07f2bb79389380c7b6b3679f9c021acf
adalbertstrasse,"Adalbertstrasse in Berlin, Germany",52.5040693,13.4212471,1,,,,,,,,Diplomat,"Adalbertstrasse in Berlin, Germany",,german_fires_berlin_locations,d5adc7ad1892a6a30498b293fbbcc034,german_fires_berlin_locations__d5adc7ad1892a6a30498b293fbbcc034
adam-kuckhoff-platz,"Adam-Kuckhoff-Platz in Berlin, Germany",52.4725707,13.3205448,1,,,,,,,,Shipping,"Adam-Kuckhoff-Platz in Berlin, Germany",,german_fires_berlin_locations,f4f2a86623441781790f8d21f2af5bec,german_fires_berlin_locations__f4f2a86623441781790f8d21f2af5bec
adam-von-trott-strasse,"Adam-von-Trott-Strasse in Berlin, Germany",52.5456531,13.3089277,1,,,,,,,,LegislativeCommittee,"Adam-von-Trott-Strasse in Berlin, Germany",,german_fires_berlin_locations,a96fb44255a365d312d67527d0c5f0c1,german_fires_berlin_locations__a96fb44255a365d312d67527d0c5f0c1
adamstrasse,"Adamstrasse in Berlin, Germany",52.5210192,13.1932895,1,,,,,,,,ForeignMinister,"Adamstrasse in Berlin, Germany",,german_fires_berlin_locations,3f87523d022e313e1960b894fa8a6ee7,german_fires_berlin_locations__3f87523d022e313e1960b894fa8a6ee7
adele-sandrock-strasse,"Adele-Sandrock-Strasse in Berlin, Germany",52.5342817,13.6192866,1,,,,,,,,Exec,"Adele-Sandrock-Strasse in Berlin, Germany",,german_fires_berlin_locations,cd9dd21af0ed913c3f1b19bd5df087f9,german_fires_berlin_locations__cd9dd21af0ed913c3f1b19bd5df087f9
adele-schreiber-krieger-strasse,"Adele-Schreiber-Krieger-Strasse in Berlin, Germany",52.5209161,13.3778891,1,,,,,,,,Exec,"Adele-Schreiber-Krieger-Strasse in Berlin, Germany",,german_fires_berlin_locations,d5ff4b0c89c2d3960216bc57f59a985e,german_fires_berlin_locations__d5ff4b0c89c2d3960216bc57f59a985e
adelheid-poninska-strasse,"Adelheid-Poninska-Strasse in Berlin, Germany",52.5273406,13.1419893,1,,,,,,,,Person,"Adelheid-Poninska-Strasse in Berlin, Germany",,german_fires_berlin_locations,301aae8d16178b83e26bc4686fb16268,german_fires_berlin_locations__301aae8d16178b83e26bc4686fb16268
adelheidallee,"Adelheidallee in Berlin, Germany",52.5934234,13.2761185,1,,,,,,,,Wells,"Adelheidallee in Berlin, Germany",,german_fires_berlin_locations,6f04c987efa805d39449a4c3f075b3d6,german_fires_berlin_locations__6f04c987efa805d39449a4c3f075b3d6
adenauerplatz,"Adenauerplatz in Berlin, Germany",52.5007126,13.3073082,1,,,,,,,,AAEntity,"Adenauerplatz in Berlin, Germany",,german_fires_berlin_locations,ff2e46be2c3824dd6ffb904427e60095,german_fires_berlin_locations__ff2e46be2c3824dd6ffb904427e60095
adersleber weg,"Adersleber Weg in Berlin, Germany",52.5361397,13.5598086,1,,,,,,,,Keyphrase,"Adersleber Weg in Berlin, Germany",,german_fires_berlin_locations,fc7c94e58296cca72e50977941bc050a,german_fires_berlin_locations__fc7c94e58296cca72e50977941bc050a
adickesstrasse,"Adickesstrasse in Berlin, Germany",52.5485973,13.2304206,1,,,,,,,,AAEntity,"Adickesstrasse in Berlin, Germany",,german_fires_berlin_locations,fc82a50aeffe7b27db91a7f9dd4e5adb,german_fires_berlin_locations__fc82a50aeffe7b27db91a7f9dd4e5adb
adlergestell,"Adlergestell in Berlin, Germany",52.4093497,13.5801626,1,,,,,,,,Refinery,"Adlergestell in Berlin, Germany",,german_fires_berlin_locations,4ebe070af35a7f1cd6e8266c85b27285,german_fires_berlin_locations__4ebe070af35a7f1cd6e8266c85b27285
adlerhorst,"Adlerhorst in Berlin, Germany",52.3849032,13.6407992,1,,,,,,,,ForeignMinister,"Adlerhorst in Berlin, Germany",,german_fires_berlin_locations,b867d14de41de6c2ed1057fd5f607c71,german_fires_berlin_locations__b867d14de41de6c2ed1057fd5f607c71
adlerplatz,"Adlerplatz in Berlin, Germany",52.5201225,13.2426607,1,,,,,,,,AAEntity,"Adlerplatz in Berlin, Germany",,german_fires_berlin_locations,2778b941226ef859246a55da5b904ea5,german_fires_berlin_locations__2778b941226ef859246a55da5b904ea5
adlershofer brucke,"Adlershofer Brucke in Berlin, Germany",52.4260417,13.5552367,1,,,,,,,,IndustryTerm,"Adlershofer Brucke in Berlin, Germany",,german_fires_berlin_locations,815e30f302346242d767ce30e796b155,german_fires_berlin_locations__815e30f302346242d767ce30e796b155
adlershofer strasse,"Adlershofer Strasse in Berlin, Germany",52.4422773,13.5670452,1,,,,,,,,Media,"Adlershofer Strasse in Berlin, Germany",,german_fires_berlin_locations,94deff25f4156480a07180c6d16fd385,german_fires_berlin_locations__94deff25f4156480a07180c6d16fd385
adlerstrasse,"Adlerstrasse in Berlin, Germany",52.398618,13.577398,1,,,,,,,,IndustryTerm,"Adlerstrasse in Berlin, Germany",,german_fires_berlin_locations,3f12618a338f469b27fa694108e8df43,german_fires_berlin_locations__3f12618a338f469b27fa694108e8df43
adlerweg,"Adlerweg in Berlin, Germany",52.5528189,13.2632635,1,,,,,,,,Organization,"Adlerweg in Berlin, Germany",,german_fires_berlin_locations,f2a2293961c8d1cc655f93da5bb75fc8,german_fires_berlin_locations__f2a2293961c8d1cc655f93da5bb75fc8
admiralbrucke,"Admiralbrucke in Berlin, Germany",52.4952683,13.4151036,1,,,,,,,,CompanyKeyword,"Admiralbrucke in Berlin, Germany",,german_fires_berlin_locations,edfbeb34379e4496ba4ae4d62d3d9343,german_fires_berlin_locations__edfbeb34379e4496ba4ae4d62d3d9343
admiralstrasse,"Admiralstrasse in Berlin, Germany",52.4968491,13.4161464,1,,,,,,,,Person,"Admiralstrasse in Berlin, Germany",,german_fires_berlin_locations,783d0e75a541aa0d4373644514474c53,german_fires_berlin_locations__783d0e75a541aa0d4373644514474c53
adolf-heyden-strasse,"Adolf-Heyden-Strasse in Berlin, Germany",52.4505211,13.5640194,1,,,,,,,,Exec,"Adolf-Heyden-Strasse in Berlin, Germany",,german_fires_berlin_locations,d75a8dcafd2a8b6d455e8522a3771c5f,german_fires_berlin_locations__d75a8dcafd2a8b6d455e8522a3771c5f
adolf-kiepert-steg,"Adolf-Kiepert-Steg in Berlin, Germany",52.3995245,13.3748425,1,,,,,,,,DiplomaticFacilities,"Adolf-Kiepert-Steg in Berlin, Germany",,german_fires_berlin_locations,21453112e64c51e48ddf1b88b0544b5c,german_fires_berlin_locations__21453112e64c51e48ddf1b88b0544b5c
adolf-martens-strasse,"Adolf-Martens-Strasse in Berlin, Germany",52.4432506,13.291368,1,,,,,,,,DiplomaticFacilities,"Adolf-Martens-Strasse in Berlin, Germany",,german_fires_berlin_locations,16203b9993927748cf23bd215082fb71,german_fires_berlin_locations__16203b9993927748cf23bd215082fb71
adolf-menzel-strasse,"Adolf-Menzel-Strasse in Berlin, Germany",52.4946638,13.5753958,1,,,,,,,,Media,"Adolf-Menzel-Strasse in Berlin, Germany",,german_fires_berlin_locations,3f28c302e53c11aa9d9bffa24bec8808,german_fires_berlin_locations__3f28c302e53c11aa9d9bffa24bec8808
adolf-scheidt-platz,"Adolf-Scheidt-Platz in Berlin, Germany",52.4781371,13.3790742,1,,,,,,,,space,"Adolf-Scheidt-Platz in Berlin, Germany",,german_fires_berlin_locations,7b617056ddf348e1c9947cad6d523ccd,german_fires_berlin_locations__7b617056ddf348e1c9947cad6d523ccd
adolf-wermuth-allee,"Adolf-Wermuth-Allee in Berlin, Germany",52.5200066,13.404954,1,,,,,,,,Diplomat,"Adolf-Wermuth-Allee in Berlin, Germany",,german_fires_berlin_locations,8b3b7f83ece563f658dd52da1cdcad19,german_fires_berlin_locations__8b3b7f83ece563f658dd52da1cdcad19
adolfstrasse,"Adolfstrasse in Berlin, Germany",52.5465642,13.3669061,1,,,,,,,,Pipeline,"Adolfstrasse in Berlin, Germany",,german_fires_berlin_locations,cc45c64c946d1e43ddf7aef9431e84c0,german_fires_berlin_locations__cc45c64c946d1e43ddf7aef9431e84c0
adorfer strasse,"Adorfer Strasse in Berlin, Germany",52.5322209,13.6073643,1,,,,,,,,CompanyKeyword,"Adorfer Strasse in Berlin, Germany",,german_fires_berlin_locations,16481a3469d2c1ce20878a91db108caa,german_fires_berlin_locations__16481a3469d2c1ce20878a91db108caa
advokatensteig,"Advokatensteig in Berlin, Germany",52.4082982,13.574522,1,,,,,,,,Refinery,"Advokatensteig in Berlin, Germany",,german_fires_berlin_locations,a79903c25ce415297f5034452fb6424b,german_fires_berlin_locations__a79903c25ce415297f5034452fb6424b
aeg-siedlung heimat,"AEG-Siedlung Heimat in Berlin, Germany",52.6116192,13.3433996,1,,,,,,,,Diplomat,"AEG-Siedlung Heimat in Berlin, Germany",,german_fires_berlin_locations,c173a8d3e0d0e256f3456669c9decbb5,german_fires_berlin_locations__c173a8d3e0d0e256f3456669c9decbb5
aeg-strasse,"AEG-Strasse in Berlin, Germany",52.6116192,13.3433996,1,,,,,,,,CompanyKeyword,"AEG-Strasse in Berlin, Germany",,german_fires_berlin_locations,2fd7d1f9dc97b4c42c28d9bc7c088abf,german_fires_berlin_locations__2fd7d1f9dc97b4c42c28d9bc7c088abf
aegirstrasse,"Aegirstrasse in Berlin, Germany",52.5617696,13.3738992,1,,,,,,,,IndustryTerm,"Aegirstrasse in Berlin, Germany",,german_fires_berlin_locations,3da0172fab4b4672534606b758a85a4e,german_fires_berlin_locations__3da0172fab4b4672534606b758a85a4e
affensteinweg,"Affensteinweg in Berlin, Germany",52.5960836,13.3940051,1,,,,,,,,IndustryTerm,"Affensteinweg in Berlin, Germany",,german_fires_berlin_locations,43618e16d68621b168e1b38deb8ac40d,german_fires_berlin_locations__43618e16d68621b168e1b38deb8ac40d
afrikanische strasse,"Afrikanische Strasse in Berlin, Germany",52.553207,13.3364788,1,,,,,,,,CompanyKeyword,"Afrikanische Strasse in Berlin, Germany",,german_fires_berlin_locations,441248d057de7c1591bdd619fe687da3,german_fires_berlin_locations__441248d057de7c1591bdd619fe687da3
agathe-lasch-platz,"Agathe-Lasch-Platz in Berlin, Germany",52.4979581,13.2970035,1,,,,,,,,Person,"Agathe-Lasch-Platz in Berlin, Germany",,german_fires_berlin_locations,f10d7dad6c2945ce391bf96a446b093a,german_fires_berlin_locations__f10d7dad6c2945ce391bf96a446b093a
agathenweg,"Agathenweg in Berlin, Germany",52.5998092,13.2951775,1,,,,,,,,ForeignMinistry,"Agathenweg in Berlin, Germany",,german_fires_berlin_locations,ecd311f14316a79380c8a4d4b5392b79,german_fires_berlin_locations__ecd311f14316a79380c8a4d4b5392b79
agavensteig,"Agavensteig in Berlin, Germany",52.4473443,13.4818522,1,,,,,,,,AAEntity,"Agavensteig in Berlin, Germany",,german_fires_berlin_locations,d5cc8a65c9c52b07213da5b13513922c,german_fires_berlin_locations__d5cc8a65c9c52b07213da5b13513922c
agnes-hacker-strasse,"Agnes-Hacker-Strasse in Berlin, Germany",52.4071484,13.5407209,1,,,,,,,,Exec,"Agnes-Hacker-Strasse in Berlin, Germany",,german_fires_berlin_locations,a93fccf8fdf37c5dd3128be768ad444b,german_fires_berlin_locations__a93fccf8fdf37c5dd3128be768ad444b
agnes-straub-weg,"Agnes-Straub-Weg in Berlin, Germany",52.4248282,13.4822904,1,,,,,,,,Pipeline,"Agnes-Straub-Weg in Berlin, Germany",,german_fires_berlin_locations,02848670b2a5c21c9707b97b6f87c7e4,german_fires_berlin_locations__02848670b2a5c21c9707b97b6f87c7e4
agnes-wabnitz-strasse,"Agnes-Wabnitz-Strasse in Berlin, Germany",52.5255301,13.4557581,1,,,,,,,,Consulates,"Agnes-Wabnitz-Strasse in Berlin, Germany",,german_fires_berlin_locations,260a0a8dc8bd510b905d260e5311d2ae,german_fires_berlin_locations__260a0a8dc8bd510b905d260e5311d2ae
agnes-zahn-harnack-strasse,"Agnes-Zahn-Harnack-Strasse in Berlin, Germany",52.5242503,13.3672384,1,,,,,,,,Consulates,"Agnes-Zahn-Harnack-Strasse in Berlin, Germany",,german_fires_berlin_locations,af4ea2ab94ec1ead6b7666e572c8d1ec,german_fires_berlin_locations__af4ea2ab94ec1ead6b7666e572c8d1ec
agnethaweg,"Agnethaweg in Berlin, Germany",52.5412548,13.506092,1,,,,,,,,CompanyKeyword,"Agnethaweg in Berlin, Germany",,german_fires_berlin_locations,8abe6158d13f5525142da80b729d0ccc,german_fires_berlin_locations__8abe6158d13f5525142da80b729d0ccc
agricolastrasse,"Agricolastrasse in Berlin, Germany",52.520494,13.3328214,1,,,,,,,,Legislator,"Agricolastrasse in Berlin, Germany",,german_fires_berlin_locations,d0f7d09e652f7eba35e05cc936d1bb9c,german_fires_berlin_locations__d0f7d09e652f7eba35e05cc936d1bb9c
ahlbecker strasse,"Ahlbecker Strasse in Berlin, Germany",52.5445331,13.4249643,1,,,,,,,,Media,"Ahlbecker Strasse in Berlin, Germany",,german_fires_berlin_locations,12b8db4b613d415b6872d61c3e4027a3,german_fires_berlin_locations__12b8db4b613d415b6872d61c3e4027a3
ahlbeerensteig,"Ahlbeerensteig in Berlin, Germany",52.5387939,13.1407353,1,,,,,,,,AAEntity,"Ahlbeerensteig in Berlin, Germany",,german_fires_berlin_locations,d078353034ddb038d4a354db53eee1aa,german_fires_berlin_locations__d078353034ddb038d4a354db53eee1aa
ahlener weg,"Ahlener Weg in Berlin, Germany",52.4093041,13.3045506,1,,,,,,,,News,"Ahlener Weg in Berlin, Germany",,german_fires_berlin_locations,daaa46cb8d0376ae6e6829840ac18061,german_fires_berlin_locations__daaa46cb8d0376ae6e6829840ac18061
ahornallee,"Ahornallee in Berlin, Germany",52.514308,13.2760835,1,,,,,,,,Legislator,"Ahornallee in Berlin, Germany",,german_fires_berlin_locations,85147cbc4386737d57ab8aeb4d2da7c6,german_fires_berlin_locations__85147cbc4386737d57ab8aeb4d2da7c6
ahornsteig,"Ahornsteig in Berlin, Germany",52.5126358,13.3705725,1,,,,,,,,Shipping,"Ahornsteig in Berlin, Germany",,german_fires_berlin_locations,33422d67aebc7d137f41f0aaa5086b0e,german_fires_berlin_locations__33422d67aebc7d137f41f0aaa5086b0e
ahornstrasse,"Ahornstrasse in Berlin, Germany",52.4611556,13.3213371,1,,,,,,,,Person,"Ahornstrasse in Berlin, Germany",,german_fires_berlin_locations,8a8854f49b2c6968a71e1f561c4c98c7,german_fires_berlin_locations__8a8854f49b2c6968a71e1f561c4c98c7
ahornweg,"Ahornweg in Berlin, Germany",52.5776303,13.5323855,1,,,,,,,,News,"Ahornweg in Berlin, Germany",,german_fires_berlin_locations,1a99fef4b57b046047967e4b157a4715,german_fires_berlin_locations__1a99fef4b57b046047967e4b157a4715
ahrensdorfer strasse,"Ahrensdorfer Strasse in Berlin, Germany",52.4087453,13.3572316,1,,,,,,,,CompanyKeyword,"Ahrensdorfer Strasse in Berlin, Germany",,german_fires_berlin_locations,027da7646c2762902455487709f49dd0,german_fires_berlin_locations__027da7646c2762902455487709f49dd0
ahrensfelder chaussee,"Ahrensfelder Chaussee in Berlin, Germany",52.570373,13.5563498,1,,,,,,,,Person,"Ahrensfelder Chaussee in Berlin, Germany",,german_fires_berlin_locations,1042cad33fa8443b6cbe7a5042e0e1c3,german_fires_berlin_locations__1042cad33fa8443b6cbe7a5042e0e1c3
ahrensfelder platz,"Ahrensfelder Platz in Berlin, Germany",52.5702079,13.5659175,1,,,,,,,,ForeignMinistry,"Ahrensfelder Platz in Berlin, Germany",,german_fires_berlin_locations,e85c4498e2427b28fbc5a762eb945837,german_fires_berlin_locations__e85c4498e2427b28fbc5a762eb945837
ahrenshooper strasse,"Ahrenshooper Strasse in Berlin, Germany",52.5683246,13.5024691,1,,,,,,,,Legislator,"Ahrenshooper Strasse in Berlin, Germany",,german_fires_berlin_locations,fd53ebe40646f6e1a24a2069d43dac3b,german_fires_berlin_locations__fd53ebe40646f6e1a24a2069d43dac3b
ahrenshooper zeile,"Ahrenshooper Zeile in Berlin, Germany",52.4365505,13.2228409,1,,,,,,,,Person,"Ahrenshooper Zeile in Berlin, Germany",,german_fires_berlin_locations,9d7afba90ce50f32ab3d9f414fb223dc,german_fires_berlin_locations__9d7afba90ce50f32ab3d9f414fb223dc
ahrenweg,"ahrenweg in Berlin, Germany",52.5151545,13.5618865,1,,,,,,,,ForeignMinistry,"ahrenweg in Berlin, Germany",,german_fires_berlin_locations,4ab84aa05442885e7c399b550e4e6d13,german_fires_berlin_locations__4ab84aa05442885e7c399b550e4e6d13
ahrweilerstrasse,"Ahrweilerstrasse in Berlin, Germany",52.4717553,13.3169608,1,,,,,,,,space,"Ahrweilerstrasse in Berlin, Germany",,german_fires_berlin_locations,7eb20ecc20c6b842f47fb6b70705a96e,german_fires_berlin_locations__7eb20ecc20c6b842f47fb6b70705a96e
aiblinger weg,"Aiblinger Weg in Berlin, Germany",52.4573446,13.1350368,1,,,,,,,,Shipping,"Aiblinger Weg in Berlin, Germany",,german_fires_berlin_locations,21f2a799e8a490db34681e7ed0f3b9da,german_fires_berlin_locations__21f2a799e8a490db34681e7ed0f3b9da
aidastrasse,"Aidastrasse in Berlin, Germany",52.5665626,13.436383,1,,,,,,,,Diplomat,"Aidastrasse in Berlin, Germany",,german_fires_berlin_locations,c53fc3d61065ade3b11dd34c39110cb6,german_fires_berlin_locations__c53fc3d61065ade3b11dd34c39110cb6
akademieplatz,"Akademieplatz in Berlin, Germany",52.5162746,13.3777041,1,,,,,,,,ForeignMinister,"Akademieplatz in Berlin, Germany",,german_fires_berlin_locations,bf4612a035de3338e1a25ae9342fd4f5,german_fires_berlin_locations__bf4612a035de3338e1a25ae9342fd4f5
akazienallee,"Akazienallee in Berlin, Germany",52.5192249,13.2693158,1,,,,,,,,Person,"Akazienallee in Berlin, Germany",,german_fires_berlin_locations,45bfddd81e5d457363860fecd987ddf2,german_fires_berlin_locations__45bfddd81e5d457363860fecd987ddf2
akazienhof,"Akazienhof in Berlin, Germany",52.4116129,13.5684715,1,,,,,,,,News,"Akazienhof in Berlin, Germany",,german_fires_berlin_locations,8520e6a44bd8efc87da39c7a6add18c6,german_fires_berlin_locations__8520e6a44bd8efc87da39c7a6add18c6
akazienstrasse,"Akazienstrasse in Berlin, Germany",52.4880854,13.3541995,1,,,,,,,,Shipping,"Akazienstrasse in Berlin, Germany",,german_fires_berlin_locations,605716eafa6e580bf07b0bfe76906deb,german_fires_berlin_locations__605716eafa6e580bf07b0bfe76906deb
akazienweg,"Akazienweg in Berlin, Germany",52.5694672,13.2067046,1,,,,,,,,ForeignMinister,"Akazienweg in Berlin, Germany",,german_fires_berlin_locations,07c55fef3acd53605857207e08a1f3a3,german_fires_berlin_locations__07c55fef3acd53605857207e08a1f3a3
akeleiweg,"Akeleiweg in Berlin, Germany",52.4333387,13.5077768,1,,,,,,,,Legislator,"Akeleiweg in Berlin, Germany",,german_fires_berlin_locations,dfda374ad23ea4d130b7a5a60fcf3f4f,german_fires_berlin_locations__dfda374ad23ea4d130b7a5a60fcf3f4f
akkordeonweg,"Akkordeonweg in Berlin, Germany",52.5916996,13.4264352,1,,,,,,,,Refinery,"Akkordeonweg in Berlin, Germany",,german_fires_berlin_locations,0872e06052ca9c62273490d10e14ff09,german_fires_berlin_locations__0872e06052ca9c62273490d10e14ff09
aladinweg,"Aladinweg in Berlin, Germany",52.5219814,13.413306,1,,,,,,,,space,"Aladinweg in Berlin, Germany",,german_fires_berlin_locations,3694554016842310cad82f0997d46f41,german_fires_berlin_locations__3694554016842310cad82f0997d46f41
alarichplatz,"Alarichplatz in Berlin, Germany",52.4535548,13.3762241,1,,,,,,,,DiplomaticFacilities,"Alarichplatz in Berlin, Germany",,german_fires_berlin_locations,5a9e4273382c2f5ef83330d189b3e4d7,german_fires_berlin_locations__5a9e4273382c2f5ef83330d189b3e4d7
alarichstrasse,"Alarichstrasse in Berlin, Germany",52.4542636,13.3766331,1,,,,,,,,Consulates,"Alarichstrasse in Berlin, Germany",,german_fires_berlin_locations,2d2a4d234710ad5716532cc2f1664754,german_fires_berlin_locations__2d2a4d234710ad5716532cc2f1664754
albanstrasse,"Albanstrasse in Berlin, Germany",52.415463,13.3786526,1,,,,,,,,Keyphrase,"Albanstrasse in Berlin, Germany",,german_fires_berlin_locations,7f2bd079acd3ba585d3b7d0bef850755,german_fires_berlin_locations__7f2bd079acd3ba585d3b7d0bef850755
alberichstrasse,"Alberichstrasse in Berlin, Germany",52.4850635,13.5580198,1,,,,,,,,ForeignMinister,"Alberichstrasse in Berlin, Germany",,german_fires_berlin_locations,9dce1f529759b4e8f7036e0252d6f688,german_fires_berlin_locations__9dce1f529759b4e8f7036e0252d6f688
albersweilerweg,"Albersweilerweg in Berlin, Germany",52.4226124,13.4226822,1,,,,,,,,Refinery,"Albersweilerweg in Berlin, Germany",,german_fires_berlin_locations,5b7dcfce416e8ff9e985ac84c3fae2bb,german_fires_berlin_locations__5b7dcfce416e8ff9e985ac84c3fae2bb
albert-einstein-strasse,"Albert-Einstein-Strasse in Berlin, Germany",52.4293813,13.5336419,1,,,,,,,,IndustryTerm,"Albert-Einstein-Strasse in Berlin, Germany",,german_fires_berlin_locations,98eaf957ed862e7dea755c518ccd777e,german_fires_berlin_locations__98eaf957ed862e7dea755c518ccd777e
albert-hossler-strasse,"Albert-Hossler-Strasse in Berlin, Germany",52.5097444,13.4877271,1,,,,,,,,ForeignMinister,"Albert-Hossler-Strasse in Berlin, Germany",,german_fires_berlin_locations,79f3bf7fec0c23101a90db3e2f1897a8,german_fires_berlin_locations__79f3bf7fec0c23101a90db3e2f1897a8
albert-kuntz-strasse,"Albert-Kuntz-Strasse in Berlin, Germany",52.5370641,13.6174504,1,,,,,,,,Person,"Albert-Kuntz-Strasse in Berlin, Germany",,german_fires_berlin_locations,d6efe77f9c9c21d658e590dab5e3b96f,german_fires_berlin_locations__d6efe77f9c9c21d658e590dab5e3b96f
albert-schweitzer-platz,"Albert-Schweitzer-Platz in Berlin, Germany",52.4851362,13.4263969,1,,,,,,,,LegislativeCommittee,"Albert-Schweitzer-Platz in Berlin, Germany",,german_fires_berlin_locations,b5123bb40913aea1d002c9a53c1c0e68,german_fires_berlin_locations__b5123bb40913aea1d002c9a53c1c0e68
albert-schweitzer-strasse,"Albert-Schweitzer-Strasse in Berlin, Germany",52.4540538,13.6226259,1,,,,,,,,IndustryTerm,"Albert-Schweitzer-Strasse in Berlin, Germany",,german_fires_berlin_locations,081644263ff323cfae2af0c9f6a1b767,german_fires_berlin_locations__081644263ff323cfae2af0c9f6a1b767
albertinenstrasse,"Albertinenstrasse in Berlin, Germany",52.5519854,13.4595215,1,,,,,,,,Keyphrase,"Albertinenstrasse in Berlin, Germany",,german_fires_berlin_locations,474fa7d9e209cafed9a9cf45844243df,german_fires_berlin_locations__474fa7d9e209cafed9a9cf45844243df
albertstrasse,"Albertstrasse in Berlin, Germany",52.4836025,13.3540406,1,,,,,,,,IndustryTerm,"Albertstrasse in Berlin, Germany",,german_fires_berlin_locations,0fa14bceb0cd179a914a8db85f38a34a,german_fires_berlin_locations__0fa14bceb0cd179a914a8db85f38a34a
albestrasse,"Albestrasse in Berlin, Germany",52.4734639,13.3327053,1,,,,,,,,AAEntity,"Albestrasse in Berlin, Germany",,german_fires_berlin_locations,5096ad112c111dac43d1a48f9cd2f497,german_fires_berlin_locations__5096ad112c111dac43d1a48f9cd2f497
albiger weg,"Albiger Weg in Berlin, Germany",52.4283784,13.2056576,1,,,,,,,,space,"Albiger Weg in Berlin, Germany",,german_fires_berlin_locations,996e08e6d71caf1cb0a804cb32d6e0d8,german_fires_berlin_locations__996e08e6d71caf1cb0a804cb32d6e0d8
albineaplatz,"Albineaplatz in Berlin, Germany",52.4449721,13.5045203,1,,,,,,,,LegislativeCommittee,"Albineaplatz in Berlin, Germany",,german_fires_berlin_locations,8c8f84368901b1bf7af20b488bb45748,german_fires_berlin_locations__8c8f84368901b1bf7af20b488bb45748
alboinplatz,"Alboinplatz in Berlin, Germany",52.4593743,13.3708584,1,,,,,,,,space,"Alboinplatz in Berlin, Germany",,german_fires_berlin_locations,be962512dd60dc593c9437862ba706bd,german_fires_berlin_locations__be962512dd60dc593c9437862ba706bd
alboinstrasse,"Alboinstrasse in Berlin, Germany",52.462967,13.3699612,1,,,,,,,,News,"Alboinstrasse in Berlin, Germany",,german_fires_berlin_locations,22b35e19a0cd335379c63450b69adc98,german_fires_berlin_locations__22b35e19a0cd335379c63450b69adc98
albrecht-achilles-strasse,"Albrecht-Achilles-Strasse in Berlin, Germany",52.4966156,13.3034698,1,,,,,,,,Exec,"Albrecht-Achilles-Strasse in Berlin, Germany",,german_fires_berlin_locations,26687ce8d9917c91218d9b58ca8664a9,german_fires_berlin_locations__26687ce8d9917c91218d9b58ca8664a9
albrecht-berblinger-strasse,"Albrecht-Berblinger-Strasse in Berlin, Germany",52.4745935,13.1313563,1,,,,,,,,FTO,"Albrecht-Berblinger-Strasse in Berlin, Germany",,german_fires_berlin_locations,61fc3acab53cb816fd8eaa4e0985a4c4,german_fires_berlin_locations__61fc3acab53cb816fd8eaa4e0985a4c4
albrecht-durer-strasse,"Albrecht-Durer-Strasse in Berlin, Germany",52.5208273,13.6278912,1,,,,,,,,Keyphrase,"Albrecht-Durer-Strasse in Berlin, Germany",,german_fires_berlin_locations,d344afeaa08608fac31af10fb4448908,german_fires_berlin_locations__d344afeaa08608fac31af10fb4448908
albrecht-thaer-weg,"Albrecht-Thaer-Weg in Berlin, Germany",52.466793,13.299571,1,,,,,,,,ForeignMinister,"Albrecht-Thaer-Weg in Berlin, Germany",,german_fires_berlin_locations,4ec8ac4793abcd404aab6224e42ac5e9,german_fires_berlin_locations__4ec8ac4793abcd404aab6224e42ac5e9
albrechts teerofen,"Albrechts Teerofen in Berlin, Germany",52.3959695,13.1656309,1,,,,,,,,Consulates,"Albrechts Teerofen in Berlin, Germany",,german_fires_berlin_locations,46fb49fbbd9f1c690849b0f103340fed,german_fires_berlin_locations__46fb49fbbd9f1c690849b0f103340fed
albrechtshofer weg,"Albrechtshofer Weg in Berlin, Germany",52.5512641,13.13771,1,,,,,,,,LegislativeCommittee,"Albrechtshofer Weg in Berlin, Germany",,german_fires_berlin_locations,92b41b5f24901417215e486c0df118dd,german_fires_berlin_locations__92b41b5f24901417215e486c0df118dd
albrechtstrasse,"Albrechtstrasse in Berlin, Germany",52.5222786,13.3844267,1,,,,,,,,CompanyKeyword,"Albrechtstrasse in Berlin, Germany",,german_fires_berlin_locations,4dd9a713a1d57ac3a45618d08c40dd96,german_fires_berlin_locations__4dd9a713a1d57ac3a45618d08c40dd96
albtalweg,"Albtalweg in Berlin, Germany",52.611171,13.3329509,1,,,,,,,,Shipping,"Albtalweg in Berlin, Germany",,german_fires_berlin_locations,59b1d5df127c6db45621642b1642968c,german_fires_berlin_locations__59b1d5df127c6db45621642b1642968c
albulaweg,"Albulaweg in Berlin, Germany",52.4233263,13.4002206,1,,,,,,,,AAEntity,"Albulaweg in Berlin, Germany",,german_fires_berlin_locations,7cf0a769a06afa5c4e1c2648cb7e3e76,german_fires_berlin_locations__7cf0a769a06afa5c4e1c2648cb7e3e76
alemannenallee,"Alemannenallee in Berlin, Germany",52.5082508,13.266592,1,,,,,,,,space,"Alemannenallee in Berlin, Germany",,german_fires_berlin_locations,cc91b0ad9a9d490c10160ac3cd0f3e6d,german_fires_berlin_locations__cc91b0ad9a9d490c10160ac3cd0f3e6d
alemannenbrucke,"Alemannenbrucke in Berlin, Germany",52.5176509,13.3985147,1,,,,,,,,Pipeline,"Alemannenbrucke in Berlin, Germany",,german_fires_berlin_locations,915bb0b8d866bf54569ebdd3cfaa2129,german_fires_berlin_locations__915bb0b8d866bf54569ebdd3cfaa2129
alemannenstrasse,"Alemannenstrasse in Berlin, Germany",52.6333889,13.2809483,1,,,,,,,,ForeignMinister,"Alemannenstrasse in Berlin, Germany",,german_fires_berlin_locations,c87b57937de5c0512486143cb8fb2fca,german_fires_berlin_locations__c87b57937de5c0512486143cb8fb2fca
alex-wedding-strasse,"Alex-Wedding-Strasse in Berlin, Germany",52.5246371,13.414562,1,,,,,,,,Consulates,"Alex-Wedding-Strasse in Berlin, Germany",,german_fires_berlin_locations,00dfc9e8b3cc7cbe323a9ab57036166d,german_fires_berlin_locations__00dfc9e8b3cc7cbe323a9ab57036166d
alexander-meissner-strasse,"Alexander-Meissner-Strasse in Berlin, Germany",52.3935205,13.5445996,1,,,,,,,,CompanyKeyword,"Alexander-Meissner-Strasse in Berlin, Germany",,german_fires_berlin_locations,0bda896116f2595d9d879b95c0b73773,german_fires_berlin_locations__0bda896116f2595d9d879b95c0b73773
alexander-von-humboldt-weg,"Alexander-von-Humboldt-Weg in Berlin, Germany",52.433776,13.5262443,1,,,,,,,,ForeignMinister,"Alexander-von-Humboldt-Weg in Berlin, Germany",,german_fires_berlin_locations,3f1c2ac39cd382a4ca0ffb4595e51847,german_fires_berlin_locations__3f1c2ac39cd382a4ca0ffb4595e51847
alexanderplatz,"Alexanderplatz in Berlin, Germany",52.5219814,13.413306,1,,,,,,,,IndustryTerm,"Alexanderplatz in Berlin, Germany",,german_fires_berlin_locations,696fb52c1878fef01e5d6cb78efdbc1a,german_fires_berlin_locations__696fb52c1878fef01e5d6cb78efdbc1a
alexanderstrasse,"Alexanderstrasse in Berlin, Germany",52.5196286,13.4165365,1,,,,,,,,Refinery,"Alexanderstrasse in Berlin, Germany",,german_fires_berlin_locations,f64095ac8a9b932c15188ac2eca91fe0,german_fires_berlin_locations__f64095ac8a9b932c15188ac2eca91fe0
alexanderufer,"Alexanderufer in Berlin, Germany",52.5257741,13.3737609,1,,,,,,,,ForeignMinistry,"Alexanderufer in Berlin, Germany",,german_fires_berlin_locations,29595acc403e7135adc5a746063d99b7,german_fires_berlin_locations__29595acc403e7135adc5a746063d99b7
alexandrinenstrasse,"Alexandrinenstrasse in Berlin, Germany",52.5026468,13.4030546,1,,,,,,,,Media,"Alexandrinenstrasse in Berlin, Germany",,german_fires_berlin_locations,cf0257cb67e6b6496eeaae047aa3bcc5,german_fires_berlin_locations__cf0257cb67e6b6496eeaae047aa3bcc5
alfelder strasse,"Alfelder Strasse in Berlin, Germany",52.4926477,13.5573263,1,,,,,,,,Wells,"Alfelder Strasse in Berlin, Germany",,german_fires_berlin_locations,351cc43048d8646d14264bfdb95ca899,german_fires_berlin_locations__351cc43048d8646d14264bfdb95ca899
alfons-loewe-strasse,"Alfons-Loewe-Strasse in Berlin, Germany",52.5503844,13.1343267,1,,,,,,,,Legislator,"Alfons-Loewe-Strasse in Berlin, Germany",,german_fires_berlin_locations,3964033e9b97d0b0b6464794defb6717,german_fires_berlin_locations__3964033e9b97d0b0b6464794defb6717
alfonsstrasse,"Alfonsstrasse in Berlin, Germany",52.416305,13.5276432,1,,,,,,,,Media,"Alfonsstrasse in Berlin, Germany",,german_fires_berlin_locations,c4fa0abe3b1c42292d1a2f35b9994376,german_fires_berlin_locations__c4fa0abe3b1c42292d1a2f35b9994376
alfred-balen-weg,"Alfred-Balen-Weg in Berlin, Germany",52.5193209,13.1885584,1,,,,,,,,FTO,"Alfred-Balen-Weg in Berlin, Germany",,german_fires_berlin_locations,c6a91775349f9fe0c2794499d317ebae,german_fires_berlin_locations__c6a91775349f9fe0c2794499d317ebae
alfred-doblin-platz,"Alfred-Doblin-Platz in Berlin, Germany",52.5041858,13.4145918,1,,,,,,,,Consulates,"Alfred-Doblin-Platz in Berlin, Germany",,german_fires_berlin_locations,4ecfcb462eea97a534ccdd920e71af57,german_fires_berlin_locations__4ecfcb462eea97a534ccdd920e71af57
alfred-doblin-strasse,"Alfred-Doblin-Strasse in Berlin, Germany",52.5517687,13.5517643,1,,,,,,,,ForeignMinistry,"Alfred-Doblin-Strasse in Berlin, Germany",,german_fires_berlin_locations,61afc629124ea78daf78a095abd67743,german_fires_berlin_locations__61afc629124ea78daf78a095abd67743
alfred-grenander-platz,"Alfred-Grenander-Platz in Berlin, Germany",52.4426907,13.2403336,1,,,,,,,,Wells,"Alfred-Grenander-Platz in Berlin, Germany",,german_fires_berlin_locations,4adeef7b85a1d74d01deb630af4e41f8,german_fires_berlin_locations__4adeef7b85a1d74d01deb630af4e41f8
alfred-jung-strasse,"Alfred-Jung-Strasse in Berlin, Germany",52.5222541,13.4772333,1,,,,,,,,Consulates,"Alfred-Jung-Strasse in Berlin, Germany",,german_fires_berlin_locations,834f872920dee9e52ac235548183a2e2,german_fires_berlin_locations__834f872920dee9e52ac235548183a2e2
alfred-kowalke-strasse,"Alfred-Kowalke-Strasse in Berlin, Germany",52.5058723,13.5187087,1,,,,,,,,IndustryTerm,"Alfred-Kowalke-Strasse in Berlin, Germany",,german_fires_berlin_locations,139e61d34940a5683d959d65a7776e02,german_fires_berlin_locations__139e61d34940a5683d959d65a7776e02
alfred-lion-steg,"Alfred-Lion-Steg in Berlin, Germany",52.4809292,13.3675345,1,,,,,,,,Legislator,"Alfred-Lion-Steg in Berlin, Germany",,german_fires_berlin_locations,90f5180865416f60f10ae9843761820b,german_fires_berlin_locations__90f5180865416f60f10ae9843761820b
alfred-randt-strasse,"Alfred-Randt-Strasse in Berlin, Germany",52.4397839,13.6018061,1,,,,,,,,Person,"Alfred-Randt-Strasse in Berlin, Germany",,german_fires_berlin_locations,5e788267dbdd9d4bbe3a293cc987c091,german_fires_berlin_locations__5e788267dbdd9d4bbe3a293cc987c091
alfred-rojek-weg,"Alfred-Rojek-Weg in Berlin, Germany",52.4211409,13.5087361,1,,,,,,,,Legislator,"Alfred-Rojek-Weg in Berlin, Germany",,german_fires_berlin_locations,6510e52e1d5ce52e681b130b98819a07,german_fires_berlin_locations__6510e52e1d5ce52e681b130b98819a07
alfred-scholz-platz,"Alfred-Scholz-Platz in Berlin, Germany",52.4793239,13.4374919,1,,,,,,,,Legislator,"Alfred-Scholz-Platz in Berlin, Germany",,german_fires_berlin_locations,d696c2b9318d7e285817e2cc4193730b,german_fires_berlin_locations__d696c2b9318d7e285817e2cc4193730b
alfred-siggel-weg,"Alfred-Siggel-Weg in Berlin, Germany",52.4745149,13.5369138,1,,,,,,,,Organization,"Alfred-Siggel-Weg in Berlin, Germany",,german_fires_berlin_locations,5b8d820ac59dc582bca3eefa2e18b6bf,german_fires_berlin_locations__5b8d820ac59dc582bca3eefa2e18b6bf
alfredstrasse,"Alfredstrasse in Berlin, Germany",52.5135009,13.4900171,1,,,,,,,,Person,"Alfredstrasse in Berlin, Germany",,german_fires_berlin_locations,f6fbe39ffe6536d1925c5106bb86fea0,german_fires_berlin_locations__f6fbe39ffe6536d1925c5106bb86fea0
alice-archenhold-weg,"Alice-Archenhold-Weg in Berlin, Germany",52.4533466,13.5387982,1,,,,,,,,Legislator,"Alice-Archenhold-Weg in Berlin, Germany",,german_fires_berlin_locations,7110c2ab8f1e7e1419b32ca6d1d14211,german_fires_berlin_locations__7110c2ab8f1e7e1419b32ca6d1d14211
alice-berend-strasse,"Alice-Berend-Strasse in Berlin, Germany",52.5201803,13.3585194,1,,,,,,,,Keyphrase,"Alice-Berend-Strasse in Berlin, Germany",,german_fires_berlin_locations,de85cb15179e9f2a8b3cea6f2c5cd9ee,german_fires_berlin_locations__de85cb15179e9f2a8b3cea6f2c5cd9ee
alice-herz-platz,"Alice-Herz-Platz in Berlin, Germany",52.5140559,13.6074915,1,,,,,,,,Pipeline,"Alice-Herz-Platz in Berlin, Germany",,german_fires_berlin_locations,5c454f3424edeb339e2d418b34d5d230,german_fires_berlin_locations__5c454f3424edeb339e2d418b34d5d230
alice-salomon-platz,"Alice-Salomon-Platz in Berlin, Germany",52.5368921,13.6037299,1,,,,,,,,AAEntity,"Alice-Salomon-Platz in Berlin, Germany",,german_fires_berlin_locations,ddc53ac13e82c4ae7f347b5acf64f154,german_fires_berlin_locations__ddc53ac13e82c4ae7f347b5acf64f154
alice-und-hella-hirsch-ring,"Alice-und-Hella-Hirsch-Ring in Berlin, Germany",52.4966673,13.482199,1,,,,,,,,IndustryTerm,"Alice-und-Hella-Hirsch-Ring in Berlin, Germany",,german_fires_berlin_locations,670ccbd1836c85af8cae73aca786db03,german_fires_berlin_locations__670ccbd1836c85af8cae73aca786db03
alkenweg,"Alkenweg in Berlin, Germany",52.4254695,13.5709671,1,,,,,,,,Diplomat,"Alkenweg in Berlin, Germany",,german_fires_berlin_locations,e4a6f1d918e0f9351d824a42ea079e0d,german_fires_berlin_locations__e4a6f1d918e0f9351d824a42ea079e0d
allee der kosmonauten,"Allee der Kosmonauten in Berlin, Germany",52.5312225,13.5472907,1,,,,,,,,Organization,"Allee der Kosmonauten in Berlin, Germany",,german_fires_berlin_locations,54ec090d549f978f4ebc5789c69008c4,german_fires_berlin_locations__54ec090d549f978f4ebc5789c69008c4
allee du stade,"Allee du Stade in Berlin, Germany",52.5521871,13.3085568,1,,,,,,,,Diplomat,"Allee du Stade in Berlin, Germany",,german_fires_berlin_locations,dad1950977fd2c15c094b85c29d3ce8e,german_fires_berlin_locations__dad1950977fd2c15c094b85c29d3ce8e
allee marie curie,"Allee Marie Curie in Berlin, Germany",52.5050779,13.5004291,1,,,,,,,,space,"Allee Marie Curie in Berlin, Germany",,german_fires_berlin_locations,54c005741020d07e72cbf78dcbb4910c,german_fires_berlin_locations__54c005741020d07e72cbf78dcbb4910c
allee pierre de coubertin,"Allee Pierre de Coubertin in Berlin, Germany",45.5834625,-73.6114605,1,,,,,,,,Refinery,"Allee Pierre de Coubertin in Berlin, Germany",,german_fires_berlin_locations,8dea6411640ea125ca02fa65a8bc5cf3,german_fires_berlin_locations__8dea6411640ea125ca02fa65a8bc5cf3
allee st. exupéry,"Allee St. Exupéry in Berlin, Germany",52.569515,13.2975298,1,,,,,,,,ForeignMinister,"Allee St. Exupéry in Berlin, Germany",,german_fires_berlin_locations,8ca56c92e42722d468920478c7244b63,german_fires_berlin_locations__8ca56c92e42722d468920478c7244b63
allendeweg,"Allendeweg in Berlin, Germany",52.4436948,13.5865545,1,,,,,,,,Legislator,"Allendeweg in Berlin, Germany",,german_fires_berlin_locations,0cbed6f27784dbc0e4beff1d39383157,german_fires_berlin_locations__0cbed6f27784dbc0e4beff1d39383157
allendorfer weg,"Allendorfer Weg in Berlin, Germany",52.5366718,13.5171174,1,,,,,,,,Wells,"Allendorfer Weg in Berlin, Germany",,german_fires_berlin_locations,cafd2c6417d8f94c6e3800beb7783c1c,german_fires_berlin_locations__cafd2c6417d8f94c6e3800beb7783c1c
allerstrasse,"Allerstrasse in Berlin, Germany",52.4747168,13.4230288,1,,,,,,,,LegislativeCommittee,"Allerstrasse in Berlin, Germany",,german_fires_berlin_locations,63b6af42cc7393c76c3ba26054fad71f,german_fires_berlin_locations__63b6af42cc7393c76c3ba26054fad71f
allgauer weg,"Allgauer Weg in Berlin, Germany",52.4369335,13.4004476,1,,,,,,,,Exec,"Allgauer Weg in Berlin, Germany",,german_fires_berlin_locations,286c6c2f2e9f25316557c833628c49df,german_fires_berlin_locations__286c6c2f2e9f25316557c833628c49df
allmendeweg,"Allmendeweg in Berlin, Germany",52.602989,13.2992858,1,,,,,,,,CompanyKeyword,"Allmendeweg in Berlin, Germany",,german_fires_berlin_locations,62ebc1bdabe2be76db7d6013aa95a94b,german_fires_berlin_locations__62ebc1bdabe2be76db7d6013aa95a94b
allmersweg,"Allmersweg in Berlin, Germany",52.4514504,13.5110616,1,,,,,,,,News,"Allmersweg in Berlin, Germany",,german_fires_berlin_locations,6071762c39ee9c1a11e29b89a9921f62,german_fires_berlin_locations__6071762c39ee9c1a11e29b89a9921f62
almazeile,"Almazeile in Berlin, Germany",52.5701062,13.2302182,1,,,,,,,,Exec,"Almazeile in Berlin, Germany",,german_fires_berlin_locations,a29df600796747879adfc6f792d7f5bd,german_fires_berlin_locations__a29df600796747879adfc6f792d7f5bd
almstadtstrasse,"Almstadtstrasse in Berlin, Germany",52.5263261,13.4097004,1,,,,,,,,Refinery,"Almstadtstrasse in Berlin, Germany",,german_fires_berlin_locations,fbc9552640dcbdf50cef66fb24efc6d4,german_fires_berlin_locations__fbc9552640dcbdf50cef66fb24efc6d4
almutstrasse,"Almutstrasse in Berlin, Germany",52.614941,13.3181982,1,,,,,,,,Legislator,"Almutstrasse in Berlin, Germany",,german_fires_berlin_locations,b8b7bd1a9e37f6962fce6f1ca440dea9,german_fires_berlin_locations__b8b7bd1a9e37f6962fce6f1ca440dea9
almweg,"Almweg in Berlin, Germany",52.4305737,13.4033488,1,,,,,,,,ForeignMinistry,"Almweg in Berlin, Germany",,german_fires_berlin_locations,3f0856615bf03769a94a53a903fc39eb,german_fires_berlin_locations__3f0856615bf03769a94a53a903fc39eb
aloisiusweg,"Aloisiusweg in Berlin, Germany",52.5096488,13.3759441,1,,,,,,,,Consulates,"Aloisiusweg in Berlin, Germany",,german_fires_berlin_locations,85ca2f95c2510b5d91cd30f6fc46f274,german_fires_berlin_locations__85ca2f95c2510b5d91cd30f6fc46f274
alpenberger strasse,"Alpenberger Strasse in Berlin, Germany",52.6365086,13.5191889,1,,,,,,,,space,"Alpenberger Strasse in Berlin, Germany",,german_fires_berlin_locations,a1a8031315ebe3ab97d40b9f0c7141da,german_fires_berlin_locations__a1a8031315ebe3ab97d40b9f0c7141da
alpenrosenweg,"Alpenrosenweg in Berlin, Germany",52.4511316,13.4835688,1,,,,,,,,Shipping,"Alpenrosenweg in Berlin, Germany",,german_fires_berlin_locations,bab520fe9db8e44bfe92e5506e6a986d,german_fires_berlin_locations__bab520fe9db8e44bfe92e5506e6a986d
alpenveilchenweg,"Alpenveilchenweg in Berlin, Germany",52.5025777,13.5748503,1,,,,,,,,Wells,"Alpenveilchenweg in Berlin, Germany",,german_fires_berlin_locations,a3bce026960d3a87f2686357f4a4cae7,german_fires_berlin_locations__a3bce026960d3a87f2686357f4a4cae7
alpnacher weg,"Alpnacher Weg in Berlin, Germany",52.5689945,13.4489824,1,,,,,,,,Media,"Alpnacher Weg in Berlin, Germany",,german_fires_berlin_locations,090c0c68a12e2624751aaf2031a283d5,german_fires_berlin_locations__090c0c68a12e2624751aaf2031a283d5
alsaceweg,"Alsaceweg in Berlin, Germany",52.6032973,13.4058741,1,,,,,,,,Media,"Alsaceweg in Berlin, Germany",,german_fires_berlin_locations,d38c9bf6299801da0d1324332c528ead,german_fires_berlin_locations__d38c9bf6299801da0d1324332c528ead
alsbacher weg,"Alsbacher Weg in Berlin, Germany",52.4488441,13.2365744,1,,,,,,,,Shipping,"Alsbacher Weg in Berlin, Germany",,german_fires_berlin_locations,60ed59f66015bb98e7c4ce0d1ea192e7,german_fires_berlin_locations__60ed59f66015bb98e7c4ce0d1ea192e7
alsenbrucke,"Alsenbrucke in Berlin, Germany",52.4963434,13.4637391,1,,,,,,,,Consulates,"Alsenbrucke in Berlin, Germany",,german_fires_berlin_locations,2270dc4092d258bccb71f64f0c6704bf,german_fires_berlin_locations__2270dc4092d258bccb71f64f0c6704bf
alsenstrasse,"Alsenstrasse in Berlin, Germany",52.414133,13.148384,1,,,,,,,,Wells,"Alsenstrasse in Berlin, Germany",,german_fires_berlin_locations,2b48098c0ad6ee9c5ddfc8d9f5922d7a,german_fires_berlin_locations__2b48098c0ad6ee9c5ddfc8d9f5922d7a
alsenzer weg,"Alsenzer Weg in Berlin, Germany",52.4108267,13.6564471,1,,,,,,,,Diplomat,"Alsenzer Weg in Berlin, Germany",,german_fires_berlin_locations,c02776f4273ab2695963a4ffcfcf0956,german_fires_berlin_locations__c02776f4273ab2695963a4ffcfcf0956
alsheimer strasse,"Alsheimer Strasse in Berlin, Germany",52.4412065,13.3467768,1,,,,,,,,Diplomat,"Alsheimer Strasse in Berlin, Germany",,german_fires_berlin_locations,0f5b574a512457a923ef99dbe9ca7385,german_fires_berlin_locations__0f5b574a512457a923ef99dbe9ca7385
alsterweg,"Alsterweg in Berlin, Germany",52.4158082,13.2746454,1,,,,,,,,FTO,"Alsterweg in Berlin, Germany",,german_fires_berlin_locations,d8cad108d4be9bf865c5adc8d6c244d1,german_fires_berlin_locations__d8cad108d4be9bf865c5adc8d6c244d1
alt-biesdorf,"Alt-Biesdorf in Berlin, Germany",52.5086954,13.5587874,1,,,,,,,,Refinery,"Alt-Biesdorf in Berlin, Germany",,german_fires_berlin_locations,d624f071774e94f99eba6b0b8f6d7167,german_fires_berlin_locations__d624f071774e94f99eba6b0b8f6d7167
alt-blankenburg,"Alt-Blankenburg in Berlin, Germany",52.5930231,13.4557654,1,,,,,,,,Organization,"Alt-Blankenburg in Berlin, Germany",,german_fires_berlin_locations,80555258103d126707e46a21ef478cb5,german_fires_berlin_locations__80555258103d126707e46a21ef478cb5
alt-britz,"Alt-Britz in Berlin, Germany",52.4482982,13.4388444,1,,,,,,,,Organization,"Alt-Britz in Berlin, Germany",,german_fires_berlin_locations,47ec746879a03b18e477c397e917b9fc,german_fires_berlin_locations__47ec746879a03b18e477c397e917b9fc
alt-buch,"Alt-Buch in Berlin, Germany",52.6357183,13.50106,1,,,,,,,,Person,"Alt-Buch in Berlin, Germany",,german_fires_berlin_locations,97e732298c4c21a02c4ded5f28fd9753,german_fires_berlin_locations__97e732298c4c21a02c4ded5f28fd9753
alt-buckow,"Alt-Buckow in Berlin, Germany",52.4220231,13.4322626,1,,,,,,,,News,"Alt-Buckow in Berlin, Germany",,german_fires_berlin_locations,384046f282442339e443a5f2f56ea29c,german_fires_berlin_locations__384046f282442339e443a5f2f56ea29c
alt-friedrichsfelde,"Alt-Friedrichsfelde in Berlin, Germany",52.5104022,13.5231717,1,,,,,,,,Exec,"Alt-Friedrichsfelde in Berlin, Germany",,german_fires_berlin_locations,318168b61023ba3dbd8f1d804732fd15,german_fires_berlin_locations__318168b61023ba3dbd8f1d804732fd15
alt-gatow,"Alt-Gatow in Berlin, Germany",52.4863301,13.1825186,1,,,,,,,,FTO,"Alt-Gatow in Berlin, Germany",,german_fires_berlin_locations,03462f69b706de4d62c0f33b251def3a,german_fires_berlin_locations__03462f69b706de4d62c0f33b251def3a
alt-heiligensee,"Alt-Heiligensee in Berlin, Germany",52.6070625,13.2128539,1,,,,,,,,DiplomaticFacilities,"Alt-Heiligensee in Berlin, Germany",,german_fires_berlin_locations,d8d058a64496c5b1c6304995182d7f8e,german_fires_berlin_locations__d8d058a64496c5b1c6304995182d7f8e
alt-hellersdorf,"Alt-Hellersdorf in Berlin, Germany",52.5389434,13.5949884,1,,,,,,,,Exec,"Alt-Hellersdorf in Berlin, Germany",,german_fires_berlin_locations,8150b7ce10ffb4e514906c00bc8755a5,german_fires_berlin_locations__8150b7ce10ffb4e514906c00bc8755a5
alt-hermsdorf,"Alt-Hermsdorf in Berlin, Germany",52.6148921,13.3197185,1,,,,,,,,ForeignMinister,"Alt-Hermsdorf in Berlin, Germany",,german_fires_berlin_locations,f64433aed494c349a7a9202e29594c1c,german_fires_berlin_locations__f64433aed494c349a7a9202e29594c1c
alt-karow,"Alt-Karow in Berlin, Germany",52.6123995,13.4833804,1,,,,,,,,IndustryTerm,"Alt-Karow in Berlin, Germany",,german_fires_berlin_locations,74f0b3de19e247cc67f5a7675f775569,german_fires_berlin_locations__74f0b3de19e247cc67f5a7675f775569
alt-kaulsdorf,"Alt-Kaulsdorf in Berlin, Germany",52.5050993,13.589665,1,,,,,,,,Media,"Alt-Kaulsdorf in Berlin, Germany",,german_fires_berlin_locations,1a1ad1ec865aee0bdc35bbcd4ac5f57a,german_fires_berlin_locations__1a1ad1ec865aee0bdc35bbcd4ac5f57a
alt-kladow,"Alt-Kladow in Berlin, Germany",52.452457,13.1459571,1,,,,,,,,Exec,"Alt-Kladow in Berlin, Germany",,german_fires_berlin_locations,69293d9e62417dc32623bcc689692bcd,german_fires_berlin_locations__69293d9e62417dc32623bcc689692bcd
alt-kopenick,"Alt-Kopenick in Berlin, Germany",52.4458909,13.5746686,1,,,,,,,,News,"Alt-Kopenick in Berlin, Germany",,german_fires_berlin_locations,5f26aba408b55137e17016c216cecd67,german_fires_berlin_locations__5f26aba408b55137e17016c216cecd67
alt-lankwitz,"Alt-Lankwitz in Berlin, Germany",52.437225,13.3587208,1,,,,,,,,Consulates,"Alt-Lankwitz in Berlin, Germany",,german_fires_berlin_locations,e8a024985503d5aaa1b2613cc3535f24,german_fires_berlin_locations__e8a024985503d5aaa1b2613cc3535f24
alt-lichtenrade,"Alt-Lichtenrade in Berlin, Germany",52.3965016,13.4108772,1,,,,,,,,Keyphrase,"Alt-Lichtenrade in Berlin, Germany",,german_fires_berlin_locations,0c9ec553844a73f30adbd5047b45609c,german_fires_berlin_locations__0c9ec553844a73f30adbd5047b45609c
alt-lietzow,"Alt-Lietzow in Berlin, Germany",52.5181476,13.3105429,1,,,,,,,,Consulates,"Alt-Lietzow in Berlin, Germany",,german_fires_berlin_locations,f12ee7ff245dc1cacb04bbf85e536f8c,german_fires_berlin_locations__f12ee7ff245dc1cacb04bbf85e536f8c
alt-lubars,"Alt-Lubars in Berlin, Germany",52.6204157,13.3567075,1,,,,,,,,CompanyKeyword,"Alt-Lubars in Berlin, Germany",,german_fires_berlin_locations,8a92170f987fea65fb5d05dfecd2194b,german_fires_berlin_locations__8a92170f987fea65fb5d05dfecd2194b
alt-mahlsdorf,"Alt-Mahlsdorf in Berlin, Germany",52.5047822,13.6134247,1,,,,,,,,Media,"Alt-Mahlsdorf in Berlin, Germany",,german_fires_berlin_locations,5fe62c1a26ce3af273932c18e41fe05b,german_fires_berlin_locations__5fe62c1a26ce3af273932c18e41fe05b
alt-mariendorf,"Alt-Mariendorf in Berlin, Germany",52.4403433,13.3883012,1,,,,,,,,Keyphrase,"Alt-Mariendorf in Berlin, Germany",,german_fires_berlin_locations,f8972cf0873b1f950d84233a870bebc0,german_fires_berlin_locations__f8972cf0873b1f950d84233a870bebc0
alt-marienfelde,"Alt-Marienfelde in Berlin, Germany",52.4123041,13.3683372,1,,,,,,,,space,"Alt-Marienfelde in Berlin, Germany",,german_fires_berlin_locations,14be71140c08a472fe5927367c2af7b9,german_fires_berlin_locations__14be71140c08a472fe5927367c2af7b9
alt-marzahn,"Alt-Marzahn in Berlin, Germany",52.5432979,13.5599285,1,,,,,,,,Person,"Alt-Marzahn in Berlin, Germany",,german_fires_berlin_locations,fe9809b815261a6a9fc6630f7f012d50,german_fires_berlin_locations__fe9809b815261a6a9fc6630f7f012d50
alt-moabit,"Alt-Moabit in Berlin, Germany",52.5247264,13.3482444,1,,,,,,,,Refinery,"Alt-Moabit in Berlin, Germany",,german_fires_berlin_locations,dc12df55c1b45fad7fe324c0bd7b495b,german_fires_berlin_locations__dc12df55c1b45fad7fe324c0bd7b495b
alt-muggelheim,"Alt-Muggelheim in Berlin, Germany",52.4119776,13.6628956,1,,,,,,,,space,"Alt-Muggelheim in Berlin, Germany",,german_fires_berlin_locations,7f6decbea36ebb6fd0e0f66b63751fe3,german_fires_berlin_locations__7f6decbea36ebb6fd0e0f66b63751fe3
alt-pichelsdorf,"Alt-Pichelsdorf in Berlin, Germany",52.511585,13.1990942,1,,,,,,,,space,"Alt-Pichelsdorf in Berlin, Germany",,german_fires_berlin_locations,4a3cb77df5dba21084cd1f8b35dc6409,german_fires_berlin_locations__4a3cb77df5dba21084cd1f8b35dc6409
alt-reinickendorf,"Alt-Reinickendorf in Berlin, Germany",52.5750592,13.3531295,1,,,,,,,,Wells,"Alt-Reinickendorf in Berlin, Germany",,german_fires_berlin_locations,addbf249721c88027ea2c8d5931f60fd,german_fires_berlin_locations__addbf249721c88027ea2c8d5931f60fd
alt-rudow,"Alt-Rudow in Berlin, Germany",52.4195739,13.4931495,1,,,,,,,,Shipping,"Alt-Rudow in Berlin, Germany",,german_fires_berlin_locations,1550fc42c4b0e0c004d2805939deffad,german_fires_berlin_locations__1550fc42c4b0e0c004d2805939deffad
alt-schmockwitz,"Alt-Schmockwitz in Berlin, Germany",52.3749316,13.6502986,1,,,,,,,,CompanyKeyword,"Alt-Schmockwitz in Berlin, Germany",,german_fires_berlin_locations,2e32de3f2d94a55a3ef3fe2b192b7e79,german_fires_berlin_locations__2e32de3f2d94a55a3ef3fe2b192b7e79
alt-schonow,"Alt-Schonow in Berlin, Germany",52.4067856,13.2656288,1,,,,,,,,Legislator,"Alt-Schonow in Berlin, Germany",,german_fires_berlin_locations,ce127e1469ac124cd81c5f111fb31cca,german_fires_berlin_locations__ce127e1469ac124cd81c5f111fb31cca
alt-stralau,"Alt-Stralau in Berlin, Germany",52.494191,13.4706139,1,,,,,,,,Wells,"Alt-Stralau in Berlin, Germany",,german_fires_berlin_locations,608f62116ae7146205840b56450a2469,german_fires_berlin_locations__608f62116ae7146205840b56450a2469
alt-tegel,"Alt-Tegel in Berlin, Germany",52.5885431,13.278692,1,,,,,,,,News,"Alt-Tegel in Berlin, Germany",,german_fires_berlin_locations,252e5fd930e6de5eb534a17fc60619c7,german_fires_berlin_locations__252e5fd930e6de5eb534a17fc60619c7
alt-tempelhof,"Alt-Tempelhof in Berlin, Germany",52.465978,13.3831372,1,,,,,,,,Refinery,"Alt-Tempelhof in Berlin, Germany",,german_fires_berlin_locations,c11c74e0206057b4646c4267a094b35f,german_fires_berlin_locations__c11c74e0206057b4646c4267a094b35f
alt-treptow,"Alt-Treptow in Berlin, Germany",52.4917223,13.4577383,1,,,,,,,,space,"Alt-Treptow in Berlin, Germany",,german_fires_berlin_locations,433804dd8eb0bc0a7a35cfd5e4331389,german_fires_berlin_locations__433804dd8eb0bc0a7a35cfd5e4331389
alt-wittenau,"Alt-Wittenau in Berlin, Germany",52.5913932,13.3284266,1,,,,,,,,ForeignMinister,"Alt-Wittenau in Berlin, Germany",,german_fires_berlin_locations,48e5fd9de41f24ef52374996f726c29e,german_fires_berlin_locations__48e5fd9de41f24ef52374996f726c29e
altarsteinweg,"Altarsteinweg in Berlin, Germany",52.5968453,13.3923154,1,,,,,,,,Consulates,"Altarsteinweg in Berlin, Germany",,german_fires_berlin_locations,aeae813ae3e036ee31b43cf5af71c4ad,german_fires_berlin_locations__aeae813ae3e036ee31b43cf5af71c4ad
altdammer weg,"Altdammer Weg in Berlin, Germany",52.6249734,13.2416677,1,,,,,,,,Exec,"Altdammer Weg in Berlin, Germany",,german_fires_berlin_locations,498ee44bbedc1ca2480656603728e9da,german_fires_berlin_locations__498ee44bbedc1ca2480656603728e9da
altdorfer strasse,"Altdorfer Strasse in Berlin, Germany",52.4291953,13.2980945,1,,,,,,,,Organization,"Altdorfer Strasse in Berlin, Germany",,german_fires_berlin_locations,90b17abc5237e0fc209f845fbe433080,german_fires_berlin_locations__90b17abc5237e0fc209f845fbe433080
alte allee,"Alte Allee in Berlin, Germany",52.4927626,13.261555,1,,,,,,,,ForeignMinistry,"Alte Allee in Berlin, Germany",,german_fires_berlin_locations,4eda81d2819f407770ecd68d93484405,german_fires_berlin_locations__4eda81d2819f407770ecd68d93484405
alte brauerei,"Alte Brauerei in Berlin, Germany",52.4859469,13.3800542,1,,,,,,,,Legislator,"Alte Brauerei in Berlin, Germany",,german_fires_berlin_locations,f4545c4da30e7c72fba04a4a6dc50112,german_fires_berlin_locations__f4545c4da30e7c72fba04a4a6dc50112
alte fasanerie,"Alte Fasanerie in Berlin, Germany",52.6077925,13.365978,1,,,,,,,,Keyphrase,"Alte Fasanerie in Berlin, Germany",,german_fires_berlin_locations,8d49eeaa0bf75dcfa3c49aabeb3b24a5,german_fires_berlin_locations__8d49eeaa0bf75dcfa3c49aabeb3b24a5
alte hellersdorfer strasse,"Alte Hellersdorfer Strasse in Berlin, Germany",52.5408733,13.590879,1,,,,,,,,Pipeline,"Alte Hellersdorfer Strasse in Berlin, Germany",,german_fires_berlin_locations,6ed3c27c2ec786ba7582d7e58a368a3b,german_fires_berlin_locations__6ed3c27c2ec786ba7582d7e58a368a3b
alte jakobstrasse,"Alte Jakobstrasse in Berlin, Germany",52.5058105,13.4010993,1,,,,,,,,AAEntity,"Alte Jakobstrasse in Berlin, Germany",,german_fires_berlin_locations,f0e0fa722d3cdf6c13ed546df80e2ebc,german_fires_berlin_locations__f0e0fa722d3cdf6c13ed546df80e2ebc
alte kaulsdorfer strasse,"Alte Kaulsdorfer Strasse in Berlin, Germany",52.4603712,13.5780634,1,,,,,,,,Refinery,"Alte Kaulsdorfer Strasse in Berlin, Germany",,german_fires_berlin_locations,34f6004190f3ca2946ae559a45bfbc5e,german_fires_berlin_locations__34f6004190f3ca2946ae559a45bfbc5e
alte leipziger strasse,"Alte Leipziger Strasse in Berlin, Germany",52.5129241,13.4000374,1,,,,,,,,Wells,"Alte Leipziger Strasse in Berlin, Germany",,german_fires_berlin_locations,2d6d95fffa9380734be668ee0de1159a,german_fires_berlin_locations__2d6d95fffa9380734be668ee0de1159a
alte poststrasse,"Alte Poststrasse in Berlin, Germany",52.4655552,13.2508974,1,,,,,,,,Wells,"Alte Poststrasse in Berlin, Germany",,german_fires_berlin_locations,6bb223b4431b6d72d49d528553b1e5d0,german_fires_berlin_locations__6bb223b4431b6d72d49d528553b1e5d0
alte potsdamer strasse,"Alte Potsdamer Strasse in Berlin, Germany",52.5084001,13.374251,1,,,,,,,,Exec,"Alte Potsdamer Strasse in Berlin, Germany",,german_fires_berlin_locations,f2b080d7dcd2cbcff7c33405d79cb105,german_fires_berlin_locations__f2b080d7dcd2cbcff7c33405d79cb105
alte rhinstrasse,"Alte Rhinstrasse in Berlin, Germany",52.5340226,13.5197993,1,,,,,,,,Exec,"Alte Rhinstrasse in Berlin, Germany",,german_fires_berlin_locations,31186ef5316e6f1d3d418897beea662b,german_fires_berlin_locations__31186ef5316e6f1d3d418897beea662b
alte schonhauser strasse,"Alte Schonhauser Strasse in Berlin, Germany",52.5269628,13.4080072,1,,,,,,,,ForeignMinistry,"Alte Schonhauser Strasse in Berlin, Germany",,german_fires_berlin_locations,8ece47c7103b8987a019f9352345cc51,german_fires_berlin_locations__8ece47c7103b8987a019f9352345cc51
alte spandauer poststrasse,"Alte Spandauer Poststrasse in Berlin, Germany",52.4964137,13.2275925,1,,,,,,,,Organization,"Alte Spandauer Poststrasse in Berlin, Germany",,german_fires_berlin_locations,beb52c608e926de8ba31332df90fda05,german_fires_berlin_locations__beb52c608e926de8ba31332df90fda05
altenauer weg,"Altenauer Weg in Berlin, Germany",52.4195235,13.3265022,1,,,,,,,,IndustryTerm,"Altenauer Weg in Berlin, Germany",,german_fires_berlin_locations,2e24aa229fc581c65f5196bc36cf4c44,german_fires_berlin_locations__2e24aa229fc581c65f5196bc36cf4c44
altenberger weg,"Altenberger Weg in Berlin, Germany",52.5883469,13.3990913,1,,,,,,,,Exec,"Altenberger Weg in Berlin, Germany",,german_fires_berlin_locations,1be96cca15ab8854b013b0fe990be2e6,german_fires_berlin_locations__1be96cca15ab8854b013b0fe990be2e6
altenbraker strasse,"Altenbraker Strasse in Berlin, Germany",52.4701479,13.4324133,1,,,,,,,,DiplomaticFacilities,"Altenbraker Strasse in Berlin, Germany",,german_fires_berlin_locations,27a1fa866bd66d5fe1b17e72dd30696b,german_fires_berlin_locations__27a1fa866bd66d5fe1b17e72dd30696b
altenburger allee,"Altenburger Allee in Berlin, Germany",52.5189286,13.2599529,1,,,,,,,,Consulates,"Altenburger Allee in Berlin, Germany",,german_fires_berlin_locations,b04b6f337c0c562502e8d0ba4d16810b,german_fires_berlin_locations__b04b6f337c0c562502e8d0ba4d16810b
altenburger strasse,"Altenburger Strasse in Berlin, Germany",52.4171609,13.3459408,1,,,,,,,,IndustryTerm,"Altenburger Strasse in Berlin, Germany",,german_fires_berlin_locations,62f80b6c261a581da65ecb0b335f72e4,german_fires_berlin_locations__62f80b6c261a581da65ecb0b335f72e4
altenescher weg,"Altenescher Weg in Berlin, Germany",52.5396134,13.4557746,1,,,,,,,,Pipeline,"Altenescher Weg in Berlin, Germany",,german_fires_berlin_locations,20cb3fef493f120ddac59a03f87a38eb,german_fires_berlin_locations__20cb3fef493f120ddac59a03f87a38eb
altenhofer strasse,"Altenhofer Strasse in Berlin, Germany",52.5352941,13.4804808,1,,,,,,,,Legislator,"Altenhofer Strasse in Berlin, Germany",,german_fires_berlin_locations,2d7638f7f1079c4b5ff2ba4117b43bec,german_fires_berlin_locations__2d7638f7f1079c4b5ff2ba4117b43bec
altenhofer weg,"Altenhofer Weg in Berlin, Germany",52.5875714,13.2959584,1,,,,,,,,Wells,"Altenhofer Weg in Berlin, Germany",,german_fires_berlin_locations,d695b2267e75f926ccf43c1bd2751059,german_fires_berlin_locations__d695b2267e75f926ccf43c1bd2751059
altensteinstrasse,"Altensteinstrasse in Berlin, Germany",52.4522248,13.2970499,1,,,,,,,,LegislativeCommittee,"Altensteinstrasse in Berlin, Germany",,german_fires_berlin_locations,b67916f1d7f4a6ecdf5f608795622ee2,german_fires_berlin_locations__b67916f1d7f4a6ecdf5f608795622ee2
altentreptower strasse,"Altentreptower Strasse in Berlin, Germany",52.513571,13.5708724,1,,,,,,,,FTO,"Altentreptower Strasse in Berlin, Germany",,german_fires_berlin_locations,51391f03ab7cd6f9526338cb5c62f63d,german_fires_berlin_locations__51391f03ab7cd6f9526338cb5c62f63d
alter bernauer heerweg,"Alter Bernauer Heerweg in Berlin, Germany",52.613606,13.36471,1,,,,,,,,IndustryTerm,"Alter Bernauer Heerweg in Berlin, Germany",,german_fires_berlin_locations,3f2991b8f54312f0a6bc46d96da2476a,german_fires_berlin_locations__3f2991b8f54312f0a6bc46d96da2476a
alter fischerweg,"Alter Fischerweg in Berlin, Germany",52.4579921,13.6933074,1,,,,,,,,CompanyKeyword,"Alter Fischerweg in Berlin, Germany",,german_fires_berlin_locations,73db8c17ec4c9ca9a471bfcfb9d97f66,german_fires_berlin_locations__73db8c17ec4c9ca9a471bfcfb9d97f66
alter hegemeisterweg,"Alter Hegemeisterweg in Berlin, Germany",52.4463094,13.6879995,1,,,,,,,,ForeignMinistry,"Alter Hegemeisterweg in Berlin, Germany",,german_fires_berlin_locations,0f79a220b248cc1d4e4dae7c61af20a7,german_fires_berlin_locations__0f79a220b248cc1d4e4dae7c61af20a7
alter markt,"Alter Markt in Berlin, Germany",52.4452727,13.578829,1,,,,,,,,Organization,"Alter Markt in Berlin, Germany",,german_fires_berlin_locations,960d4504dc16102cd2249138bdc5b1c7,german_fires_berlin_locations__960d4504dc16102cd2249138bdc5b1c7
alter radelander weg,"Alter Radelander Weg in Berlin, Germany",52.3919739,13.6034994,1,,,,,,,,Refinery,"Alter Radelander Weg in Berlin, Germany",,german_fires_berlin_locations,da41672afbf2572b303c096b757adba9,german_fires_berlin_locations__da41672afbf2572b303c096b757adba9
alter schonefelder weg,"Alter Schonefelder Weg in Berlin, Germany",52.4193873,13.5370263,1,,,,,,,,News,"Alter Schonefelder Weg in Berlin, Germany",,german_fires_berlin_locations,88d62869b2cb3c34a14944bafcf5e4e9,german_fires_berlin_locations__88d62869b2cb3c34a14944bafcf5e4e9
alter segelfliegerdamm,"Alter Segelfliegerdamm in Berlin, Germany",52.4383349,13.5070467,1,,,,,,,,Person,"Alter Segelfliegerdamm in Berlin, Germany",,german_fires_berlin_locations,723ac4240f717f05ec43e0c3a0c5766c,german_fires_berlin_locations__723ac4240f717f05ec43e0c3a0c5766c
alter wiesenweg,"Alter Wiesenweg in Berlin, Germany",52.5519697,13.2751611,1,,,,,,,,Person,"Alter Wiesenweg in Berlin, Germany",,german_fires_berlin_locations,edb5ba2d114a085c477ccd1f9d355a70,german_fires_berlin_locations__edb5ba2d114a085c477ccd1f9d355a70
altes gaswerk mariendorf,"Altes Gaswerk Mariendorf in Berlin, Germany",52.4399483,13.3718393,1,,,,,,,,Shipping,"Altes Gaswerk Mariendorf in Berlin, Germany",,german_fires_berlin_locations,ef35a4ad8a6a0b9922dba6153aefb3e7,german_fires_berlin_locations__ef35a4ad8a6a0b9922dba6153aefb3e7
altglienicker brucke,"Altglienicker Brucke in Berlin, Germany",52.424295,13.5435102,1,,,,,,,,Pipeline,"Altglienicker Brucke in Berlin, Germany",,german_fires_berlin_locations,4c39e4c97b6aa1e7904d80e252379f9d,german_fires_berlin_locations__4c39e4c97b6aa1e7904d80e252379f9d
altglienicker grund,"Altglienicker Grund in Berlin, Germany",52.4080356,13.5293603,1,,,,,,,,DiplomaticFacilities,"Altglienicker Grund in Berlin, Germany",,german_fires_berlin_locations,9a6553c2613ed53af6e51bf62c215ade,german_fires_berlin_locations__9a6553c2613ed53af6e51bf62c215ade
altgrabauer strasse,"Altgrabauer Strasse in Berlin, Germany",52.4696004,13.5714184,1,,,,,,,,DiplomaticFacilities,"Altgrabauer Strasse in Berlin, Germany",,german_fires_berlin_locations,f701b5132db4b1506e75d146c3900494,german_fires_berlin_locations__f701b5132db4b1506e75d146c3900494
althansweg,"Althansweg in Berlin, Germany",52.5365143,13.5583715,1,,,,,,,,LegislativeCommittee,"Althansweg in Berlin, Germany",,german_fires_berlin_locations,6593a5115dd26cec7b10221d9b0a64a2,german_fires_berlin_locations__6593a5115dd26cec7b10221d9b0a64a2
altheider strasse,"Altheider Strasse in Berlin, Germany",52.4377016,13.5431241,1,,,,,,,,Wells,"Altheider Strasse in Berlin, Germany",,german_fires_berlin_locations,0a76e2b48dbd83444afca47e3f3836e6,german_fires_berlin_locations__0a76e2b48dbd83444afca47e3f3836e6
althoffplatz,"Althoffplatz in Berlin, Germany",52.4571514,13.3314288,1,,,,,,,,LegislativeCommittee,"Althoffplatz in Berlin, Germany",,german_fires_berlin_locations,051df44a1fc9db2ed7769371bfa72078,german_fires_berlin_locations__051df44a1fc9db2ed7769371bfa72078
althoffstrasse,"Althoffstrasse in Berlin, Germany",52.4572364,13.3286514,1,,,,,,,,Diplomat,"Althoffstrasse in Berlin, Germany",,german_fires_berlin_locations,3df9c9694d38f302c05c807e7a665de6,german_fires_berlin_locations__3df9c9694d38f302c05c807e7a665de6
altkanzlerstrasse,"Altkanzlerstrasse in Berlin, Germany",52.4460794,13.2456659,1,,,,,,,,DiplomaticFacilities,"Altkanzlerstrasse in Berlin, Germany",,german_fires_berlin_locations,84aa7c06b5ba22e3e50efa09ae46ecf0,german_fires_berlin_locations__84aa7c06b5ba22e3e50efa09ae46ecf0
altkanzlerstrassenbrucke,"Altkanzlerstrassenbrucke in Berlin, Germany",52.5192991,13.3973103,1,,,,,,,,CompanyKeyword,"Altkanzlerstrassenbrucke in Berlin, Germany",,german_fires_berlin_locations,f49227e5f407072f6afc1b2ec63d2bc9,german_fires_berlin_locations__f49227e5f407072f6afc1b2ec63d2bc9
altkircher strasse,"Altkircher Strasse in Berlin, Germany",52.4433833,13.2821627,1,,,,,,,,Shipping,"Altkircher Strasse in Berlin, Germany",,german_fires_berlin_locations,1e101d2a1b06a3447a927510a4b01c15,german_fires_berlin_locations__1e101d2a1b06a3447a927510a4b01c15
altlandsberger platz,"Altlandsberger Platz in Berlin, Germany",52.5427432,13.5734325,1,,,,,,,,ForeignMinistry,"Altlandsberger Platz in Berlin, Germany",,german_fires_berlin_locations,8881b48242f1352ce7b12a70757d23b2,german_fires_berlin_locations__8881b48242f1352ce7b12a70757d23b2
altmarkstrasse,"Altmarkstrasse in Berlin, Germany",52.4606697,13.3422413,1,,,,,,,,ForeignMinistry,"Altmarkstrasse in Berlin, Germany",,german_fires_berlin_locations,799b77e8d72c91e80b4c265b7c9c41cd,german_fires_berlin_locations__799b77e8d72c91e80b4c265b7c9c41cd
altonaer strasse,"Altonaer Strasse in Berlin, Germany",52.5172456,13.3438522,1,,,,,,,,Consulates,"Altonaer Strasse in Berlin, Germany",,german_fires_berlin_locations,14a779bc84c87aa81e8f8aa1239a64af,german_fires_berlin_locations__14a779bc84c87aa81e8f8aa1239a64af
altrader weg,"Altrader Weg in Berlin, Germany",52.4040852,13.5124103,1,,,,,,,,FTO,"Altrader Weg in Berlin, Germany",,german_fires_berlin_locations,1d5640559c3329649451bbc0e89a86dc,german_fires_berlin_locations__1d5640559c3329649451bbc0e89a86dc
altstadter ring,"Altstadter Ring in Berlin, Germany",52.5375402,13.2005121,1,,,,,,,,AAEntity,"Altstadter Ring in Berlin, Germany",,german_fires_berlin_locations,f80eecb390d2d79845248cc2adc64a7f,german_fires_berlin_locations__f80eecb390d2d79845248cc2adc64a7f
altvaterstrasse,"Altvaterstrasse in Berlin, Germany",52.437783,13.2068497,1,,,,,,,,DiplomaticFacilities,"Altvaterstrasse in Berlin, Germany",,german_fires_berlin_locations,6b17efa913c34ddda178a3c30eab0f5e,german_fires_berlin_locations__6b17efa913c34ddda178a3c30eab0f5e
alvenslebenplatz,"Alvenslebenplatz in Berlin, Germany",52.3833542,13.4058713,1,,,,,,,,space,"Alvenslebenplatz in Berlin, Germany",,german_fires_berlin_locations,4482ab73cf503e5d699fef41e50394ef,german_fires_berlin_locations__4482ab73cf503e5d699fef41e50394ef
alvenslebenstrasse,"Alvenslebenstrasse in Berlin, Germany",52.4956068,13.3633875,1,,,,,,,,News,"Alvenslebenstrasse in Berlin, Germany",,german_fires_berlin_locations,fcd6b811807706efa6fae1a61887f908,german_fires_berlin_locations__fcd6b811807706efa6fae1a61887f908
alwineweg,"Alwineweg in Berlin, Germany",52.5339035,13.569961,1,,,,,,,,ForeignMinistry,"Alwineweg in Berlin, Germany",,german_fires_berlin_locations,fe641e4d18f8066deaa0868d86b6ce92,german_fires_berlin_locations__fe641e4d18f8066deaa0868d86b6ce92
alzeyweg,"Alzeyweg in Berlin, Germany",52.515856,13.5066746,1,,,,,,,,News,"Alzeyweg in Berlin, Germany",,german_fires_berlin_locations,16f2c9a706cb47ed0d0181f104133d93,german_fires_berlin_locations__16f2c9a706cb47ed0d0181f104133d93
am adlergestell,"Am Adlergestell in Berlin, Germany",52.4383347,13.5392053,1,,,,,,,,Person,"Am Adlergestell in Berlin, Germany",,german_fires_berlin_locations,42e994f89cea795cae83434fa87be759,german_fires_berlin_locations__42e994f89cea795cae83434fa87be759
am ahornweg,"Am Ahornweg in Berlin, Germany",52.5776303,13.5323855,1,,,,,,,,Legislator,"Am Ahornweg in Berlin, Germany",,german_fires_berlin_locations,b32e6bc8eed6828bdc4cf7236294df0e,german_fires_berlin_locations__b32e6bc8eed6828bdc4cf7236294df0e
am akazienweg,"Am Akazienweg in Berlin, Germany",52.5694672,13.2067046,1,,,,,,,,Media,"Am Akazienweg in Berlin, Germany",,german_fires_berlin_locations,976c13ae73f31e9a95f2a283418040a9,german_fires_berlin_locations__976c13ae73f31e9a95f2a283418040a9
am alten fenn,"Am Alten Fenn in Berlin, Germany",52.4505753,13.5044443,1,,,,,,,,Refinery,"Am Alten Fenn in Berlin, Germany",,german_fires_berlin_locations,e1419b60ac24d1f6a2ab0e249de0d1cb,german_fires_berlin_locations__e1419b60ac24d1f6a2ab0e249de0d1cb
am alten flugplatz,"Am alten Flugplatz in Berlin, Germany",52.4839836,13.5420623,1,,,,,,,,Person,"Am alten Flugplatz in Berlin, Germany",,german_fires_berlin_locations,80b871fb7aea0234a9d3b25282fba6fb,german_fires_berlin_locations__80b871fb7aea0234a9d3b25282fba6fb
am alten friedhof,"Am Alten Friedhof in Berlin, Germany",52.4203705,13.5287772,1,,,,,,,,FTO,"Am Alten Friedhof in Berlin, Germany",,german_fires_berlin_locations,349889e8028f406985826296e2a01f4c,german_fires_berlin_locations__349889e8028f406985826296e2a01f4c
am alten gaswerk,"Am alten Gaswerk in Berlin, Germany",52.5373387,13.13016,1,,,,,,,,Wells,"Am alten Gaswerk in Berlin, Germany",,german_fires_berlin_locations,486a40295b3aaadd7ae794278fa7f340,german_fires_berlin_locations__486a40295b3aaadd7ae794278fa7f340
am alten lokschuppen,"Am Alten Lokschuppen in Berlin, Germany",52.504917,13.4825106,1,,,,,,,,IndustryTerm,"Am Alten Lokschuppen in Berlin, Germany",,german_fires_berlin_locations,5a9a6da426551799d962a4ff3636b92e,german_fires_berlin_locations__5a9a6da426551799d962a4ff3636b92e
am alten malchower graben,"Am alten Malchower Graben in Berlin, Germany",52.5738221,13.4886957,1,,,,,,,,space,"Am alten Malchower Graben in Berlin, Germany",,german_fires_berlin_locations,a52669314eb774964d23d4d8f78c3c22,german_fires_berlin_locations__a52669314eb774964d23d4d8f78c3c22
am amtsgraben,"Am Amtsgraben in Berlin, Germany",52.4430984,13.5854892,1,,,,,,,,Media,"Am Amtsgraben in Berlin, Germany",,german_fires_berlin_locations,4d67d15d56065da555914968017ca152,german_fires_berlin_locations__4d67d15d56065da555914968017ca152
am anger,"Am Anger in Berlin, Germany",52.4535805,13.2840884,1,,,,,,,,Wells,"Am Anger in Berlin, Germany",,german_fires_berlin_locations,636601fc00a9fa09dcadb6fa9b765bc1,german_fires_berlin_locations__636601fc00a9fa09dcadb6fa9b765bc1
am ansitz,"Am Ansitz in Berlin, Germany",52.6047992,13.3112682,1,,,,,,,,Consulates,"Am Ansitz in Berlin, Germany",,german_fires_berlin_locations,458434f7f3fc2367b76751408e1ff674,german_fires_berlin_locations__458434f7f3fc2367b76751408e1ff674
am appelhorst,"Am Appelhorst in Berlin, Germany",52.4208083,13.4526343,1,,,,,,,,LegislativeCommittee,"Am Appelhorst in Berlin, Germany",,german_fires_berlin_locations,8dd4c5d2f77c048346a643790ce352fa,german_fires_berlin_locations__8dd4c5d2f77c048346a643790ce352fa
am ausblick,"Am Ausblick in Berlin, Germany",52.6320661,13.2729025,1,,,,,,,,Exec,"Am Ausblick in Berlin, Germany",,german_fires_berlin_locations,a046fabd35e2ab770e4c2fb9b6d8dbf3,german_fires_berlin_locations__a046fabd35e2ab770e4c2fb9b6d8dbf3
am bachrain,"Am Bachrain in Berlin, Germany",52.5185907,13.5988461,1,,,,,,,,Person,"Am Bachrain in Berlin, Germany",,german_fires_berlin_locations,71f393874b692e3b32668d5fd3bb58f6,german_fires_berlin_locations__71f393874b692e3b32668d5fd3bb58f6
am bahndamm,"Am Bahndamm in Berlin, Germany",52.4276289,13.5511314,1,,,,,,,,Person,"Am Bahndamm in Berlin, Germany",,german_fires_berlin_locations,044f53e84bfc50fc50b2aa57be0db2f9,german_fires_berlin_locations__044f53e84bfc50fc50b2aa57be0db2f9
am bahnhof grunewald,"Am Bahnhof Grunewald in Berlin, Germany",52.4875345,13.2633597,1,,,,,,,,ForeignMinister,"Am Bahnhof Grunewald in Berlin, Germany",,german_fires_berlin_locations,568e89c33c5fd8d149465de0cc481524,german_fires_berlin_locations__568e89c33c5fd8d149465de0cc481524
am bahnhof jungfernheide,"Am Bahnhof Jungfernheide in Berlin, Germany",52.530705,13.3004976,1,,,,,,,,ForeignMinister,"Am Bahnhof Jungfernheide in Berlin, Germany",,german_fires_berlin_locations,f5731355da5d3fa070fa57be4832a5cb,german_fires_berlin_locations__f5731355da5d3fa070fa57be4832a5cb
am bahnhof spandau,"Am Bahnhof Spandau in Berlin, Germany",52.5344729,13.1948503,1,,,,,,,,AAEntity,"Am Bahnhof Spandau in Berlin, Germany",,german_fires_berlin_locations,0fa72b76d64ac138fe207272b892aa62,german_fires_berlin_locations__0fa72b76d64ac138fe207272b892aa62
am bahnhof westend,"Am Bahnhof Westend in Berlin, Germany",52.5178707,13.2854497,1,,,,,,,,LegislativeCommittee,"Am Bahnhof Westend in Berlin, Germany",,german_fires_berlin_locations,da6a2d1579d87b05fca4ce57d912db4d,german_fires_berlin_locations__da6a2d1579d87b05fca4ce57d912db4d
am bahnhof wuhlheide,"Am Bahnhof Wuhlheide in Berlin, Germany",52.4687599,13.5515714,1,,,,,,,,Diplomat,"Am Bahnhof Wuhlheide in Berlin, Germany",,german_fires_berlin_locations,6f41c2070bfdc703113f6b8c2f2f6be0,german_fires_berlin_locations__6f41c2070bfdc703113f6b8c2f2f6be0
am bakequell,"Am Bakequell in Berlin, Germany",52.4531534,13.3167962,1,,,,,,,,Pipeline,"Am Bakequell in Berlin, Germany",,german_fires_berlin_locations,cd645db97fe4c84117a9664f55c78e39,german_fires_berlin_locations__cd645db97fe4c84117a9664f55c78e39
am baltenring,"Am Baltenring in Berlin, Germany",52.5242429,13.5996167,1,,,,,,,,ForeignMinistry,"Am Baltenring in Berlin, Germany",,german_fires_berlin_locations,fd9a357811a3400008d195fdf56749ec,german_fires_berlin_locations__fd9a357811a3400008d195fdf56749ec
am barensprung,"Am Barensprung in Berlin, Germany",52.6102428,13.2449232,1,,,,,,,,Organization,"Am Barensprung in Berlin, Germany",,german_fires_berlin_locations,c74e69bd1c59930409f48b99ed60cda9,german_fires_berlin_locations__c74e69bd1c59930409f48b99ed60cda9
am barnim,"Am Barnim in Berlin, Germany",52.4993691,13.6061973,1,,,,,,,,Keyphrase,"Am Barnim in Berlin, Germany",,german_fires_berlin_locations,0685ed783319c7151d84187926b5e4a4,german_fires_berlin_locations__0685ed783319c7151d84187926b5e4a4
am bauernwaldchen,"Am Bauernwaldchen in Berlin, Germany",52.4125406,13.6704423,1,,,,,,,,ForeignMinister,"Am Bauernwaldchen in Berlin, Germany",,german_fires_berlin_locations,0c16e402b14b0ed34663bef86f8d8854,german_fires_berlin_locations__0c16e402b14b0ed34663bef86f8d8854
am bauersee,"Am Bauersee in Berlin, Germany",52.4284716,13.6887483,1,,,,,,,,Refinery,"Am Bauersee in Berlin, Germany",,german_fires_berlin_locations,3f969c17ba652f7948307b53afd4c787,german_fires_berlin_locations__3f969c17ba652f7948307b53afd4c787
am beelitzhof,"Am Beelitzhof in Berlin, Germany",52.4310855,13.1887995,1,,,,,,,,Refinery,"Am Beelitzhof in Berlin, Germany",,german_fires_berlin_locations,4eed2df5b32bcd2e09e151a5c7102a08,german_fires_berlin_locations__4eed2df5b32bcd2e09e151a5c7102a08
am berg,"Am Berg in Berlin, Germany",52.4446094,13.5869405,1,,,,,,,,FTO,"Am Berg in Berlin, Germany",,german_fires_berlin_locations,3eb1453ddcc7d15343c28b3e429f4f8a,german_fires_berlin_locations__3eb1453ddcc7d15343c28b3e429f4f8a
am berghang,"Am Berghang in Berlin, Germany",52.4870253,13.177051,1,,,,,,,,Refinery,"Am Berghang in Berlin, Germany",,german_fires_berlin_locations,b319ad5976d96d66ca8d595d92195f6a,german_fires_berlin_locations__b319ad5976d96d66ca8d595d92195f6a
am bergpfuhl,"Am Bergpfuhl in Berlin, Germany",52.4439882,13.4228316,1,,,,,,,,Exec,"Am Bergpfuhl in Berlin, Germany",,german_fires_berlin_locations,5547d525877de0e816a344343efc978d,german_fires_berlin_locations__5547d525877de0e816a344343efc978d
am berl,"Am Berl in Berlin, Germany",52.5726823,13.4998579,1,,,,,,,,LegislativeCommittee,"Am Berl in Berlin, Germany",,german_fires_berlin_locations,28080c9856e80a50e53ed8fe2506279c,german_fires_berlin_locations__28080c9856e80a50e53ed8fe2506279c
am berlin museum,"Am Berlin Museum in Berlin, Germany",52.5028014,13.3968486,1,,,,,,,,Legislator,"Am Berlin Museum in Berlin, Germany",,german_fires_berlin_locations,8fb86fcdc9d8c93b396843dde4131db7,german_fires_berlin_locations__8fb86fcdc9d8c93b396843dde4131db7
am biberbau,"Am Biberbau in Berlin, Germany",52.6285363,13.2974101,1,,,,,,,,Consulates,"Am Biberbau in Berlin, Germany",,german_fires_berlin_locations,c6f03c6ca4ad9bb4c441fc89d8973930,german_fires_berlin_locations__c6f03c6ca4ad9bb4c441fc89d8973930
am binsengrund,"Am Binsengrund in Berlin, Germany",52.4958542,13.5657009,1,,,,,,,,Person,"Am Binsengrund in Berlin, Germany",,german_fires_berlin_locations,89d42e82c5e7dedadf5a7d766c41a4eb,german_fires_berlin_locations__89d42e82c5e7dedadf5a7d766c41a4eb
am birkenhugel,"Am Birkenhugel in Berlin, Germany",52.412805,13.1372908,1,,,,,,,,FTO,"Am Birkenhugel in Berlin, Germany",,german_fires_berlin_locations,7253ad308a3a4057fbc28138a24d4afd,german_fires_berlin_locations__7253ad308a3a4057fbc28138a24d4afd
am birkenknick,"Am Birkenknick in Berlin, Germany",52.4153032,13.2672854,1,,,,,,,,Organization,"Am Birkenknick in Berlin, Germany",,german_fires_berlin_locations,117ce52dd9adb5057b8b81131db0aa73,german_fires_berlin_locations__117ce52dd9adb5057b8b81131db0aa73
am birkenrevier,"Am Birkenrevier in Berlin, Germany",52.4766918,13.5330254,1,,,,,,,,IndustryTerm,"Am Birkenrevier in Berlin, Germany",,german_fires_berlin_locations,c124f0a9757136ba82f82b0cd7c88b1e,german_fires_berlin_locations__c124f0a9757136ba82f82b0cd7c88b1e
am birkenwerder,"Am Birkenwerder in Berlin, Germany",52.4868607,13.5698747,1,,,,,,,,Pipeline,"Am Birkenwerder in Berlin, Germany",,german_fires_berlin_locations,ba776a0d793c064a6d7c6208a01844e4,german_fires_berlin_locations__ba776a0d793c064a6d7c6208a01844e4
am bogen,"Am Bogen in Berlin, Germany",52.5519031,13.1586782,1,,,,,,,,DiplomaticFacilities,"Am Bogen in Berlin, Germany",,german_fires_berlin_locations,f66836d45b879c0f505133f5e5f3e637,german_fires_berlin_locations__f66836d45b879c0f505133f5e5f3e637
am bootshaus,"Am Bootshaus in Berlin, Germany",52.5537972,13.2148797,1,,,,,,,,Organization,"Am Bootshaus in Berlin, Germany",,german_fires_berlin_locations,5e5c5806671a145985af8936985406c9,german_fires_berlin_locations__5e5c5806671a145985af8936985406c9
am borsigturm,"Am Borsigturm in Berlin, Germany",52.5830488,13.2856406,1,,,,,,,,ForeignMinistry,"Am Borsigturm in Berlin, Germany",,german_fires_berlin_locations,e273717be977758768da4b21b851ac2b,german_fires_berlin_locations__e273717be977758768da4b21b851ac2b
am botanischen garten,"Am Botanischen Garten in Berlin, Germany",52.4543806,13.3056024,1,,,,,,,,Exec,"Am Botanischen Garten in Berlin, Germany",,german_fires_berlin_locations,f644818ddbd4c61b37c00badda6e52b5,german_fires_berlin_locations__f644818ddbd4c61b37c00badda6e52b5
am bottcherberg,"Am Bottcherberg in Berlin, Germany",52.4120636,13.1074904,1,,,,,,,,AAEntity,"Am Bottcherberg in Berlin, Germany",,german_fires_berlin_locations,5a0b3402066abdfdc5cd86918833a3b3,german_fires_berlin_locations__5a0b3402066abdfdc5cd86918833a3b3
am brandpfuhl,"Am Brandpfuhl in Berlin, Germany",52.4431927,13.424952,1,,,,,,,,Wells,"Am Brandpfuhl in Berlin, Germany",,german_fires_berlin_locations,e70cc886f120cce0debf29cc5a48d949,german_fires_berlin_locations__e70cc886f120cce0debf29cc5a48d949
am breiten luch,"Am Breiten Luch in Berlin, Germany",52.561764,13.5134276,1,,,,,,,,News,"Am Breiten Luch in Berlin, Germany",,german_fires_berlin_locations,a9a865373756aff5662fb9df21471b77,german_fires_berlin_locations__a9a865373756aff5662fb9df21471b77
am bremsenwerk,"Am Bremsenwerk in Berlin, Germany",52.5058621,13.473853,1,,,,,,,,Exec,"Am Bremsenwerk in Berlin, Germany",,german_fires_berlin_locations,dca08c797ad8acaf8da0ebbcb54a69e7,german_fires_berlin_locations__dca08c797ad8acaf8da0ebbcb54a69e7
am brendegraben,"Am Brendegraben in Berlin, Germany",52.6127508,13.4483132,1,,,,,,,,Organization,"Am Brendegraben in Berlin, Germany",,german_fires_berlin_locations,a45cb45d05c8c382676067fff1086e5a,german_fires_berlin_locations__a45cb45d05c8c382676067fff1086e5a
am britzer garten,"Am Britzer Garten in Berlin, Germany",52.4403296,13.4128274,1,,,,,,,,Pipeline,"Am Britzer Garten in Berlin, Germany",,german_fires_berlin_locations,6d3cf539f5bb2d6bd6a5d1c6d4657485,german_fires_berlin_locations__6d3cf539f5bb2d6bd6a5d1c6d4657485
am brodersengarten,"Am Brodersengarten in Berlin, Germany",52.5033541,13.5729475,1,,,,,,,,Wells,"Am Brodersengarten in Berlin, Germany",,german_fires_berlin_locations,d9272722921fce07297010d0012c447a,german_fires_berlin_locations__d9272722921fce07297010d0012c447a
am bruchland,"Am Bruchland in Berlin, Germany",52.4252044,13.5294269,1,,,,,,,,AAEntity,"Am Bruchland in Berlin, Germany",,german_fires_berlin_locations,c78586a417a85c927306f6126b447d20,german_fires_berlin_locations__c78586a417a85c927306f6126b447d20
am brunnen,"Am Brunnen in Berlin, Germany",52.5942112,13.2984404,1,,,,,,,,Organization,"Am Brunnen in Berlin, Germany",,german_fires_berlin_locations,12d49173d1285d12d26b776e0ef4c177,german_fires_berlin_locations__12d49173d1285d12d26b776e0ef4c177
am buchenberg,"Am Buchenberg in Berlin, Germany",52.6149122,13.2966197,1,,,,,,,,Person,"Am Buchenberg in Berlin, Germany",,german_fires_berlin_locations,22d4114a74b16e0ec1d641ade6cccc32,german_fires_berlin_locations__22d4114a74b16e0ec1d641ade6cccc32
am buckersberg,"Am Buckersberg in Berlin, Germany",52.44289,13.4882049,1,,,,,,,,Consulates,"Am Buckersberg in Berlin, Germany",,german_fires_berlin_locations,613fb52b1fb31be09de4c92a6fc6532f,german_fires_berlin_locations__613fb52b1fb31be09de4c92a6fc6532f
am buddeplatz,"Am Buddeplatz in Berlin, Germany",52.5888642,13.2877866,1,,,,,,,,CompanyKeyword,"Am Buddeplatz in Berlin, Germany",,german_fires_berlin_locations,87b329fcdfde00c6f7acea5c2955b8c1,german_fires_berlin_locations__87b329fcdfde00c6f7acea5c2955b8c1
am burgerpark,"Am Burgerpark in Berlin, Germany",52.5701821,13.3871543,1,,,,,,,,Person,"Am Burgerpark in Berlin, Germany",,german_fires_berlin_locations,751399174f861eac93d7cfdbef06fe38,german_fires_berlin_locations__751399174f861eac93d7cfdbef06fe38
am buschfeld,"Am Buschfeld in Berlin, Germany",52.4211204,13.4560625,1,,,,,,,,Exec,"Am Buschfeld in Berlin, Germany",,german_fires_berlin_locations,c4435c142ef27a484b51be1cd3ee5593,german_fires_berlin_locations__c4435c142ef27a484b51be1cd3ee5593
am carlsgarten,"Am Carlsgarten in Berlin, Germany",52.4783435,13.530856,1,,,,,,,,Organization,"Am Carlsgarten in Berlin, Germany",,german_fires_berlin_locations,c080167b895ae84f88c160b5005274a7,german_fires_berlin_locations__c080167b895ae84f88c160b5005274a7
am carolinenhof,"Am Carolinenhof in Berlin, Germany",52.4441405,13.1289419,1,,,,,,,,News,"Am Carolinenhof in Berlin, Germany",,german_fires_berlin_locations,7496b340271c6ad182410820c9c57e12,german_fires_berlin_locations__7496b340271c6ad182410820c9c57e12
am cleantech business park,"Am Cleantech Business Park in Berlin, Germany",52.5565802,13.5380195,1,,,,,,,,Person,"Am Cleantech Business Park in Berlin, Germany",,german_fires_berlin_locations,62f78e69f62fc4c31b1999a00935e151,german_fires_berlin_locations__62f78e69f62fc4c31b1999a00935e151
am comeniusplatz,"Am Comeniusplatz in Berlin, Germany",52.5123008,13.4482589,1,,,,,,,,Person,"Am Comeniusplatz in Berlin, Germany",,german_fires_berlin_locations,6c2656affc507358376fff70fdc73215,german_fires_berlin_locations__6c2656affc507358376fff70fdc73215
am containerbahnhof,"Am Containerbahnhof in Berlin, Germany",52.5147213,13.4773166,1,,,,,,,,Keyphrase,"Am Containerbahnhof in Berlin, Germany",,german_fires_berlin_locations,58657148e4fb5a9ac25b8bdc78cfe4e1,german_fires_berlin_locations__58657148e4fb5a9ac25b8bdc78cfe4e1
am dachsbau,"Am Dachsbau in Berlin, Germany",52.6139559,13.2323518,1,,,,,,,,Organization,"Am Dachsbau in Berlin, Germany",,german_fires_berlin_locations,c2780a5464fa1817494af34f0c7f3c61,german_fires_berlin_locations__c2780a5464fa1817494af34f0c7f3c61
am dahlingsberg,"Am Dahlingsberg in Berlin, Germany",52.5096488,13.3759441,1,,,,,,,,Person,"Am Dahlingsberg in Berlin, Germany",,german_fires_berlin_locations,83df04e2c75e71c9b058024faf163da4,german_fires_berlin_locations__83df04e2c75e71c9b058024faf163da4
am damm,"Am Damm in Berlin, Germany",52.4576457,13.634234,1,,,,,,,,ForeignMinister,"Am Damm in Berlin, Germany",,german_fires_berlin_locations,67cc0e7da09d761193abf25f3c7e6a47,german_fires_berlin_locations__67cc0e7da09d761193abf25f3c7e6a47
am danewend,"Am Danewend in Berlin, Germany",52.6155929,13.4759765,1,,,,,,,,space,"Am Danewend in Berlin, Germany",,german_fires_berlin_locations,173f3e2eb4c6ff8a10dc711c5fc6ec1c,german_fires_berlin_locations__173f3e2eb4c6ff8a10dc711c5fc6ec1c
am dianaplatz,"Am Dianaplatz in Berlin, Germany",52.6060892,13.3136963,1,,,,,,,,AAEntity,"Am Dianaplatz in Berlin, Germany",,german_fires_berlin_locations,7bb3f0934cbf352fca331c07b85c20fe,german_fires_berlin_locations__7bb3f0934cbf352fca331c07b85c20fe
am doggelhof,"Am Doggelhof in Berlin, Germany",52.5674682,13.3194866,1,,,,,,,,Person,"Am Doggelhof in Berlin, Germany",,german_fires_berlin_locations,464a5bdc35b9811462061c055a92454d,german_fires_berlin_locations__464a5bdc35b9811462061c055a92454d
am dominikusteich,"Am Dominikusteich in Berlin, Germany",52.6222509,13.2942628,1,,,,,,,,DiplomaticFacilities,"Am Dominikusteich in Berlin, Germany",,german_fires_berlin_locations,58feeb74b20c71a455b11947b0a168f4,german_fires_berlin_locations__58feeb74b20c71a455b11947b0a168f4
am donnerberg,"Am Donnerberg in Berlin, Germany",52.4686671,13.1309975,1,,,,,,,,Wells,"Am Donnerberg in Berlin, Germany",,german_fires_berlin_locations,207b481fbaace70bdf161888650cd406,german_fires_berlin_locations__207b481fbaace70bdf161888650cd406
am dorfanger,"Am Dorfanger in Berlin, Germany",52.5917181,13.3230276,1,,,,,,,,Person,"Am Dorfanger in Berlin, Germany",,german_fires_berlin_locations,bee9321c138ac3c9bb06ac3fb2c314a2,german_fires_berlin_locations__bee9321c138ac3c9bb06ac3fb2c314a2
am dorferweg,"Am Dorferweg in Berlin, Germany",52.5742046,13.559884,1,,,,,,,,ForeignMinistry,"Am Dorferweg in Berlin, Germany",,german_fires_berlin_locations,0253e01e78ab3a2c1c4857c7a8c0f004,german_fires_berlin_locations__0253e01e78ab3a2c1c4857c7a8c0f004
am dorfteich,"Am Dorfteich in Berlin, Germany",52.6105657,13.2520084,1,,,,,,,,IndustryTerm,"Am Dorfteich in Berlin, Germany",,german_fires_berlin_locations,449e46f169b8688db5b5fb1b96c0f5dc,german_fires_berlin_locations__449e46f169b8688db5b5fb1b96c0f5dc
am dorfwald,"Am Dorfwald in Berlin, Germany",52.453725,13.1373032,1,,,,,,,,Diplomat,"Am Dorfwald in Berlin, Germany",,german_fires_berlin_locations,ef8f01a96ee225bf4b7ceeb0ced48fbc,german_fires_berlin_locations__ef8f01a96ee225bf4b7ceeb0ced48fbc
am dornbusch,"Am Dornbusch in Berlin, Germany",52.4972135,13.2699492,1,,,,,,,,ForeignMinister,"Am Dornbusch in Berlin, Germany",,german_fires_berlin_locations,d36b44ebe3d44f09b02d6b39a599d765,german_fires_berlin_locations__d36b44ebe3d44f09b02d6b39a599d765
am eichenhain,"Am Eichenhain in Berlin, Germany",52.6328885,13.2659851,1,,,,,,,,Organization,"Am Eichenhain in Berlin, Germany",,german_fires_berlin_locations,fa35dbf560da0310365de8704d5a4103,german_fires_berlin_locations__fa35dbf560da0310365de8704d5a4103
am eichenquast,"Am Eichenquast in Berlin, Germany",52.4207505,13.4484423,1,,,,,,,,Person,"Am Eichenquast in Berlin, Germany",,german_fires_berlin_locations,aa1231a1637c0311682c13350e9761c4,german_fires_berlin_locations__aa1231a1637c0311682c13350e9761c4
am eichgarten,"Am Eichgarten in Berlin, Germany",52.44568,13.3353896,1,,,,,,,,LegislativeCommittee,"Am Eichgarten in Berlin, Germany",,german_fires_berlin_locations,89d1657bfce003db3726b79e1db68388,german_fires_berlin_locations__89d1657bfce003db3726b79e1db68388
am elsebrocken,"Am Elsebrocken in Berlin, Germany",52.6193839,13.4849534,1,,,,,,,,LegislativeCommittee,"Am Elsebrocken in Berlin, Germany",,german_fires_berlin_locations,4b3d8746101ba184ededcea9beb05a78,german_fires_berlin_locations__4b3d8746101ba184ededcea9beb05a78
am elsenbruch,"Am Elsenbruch in Berlin, Germany",52.4424926,13.3303524,1,,,,,,,,AAEntity,"Am Elsenbruch in Berlin, Germany",,german_fires_berlin_locations,fb66af854e229997eafd1efdcaaf64c9,german_fires_berlin_locations__fb66af854e229997eafd1efdcaaf64c9
am erlenbusch,"Am Erlenbusch in Berlin, Germany",52.4645458,13.3024861,1,,,,,,,,Refinery,"Am Erlenbusch in Berlin, Germany",,german_fires_berlin_locations,1b1ef15bf8f93ec96120f068276b8412,german_fires_berlin_locations__1b1ef15bf8f93ec96120f068276b8412
am ernst-grube-park,"Am Ernst-Grube-Park in Berlin, Germany",52.4511805,13.5623439,1,,,,,,,,LegislativeCommittee,"Am Ernst-Grube-Park in Berlin, Germany",,german_fires_berlin_locations,aaaa1a2589a8c57c165d6ff5f07991e3,german_fires_berlin_locations__aaaa1a2589a8c57c165d6ff5f07991e3
am espenpfuhl,"Am Espenpfuhl in Berlin, Germany",52.4107088,13.508464,1,,,,,,,,IndustryTerm,"Am Espenpfuhl in Berlin, Germany",,german_fires_berlin_locations,54f183b16158f768fed81948738ad8c4,german_fires_berlin_locations__54f183b16158f768fed81948738ad8c4
am eulenhorst,"Am Eulenhorst in Berlin, Germany",52.5818282,13.2296462,1,,,,,,,,space,"Am Eulenhorst in Berlin, Germany",,german_fires_berlin_locations,13f8044350204bfde1d9ad472594f20c,german_fires_berlin_locations__13f8044350204bfde1d9ad472594f20c
am falkenberg,"Am Falkenberg in Berlin, Germany",52.4149144,13.5608101,1,,,,,,,,Keyphrase,"Am Falkenberg in Berlin, Germany",,german_fires_berlin_locations,be07f740055c60192c20d3e1d48fb47e,german_fires_berlin_locations__be07f740055c60192c20d3e1d48fb47e
am falkplatz,"Am Falkplatz in Berlin, Germany",52.5464076,13.405695,1,,,,,,,,Pipeline,"Am Falkplatz in Berlin, Germany",,german_fires_berlin_locations,1a2ed0baa2c0e1bffeea5c27c1094590,german_fires_berlin_locations__1a2ed0baa2c0e1bffeea5c27c1094590
am faulen see,"Am Faulen See in Berlin, Germany",52.5541592,13.4970027,1,,,,,,,,Exec,"Am Faulen See in Berlin, Germany",,german_fires_berlin_locations,8230abb3dd3c11e3f7cdee9d52c974af,german_fires_berlin_locations__8230abb3dd3c11e3f7cdee9d52c974af
am feldberg,"Am Feldberg in Berlin, Germany",52.5039001,13.5876136,1,,,,,,,,Exec,"Am Feldberg in Berlin, Germany",,german_fires_berlin_locations,8861343aea2abb2425f968c1edffcd1d,german_fires_berlin_locations__8861343aea2abb2425f968c1edffcd1d
am fenn,"Am Fenn in Berlin, Germany",52.4465521,13.3398327,1,,,,,,,,Organization,"Am Fenn in Berlin, Germany",,german_fires_berlin_locations,e3b8f395eebdd741693554c83e23449c,german_fires_berlin_locations__e3b8f395eebdd741693554c83e23449c
am festplatz,"Am Festplatz in Berlin, Germany",52.5520776,13.3043733,1,,,,,,,,Diplomat,"Am Festplatz in Berlin, Germany",,german_fires_berlin_locations,4bb306a2578e5fdc8a6ab963ee3e68d2,german_fires_berlin_locations__4bb306a2578e5fdc8a6ab963ee3e68d2
am festungsgraben,"Am Festungsgraben in Berlin, Germany",52.5184048,13.3956089,1,,,,,,,,LegislativeCommittee,"Am Festungsgraben in Berlin, Germany",,german_fires_berlin_locations,d46ebfa728d7e74088b832e596d121aa,german_fires_berlin_locations__d46ebfa728d7e74088b832e596d121aa
am feuchten winkel,"Am Feuchten Winkel in Berlin, Germany",52.5798763,13.4337833,1,,,,,,,,Media,"Am Feuchten Winkel in Berlin, Germany",,german_fires_berlin_locations,e651aaadeab30e96a6f02b9f55459c7b,german_fires_berlin_locations__e651aaadeab30e96a6f02b9f55459c7b
am fichtenberg,"Am Fichtenberg in Berlin, Germany",52.4536984,13.3111543,1,,,,,,,,ForeignMinistry,"Am Fichtenberg in Berlin, Germany",,german_fires_berlin_locations,3490f3af4ad652277da5fe8b8b11ba51,german_fires_berlin_locations__3490f3af4ad652277da5fe8b8b11ba51
am filmlager,"Am Filmlager in Berlin, Germany",52.4495543,13.58389,1,,,,,,,,Legislator,"Am Filmlager in Berlin, Germany",,german_fires_berlin_locations,308c2ebc9e9b2fa09899d562803e1736,german_fires_berlin_locations__308c2ebc9e9b2fa09899d562803e1736
am finkenherd,"Am Finkenherd in Berlin, Germany",52.5498081,13.1497059,1,,,,,,,,CompanyKeyword,"Am Finkenherd in Berlin, Germany",,german_fires_berlin_locations,68b2aef47f4ed361a5096ce2f50fb212,german_fires_berlin_locations__68b2aef47f4ed361a5096ce2f50fb212
am fischtal,"Am Fischtal in Berlin, Germany",52.4472886,13.2588324,1,,,,,,,,Diplomat,"Am Fischtal in Berlin, Germany",,german_fires_berlin_locations,d9a66e398918ed91891f083fdac5c7d9,german_fires_berlin_locations__d9a66e398918ed91891f083fdac5c7d9
am fliederbusch,"Am Fliederbusch in Berlin, Germany",52.4971811,13.2685564,1,,,,,,,,Exec,"Am Fliederbusch in Berlin, Germany",,german_fires_berlin_locations,ae52d89ae5a03c0b2b8eb421149fc7e7,german_fires_berlin_locations__ae52d89ae5a03c0b2b8eb421149fc7e7
am fliess,"Am Fliess in Berlin, Germany",52.5886125,13.461943,1,,,,,,,,space,"Am Fliess in Berlin, Germany",,german_fires_berlin_locations,55466f73384dba4d7e6738657df2e483,german_fires_berlin_locations__55466f73384dba4d7e6738657df2e483
am flugplatz gatow,"Am Flugplatz Gatow in Berlin, Germany",52.4724749,13.1282264,1,,,,,,,,News,"Am Flugplatz Gatow in Berlin, Germany",,german_fires_berlin_locations,afe54b1ac0d8db7e03076d8bf1b8e21c,german_fires_berlin_locations__afe54b1ac0d8db7e03076d8bf1b8e21c
am flutgraben,"Am Flutgraben in Berlin, Germany",52.496827,13.4507064,1,,,,,,,,DiplomaticFacilities,"Am Flutgraben in Berlin, Germany",,german_fires_berlin_locations,9fa32192a195b0a1596c488b7e123e42,german_fires_berlin_locations__9fa32192a195b0a1596c488b7e123e42
am folzberg,"Am Folzberg in Berlin, Germany",52.6137927,13.3547374,1,,,,,,,,LegislativeCommittee,"Am Folzberg in Berlin, Germany",,german_fires_berlin_locations,feac6934c5e3f03e76d89f204d9dd56a,german_fires_berlin_locations__feac6934c5e3f03e76d89f204d9dd56a
am forstacker,"Am Forstacker in Berlin, Germany",52.5637637,13.2005142,1,,,,,,,,Person,"Am Forstacker in Berlin, Germany",,german_fires_berlin_locations,d47de732d6a948d66afa07c8fa0a6edc,german_fires_berlin_locations__d47de732d6a948d66afa07c8fa0a6edc
am fort,"Am Fort in Berlin, Germany",52.5217951,13.1343342,1,,,,,,,,Media,"Am Fort in Berlin, Germany",,german_fires_berlin_locations,c20d53412c9c98fc6741092cae6ed693,german_fires_berlin_locations__c20d53412c9c98fc6741092cae6ed693
am freibad,"Am Freibad in Berlin, Germany",52.6189991,13.3340231,1,,,,,,,,Diplomat,"Am Freibad in Berlin, Germany",,german_fires_berlin_locations,b9e7f0fc8bccf871e947347ea0a64032,german_fires_berlin_locations__b9e7f0fc8bccf871e947347ea0a64032
am friedrichshain,"Am Friedrichshain in Berlin, Germany",52.5293532,13.4297552,1,,,,,,,,DiplomaticFacilities,"Am Friedrichshain in Berlin, Germany",,german_fires_berlin_locations,995036e4eb50dbf5733d3e310d404f33,german_fires_berlin_locations__995036e4eb50dbf5733d3e310d404f33
am fuchsbau,"Am Fuchsbau in Berlin, Germany",52.6108663,13.2333455,1,,,,,,,,space,"Am Fuchsbau in Berlin, Germany",,german_fires_berlin_locations,68f5a3e05568510534079237915eece0,german_fires_berlin_locations__68f5a3e05568510534079237915eece0
am fuchspass,"Am Fuchspass in Berlin, Germany",52.4527426,13.2547887,1,,,,,,,,Shipping,"Am Fuchspass in Berlin, Germany",,german_fires_berlin_locations,82f51995f179a026df99d0e6c3e6050a,german_fires_berlin_locations__82f51995f179a026df99d0e6c3e6050a
am gartenstadtweg,"Am Gartenstadtweg in Berlin, Germany",52.4088364,13.5635576,1,,,,,,,,Keyphrase,"Am Gartenstadtweg in Berlin, Germany",,german_fires_berlin_locations,9f0fab733f6fcebae6bb03a24df736f5,german_fires_berlin_locations__9f0fab733f6fcebae6bb03a24df736f5
am gehrensee,"Am Gehrensee in Berlin, Germany",52.5725441,13.5648464,1,,,,,,,,DiplomaticFacilities,"Am Gehrensee in Berlin, Germany",,german_fires_berlin_locations,c1b735531846b197e608188851825ea5,german_fires_berlin_locations__c1b735531846b197e608188851825ea5
am gemeindepark,"Am Gemeindepark in Berlin, Germany",52.4297716,13.3508828,1,,,,,,,,Keyphrase,"Am Gemeindepark in Berlin, Germany",,german_fires_berlin_locations,98339dbf112b8be86ff403d7f84ceb34,german_fires_berlin_locations__98339dbf112b8be86ff403d7f84ceb34
am generalshof,"Am Generalshof in Berlin, Germany",52.4521723,13.5744108,1,,,,,,,,Legislator,"Am Generalshof in Berlin, Germany",,german_fires_berlin_locations,16cce8d501cc0041786fe082ab0bba75,german_fires_berlin_locations__16cce8d501cc0041786fe082ab0bba75
am genossenschaftsring,"Am Genossenschaftsring in Berlin, Germany",52.575093,13.5212753,1,,,,,,,,Legislator,"Am Genossenschaftsring in Berlin, Germany",,german_fires_berlin_locations,863f46fa125de0c1c35aeed3e742039a,german_fires_berlin_locations__863f46fa125de0c1c35aeed3e742039a
am gewerbepark,"Am Gewerbepark in Berlin, Germany",52.5221954,13.5655571,1,,,,,,,,ForeignMinister,"Am Gewerbepark in Berlin, Germany",,german_fires_berlin_locations,65e75d171ee64311257f5e45ca17772c,german_fires_berlin_locations__65e75d171ee64311257f5e45ca17772c
am glinigk,"Am Glinigk in Berlin, Germany",52.4255144,13.5238337,1,,,,,,,,ForeignMinister,"Am Glinigk in Berlin, Germany",,german_fires_berlin_locations,3f8a326bdb6ee78ba68b14f12845d99d,german_fires_berlin_locations__3f8a326bdb6ee78ba68b14f12845d99d
am glockenturm,"Am Glockenturm in Berlin, Germany",52.5139732,13.2320509,1,,,,,,,,IndustryTerm,"Am Glockenturm in Berlin, Germany",,german_fires_berlin_locations,eead20ba9a6a2827ad92fa597f27e30f,german_fires_berlin_locations__eead20ba9a6a2827ad92fa597f27e30f
am goldmannpark,"Am Goldmannpark in Berlin, Germany",52.4558711,13.6308113,1,,,,,,,,Exec,"Am Goldmannpark in Berlin, Germany",,german_fires_berlin_locations,ba1ebf8d13c32608f5505e1e25b8b1dd,german_fires_berlin_locations__ba1ebf8d13c32608f5505e1e25b8b1dd
am graben,"Am Graben in Berlin, Germany",52.5736848,13.4667617,1,,,,,,,,Wells,"Am Graben in Berlin, Germany",,german_fires_berlin_locations,be890eb4165beb18f08257399992e80d,german_fires_berlin_locations__be890eb4165beb18f08257399992e80d
am groen,"Am Groen in Berlin, Germany",52.5034708,13.5761145,1,,,,,,,,Pipeline,"Am Groen in Berlin, Germany",,german_fires_berlin_locations,46b45d1c5d805828e53b3cf0ac8cbcdc,german_fires_berlin_locations__46b45d1c5d805828e53b3cf0ac8cbcdc
am grossen rohrpfuhl,"Am Grossen Rohrpfuhl in Berlin, Germany",52.4123678,13.4941274,1,,,,,,,,News,"Am Grossen Rohrpfuhl in Berlin, Germany",,german_fires_berlin_locations,fcfc217b4ca25a29defb817c931954b5,german_fires_berlin_locations__fcfc217b4ca25a29defb817c931954b5
am grossen wannsee,"Am Grossen Wannsee in Berlin, Germany",52.4282757,13.1628914,1,,,,,,,,Pipeline,"Am Grossen Wannsee in Berlin, Germany",,german_fires_berlin_locations,6cca12daf11b7ad899d8d6119785ba76,german_fires_berlin_locations__6cca12daf11b7ad899d8d6119785ba76
