german_text,caption_text,lat,lon,ranking,default location,default_lat,default_lon,ENTITY_LABEL,name,description,source,source_identifier,global_identifier
windberg,"Windberg in Monchengladbach, Germany",51.2104644,6.4201162,2,"Monchengladbach, Germany",51.17935007,6.441964147,LegislativeCommittee,"Windberg in Monchengladbach, Germany",,german_fires_monchengladbach_locations,21ab70b87b88d893b571124ae275da9e,german_fires_monchengladbach_locations__21ab70b87b88d893b571124ae275da9e
eicken,"Eicken in Monchengladbach, Germany",51.2090336,6.4461041,2,,,,Shipping,"Eicken in Monchengladbach, Germany",,german_fires_monchengladbach_locations,9d822ea3cba6763ebd51631fb3170159,german_fires_monchengladbach_locations__9d822ea3cba6763ebd51631fb3170159
am wasserturm,"Am Wasserturm in Monchengladbach, Germany",51.2009403,6.4261424,2,,,,Exec,"Am Wasserturm in Monchengladbach, Germany",,german_fires_monchengladbach_locations,db65ca953d9f1539562673d4b39248be,german_fires_monchengladbach_locations__db65ca953d9f1539562673d4b39248be
gladbach,"Gladbach in Monchengladbach, Germany",51.1938316,6.4360109,2,,,,LegislativeCommittee,"Gladbach in Monchengladbach, Germany",,german_fires_monchengladbach_locations,ce0d9422c6fceaaeebff28c0de5de02c,german_fires_monchengladbach_locations__ce0d9422c6fceaaeebff28c0de5de02c
waldhausen,"Waldhausen in Monchengladbach, Germany",51.1938738,6.411364,2,,,,Exec,"Waldhausen in Monchengladbach, Germany",,german_fires_monchengladbach_locations,978755f35bad70a445f7b7f62978bd5b,german_fires_monchengladbach_locations__978755f35bad70a445f7b7f62978bd5b
westend,"Westend in Monchengladbach, Germany",51.1877959,6.4263986,2,,,,Organization,"Westend in Monchengladbach, Germany",,german_fires_monchengladbach_locations,d0ea170837d361a4445494d944561619,german_fires_monchengladbach_locations__d0ea170837d361a4445494d944561619
dahl,"Dahl in Monchengladbach, Germany",51.1818956,6.4381851,2,,,,CompanyKeyword,"Dahl in Monchengladbach, Germany",,german_fires_monchengladbach_locations,b705fb28dec5fe395ef17e64d3da4577,german_fires_monchengladbach_locations__b705fb28dec5fe395ef17e64d3da4577
ohler,"Ohler in Monchengladbach, Germany",51.1776035,6.4207627,2,,,,space,"Ohler in Monchengladbach, Germany",,german_fires_monchengladbach_locations,46a2f36587e327b95541d9754b7b7ef8,german_fires_monchengladbach_locations__46a2f36587e327b95541d9754b7b7ef8
hardt-mitte,"Hardt-Mitte in Monchengladbach, Germany",51.2112429,6.3578374,2,,,,IndustryTerm,"Hardt-Mitte in Monchengladbach, Germany",,german_fires_monchengladbach_locations,f2332e7858bd1d83a822b60fb2b7137c,german_fires_monchengladbach_locations__f2332e7858bd1d83a822b60fb2b7137c
venn,"Venn in Monchengladbach, Germany",51.1987421,6.3944067,2,,,,ForeignMinistry,"Venn in Monchengladbach, Germany",,german_fires_monchengladbach_locations,68121353d4923117eb53ddb3180326b4,german_fires_monchengladbach_locations__68121353d4923117eb53ddb3180326b4
hardter wald,"Hardter Wald in Monchengladbach, Germany",51.1918991,6.3271669,2,,,,Person,"Hardter Wald in Monchengladbach, Germany",,german_fires_monchengladbach_locations,3fa9112cd73248151a81458cd4876681,german_fires_monchengladbach_locations__3fa9112cd73248151a81458cd4876681
bettrath-hoven,"Bettrath-Hoven in Monchengladbach, Germany",51.222215,6.4512125,2,,,,Person,"Bettrath-Hoven in Monchengladbach, Germany",,german_fires_monchengladbach_locations,c01fa3fc9cd4ec57bc71a36bf5b0cf1f,german_fires_monchengladbach_locations__c01fa3fc9cd4ec57bc71a36bf5b0cf1f
flughafen,"Flughafen in Monchengladbach, Germany",51.2310314,6.5009299,2,,,,ForeignMinister,"Flughafen in Monchengladbach, Germany",,german_fires_monchengladbach_locations,44b8ff378f8ffa256b7bac85b233b17a,german_fires_monchengladbach_locations__44b8ff378f8ffa256b7bac85b233b17a
neuwerk-mitte,"Neuwerk-Mitte in Monchengladbach, Germany",51.2231585,6.4757172,2,,,,Pipeline,"Neuwerk-Mitte in Monchengladbach, Germany",,german_fires_monchengladbach_locations,bb07902bccf20f84a1c4699d9999c6dc,german_fires_monchengladbach_locations__bb07902bccf20f84a1c4699d9999c6dc
uedding,"Uedding in Monchengladbach, Germany",51.212423,6.4798075,2,,,,FTO,"Uedding in Monchengladbach, Germany",,german_fires_monchengladbach_locations,334539684fa60087760ec814d573cb16,german_fires_monchengladbach_locations__334539684fa60087760ec814d573cb16
lurrip,"Lurrip in Monchengladbach, Germany",51.2010233,6.4722194,2,,,,Exec,"Lurrip in Monchengladbach, Germany",,german_fires_monchengladbach_locations,c2dc7253ec15f7e399690aab3d4f979e,german_fires_monchengladbach_locations__c2dc7253ec15f7e399690aab3d4f979e
hardterbroich-pesch,"Hardterbroich-Pesch in Monchengladbach, Germany",51.1927566,6.4554951,2,,,,FTO,"Hardterbroich-Pesch in Monchengladbach, Germany",,german_fires_monchengladbach_locations,2bf7d5558559fd0f20f8339085371e7b,german_fires_monchengladbach_locations__2bf7d5558559fd0f20f8339085371e7b
bungt,"Bungt in Monchengladbach, Germany",51.192038,6.4684874,2,,,,Pipeline,"Bungt in Monchengladbach, Germany",,german_fires_monchengladbach_locations,8b1c4ae50f9993533ae560f9e104c7fe,german_fires_monchengladbach_locations__8b1c4ae50f9993533ae560f9e104c7fe
giesenkirchen-nord,"Giesenkirchen-Nord in Monchengladbach, Germany",51.1691364,6.5026358,2,,,,DiplomaticFacilities,"Giesenkirchen-Nord in Monchengladbach, Germany",,german_fires_monchengladbach_locations,3a4053c8ee65020afe3d33bcd9d57652,german_fires_monchengladbach_locations__3a4053c8ee65020afe3d33bcd9d57652
schelsen,"Schelsen in Monchengladbach, Germany",51.1525029,6.5184859,2,,,,Shipping,"Schelsen in Monchengladbach, Germany",,german_fires_monchengladbach_locations,e03dfa9b006c006afe5c5d8029ded283,german_fires_monchengladbach_locations__e03dfa9b006c006afe5c5d8029ded283
giesenkirchen-mitte,"Giesenkirchen-Mitte in Monchengladbach, Germany",51.1543102,6.4860269,2,,,,IndustryTerm,"Giesenkirchen-Mitte in Monchengladbach, Germany",,german_fires_monchengladbach_locations,64e5a9f1a580a88dd1f4ae18b69c8cd6,german_fires_monchengladbach_locations__64e5a9f1a580a88dd1f4ae18b69c8cd6
schloss rheydt,"Schloss Rheydt in Monchengladbach, Germany",51.1821665,6.4814659,2,,,,Consulates,"Schloss Rheydt in Monchengladbach, Germany",,german_fires_monchengladbach_locations,30bb19f64542a12b7a1487336d75e379,german_fires_monchengladbach_locations__30bb19f64542a12b7a1487336d75e379
bonnenbroich-geneicken,"Bonnenbroich-Geneicken in Monchengladbach, Germany",51.1764831,6.4648774,2,,,,ForeignMinistry,"Bonnenbroich-Geneicken in Monchengladbach, Germany",,german_fires_monchengladbach_locations,6e714fce63607d25fa6bbb1588755c13,german_fires_monchengladbach_locations__6e714fce63607d25fa6bbb1588755c13
rheydt,"Rheydt in Monchengladbach, Germany",51.1686686,6.4469619,2,,,,Refinery,"Rheydt in Monchengladbach, Germany",,german_fires_monchengladbach_locations,f26002dfb79c13a704ac33b86da4d4f5,german_fires_monchengladbach_locations__f26002dfb79c13a704ac33b86da4d4f5
mulfort,"Mulfort in Monchengladbach, Germany",51.1553898,6.4665579,2,,,,Keyphrase,"Mulfort in Monchengladbach, Germany",,german_fires_monchengladbach_locations,8bffe41e5b106fc72c47e9db1850ff5a,german_fires_monchengladbach_locations__8bffe41e5b106fc72c47e9db1850ff5a
heyden,"Heyden in Monchengladbach, Germany",51.1576721,6.4490153,2,,,,Wells,"Heyden in Monchengladbach, Germany",,german_fires_monchengladbach_locations,5811704f9dbafe6b0b41af9a5880a7ff,german_fires_monchengladbach_locations__5811704f9dbafe6b0b41af9a5880a7ff
geistenbeck,"Geistenbeck in Monchengladbach, Germany",51.1516408,6.4394091,2,,,,Shipping,"Geistenbeck in Monchengladbach, Germany",,german_fires_monchengladbach_locations,5801ca585daec9b417293b5f31cb5253,german_fires_monchengladbach_locations__5801ca585daec9b417293b5f31cb5253
pongs,"Pongs in Monchengladbach, Germany",51.1637913,6.4093718,2,,,,ForeignMinistry,"Pongs in Monchengladbach, Germany",,german_fires_monchengladbach_locations,5bebe78f491b7933bdc43bcc064947d7,german_fires_monchengladbach_locations__5bebe78f491b7933bdc43bcc064947d7
schrievers,"Schrievers in Monchengladbach, Germany",51.1692912,6.4287027,2,,,,Exec,"Schrievers in Monchengladbach, Germany",,german_fires_monchengladbach_locations,f13bf6da7bf41735966f39f04ae83985,german_fires_monchengladbach_locations__f13bf6da7bf41735966f39f04ae83985
grenzlandstadion,"Grenzlandstadion in Monchengladbach, Germany",51.1761737,6.4467236,2,,,,News,"Grenzlandstadion in Monchengladbach, Germany",,german_fires_monchengladbach_locations,05a70fbaa5ddf4c7cb22f31ce043d2ef,german_fires_monchengladbach_locations__05a70fbaa5ddf4c7cb22f31ce043d2ef
schmolderpark,"Schmolderpark in Monchengladbach, Germany",51.1627219,6.4288299,2,,,,space,"Schmolderpark in Monchengladbach, Germany",,german_fires_monchengladbach_locations,f1afa26e27008943ca6e21465feaca50,german_fires_monchengladbach_locations__f1afa26e27008943ca6e21465feaca50
hockstein,"Hockstein in Monchengladbach, Germany",51.1527118,6.419955,2,,,,FTO,"Hockstein in Monchengladbach, Germany",,german_fires_monchengladbach_locations,7bf74cb3fde89d5f4578ce2493765d72,german_fires_monchengladbach_locations__7bf74cb3fde89d5f4578ce2493765d72
odenkirchen-west,"Odenkirchen-West in Monchengladbach, Germany",51.1360945,6.4358186,2,,,,Pipeline,"Odenkirchen-West in Monchengladbach, Germany",,german_fires_monchengladbach_locations,8be966ab7af38c6d9142ffa80d7c7b79,german_fires_monchengladbach_locations__8be966ab7af38c6d9142ffa80d7c7b79
odenkirchen-mitte,"Odenkirchen-Mitte in Monchengladbach, Germany",51.1322513,6.4579086,2,,,,Diplomat,"Odenkirchen-Mitte in Monchengladbach, Germany",,german_fires_monchengladbach_locations,abca8dda28f9ed36e7542c4b23083b6b,german_fires_monchengladbach_locations__abca8dda28f9ed36e7542c4b23083b6b
sasserath,"Sasserath in Monchengladbach, Germany",51.1216219,6.4619544,2,,,,DiplomaticFacilities,"Sasserath in Monchengladbach, Germany",,german_fires_monchengladbach_locations,cf08f06f791450846f5811c5b5b66241,german_fires_monchengladbach_locations__cf08f06f791450846f5811c5b5b66241
wickrath-mitte,"Wickrath-Mitte in Monchengladbach, Germany",51.1351071,6.4060597,2,,,,Diplomat,"Wickrath-Mitte in Monchengladbach, Germany",,german_fires_monchengladbach_locations,11f150f14ddab8085fdb122d35fb78fb,german_fires_monchengladbach_locations__11f150f14ddab8085fdb122d35fb78fb
wickrath-west,"Wickrath-West in Monchengladbach, Germany",51.1157995,6.3754068,2,,,,Diplomat,"Wickrath-West in Monchengladbach, Germany",,german_fires_monchengladbach_locations,4b1594fc5bdb1c23912a7cb3aee75177,german_fires_monchengladbach_locations__4b1594fc5bdb1c23912a7cb3aee75177
wickrathberg,"Wickrathberg in Monchengladbach, Germany",51.1109044,6.4168906,2,,,,FTO,"Wickrathberg in Monchengladbach, Germany",,german_fires_monchengladbach_locations,6ecc6701a83bdd48b6bb7edd5c8f8f2b,german_fires_monchengladbach_locations__6ecc6701a83bdd48b6bb7edd5c8f8f2b
wanlo,"Wanlo in Monchengladbach, Germany",51.0936652,6.396545,2,,,,LegislativeCommittee,"Wanlo in Monchengladbach, Germany",,german_fires_monchengladbach_locations,3531718d82653a293f7e638e2539a4d9,german_fires_monchengladbach_locations__3531718d82653a293f7e638e2539a4d9
hehn,"Hehn in Monchengladbach, Germany",51.1814755,6.374027,2,,,,DiplomaticFacilities,"Hehn in Monchengladbach, Germany",,german_fires_monchengladbach_locations,4fb21bb32251f417a4b24c35882d011a,german_fires_monchengladbach_locations__4fb21bb32251f417a4b24c35882d011a
holt,"Holt in Monchengladbach, Germany",51.1852427,6.4011646,2,,,,ForeignMinister,"Holt in Monchengladbach, Germany",,german_fires_monchengladbach_locations,a0d5e5f98edcfff2fb70121c578d566a,german_fires_monchengladbach_locations__a0d5e5f98edcfff2fb70121c578d566a
hauptquartier,"Hauptquartier in Monchengladbach, Germany",51.1746208,6.3068506,2,,,,Exec,"Hauptquartier in Monchengladbach, Germany",,german_fires_monchengladbach_locations,69d8ff67c8fe1509ebd323f4d679c46e,german_fires_monchengladbach_locations__69d8ff67c8fe1509ebd323f4d679c46e
rheindahlen-land,"Rheindahlen-Land in Monchengladbach, Germany",51.1690417,6.3613395,2,,,,Shipping,"Rheindahlen-Land in Monchengladbach, Germany",,german_fires_monchengladbach_locations,8c3f1549b9039e526f1f85c0d06a7d69,german_fires_monchengladbach_locations__8c3f1549b9039e526f1f85c0d06a7d69
rheindahlen-mitte,"Rheindahlen-Mitte in Monchengladbach, Germany",51.1507196,6.3604385,2,,,,Media,"Rheindahlen-Mitte in Monchengladbach, Germany",,german_fires_monchengladbach_locations,73117862e2768f243564264d5d634245,german_fires_monchengladbach_locations__73117862e2768f243564264d5d634245
monchengladbach-windberg,"Windberg in Monchengladbach, Germany",51.2104644,6.4201162,2,,,,Diplomat,"Windberg in Monchengladbach, Germany",,german_fires_monchengladbach_locations,21ab70b87b88d893b571124ae275da9e,german_fires_monchengladbach_locations__21ab70b87b88d893b571124ae275da9e
monchengladbach-eicken,"Eicken in Monchengladbach, Germany",51.2090336,6.4461041,2,,,,Refinery,"Eicken in Monchengladbach, Germany",,german_fires_monchengladbach_locations,9d822ea3cba6763ebd51631fb3170159,german_fires_monchengladbach_locations__9d822ea3cba6763ebd51631fb3170159
monchengladbach-am wasserturm,"Am Wasserturm in Monchengladbach, Germany",51.2009403,6.4261424,2,,,,Exec,"Am Wasserturm in Monchengladbach, Germany",,german_fires_monchengladbach_locations,db65ca953d9f1539562673d4b39248be,german_fires_monchengladbach_locations__db65ca953d9f1539562673d4b39248be
monchengladbach-gladbach,"Gladbach in Monchengladbach, Germany",51.1938316,6.4360109,2,,,,LegislativeCommittee,"Gladbach in Monchengladbach, Germany",,german_fires_monchengladbach_locations,ce0d9422c6fceaaeebff28c0de5de02c,german_fires_monchengladbach_locations__ce0d9422c6fceaaeebff28c0de5de02c
monchengladbach-waldhausen,"Waldhausen in Monchengladbach, Germany",51.1938738,6.411364,2,,,,Person,"Waldhausen in Monchengladbach, Germany",,german_fires_monchengladbach_locations,978755f35bad70a445f7b7f62978bd5b,german_fires_monchengladbach_locations__978755f35bad70a445f7b7f62978bd5b
monchengladbach-westend,"Westend in Monchengladbach, Germany",51.1877959,6.4263986,2,,,,Media,"Westend in Monchengladbach, Germany",,german_fires_monchengladbach_locations,d0ea170837d361a4445494d944561619,german_fires_monchengladbach_locations__d0ea170837d361a4445494d944561619
monchengladbach-dahl,"Dahl in Monchengladbach, Germany",51.1818956,6.4381851,2,,,,Organization,"Dahl in Monchengladbach, Germany",,german_fires_monchengladbach_locations,b705fb28dec5fe395ef17e64d3da4577,german_fires_monchengladbach_locations__b705fb28dec5fe395ef17e64d3da4577
monchengladbach-ohler,"Ohler in Monchengladbach, Germany",51.1776035,6.4207627,2,,,,FTO,"Ohler in Monchengladbach, Germany",,german_fires_monchengladbach_locations,46a2f36587e327b95541d9754b7b7ef8,german_fires_monchengladbach_locations__46a2f36587e327b95541d9754b7b7ef8
monchengladbach-hardt-mitte,"Hardt-Mitte in Monchengladbach, Germany",51.2112429,6.3578374,2,,,,Pipeline,"Hardt-Mitte in Monchengladbach, Germany",,german_fires_monchengladbach_locations,f2332e7858bd1d83a822b60fb2b7137c,german_fires_monchengladbach_locations__f2332e7858bd1d83a822b60fb2b7137c
monchengladbach-venn,"Venn in Monchengladbach, Germany",51.1987421,6.3944067,2,,,,ForeignMinister,"Venn in Monchengladbach, Germany",,german_fires_monchengladbach_locations,68121353d4923117eb53ddb3180326b4,german_fires_monchengladbach_locations__68121353d4923117eb53ddb3180326b4
monchengladbach-hardter wald,"Hardter Wald in Monchengladbach, Germany",51.1918991,6.3271669,2,,,,Consulates,"Hardter Wald in Monchengladbach, Germany",,german_fires_monchengladbach_locations,3fa9112cd73248151a81458cd4876681,german_fires_monchengladbach_locations__3fa9112cd73248151a81458cd4876681
monchengladbach-bettrath-hoven,"Bettrath-Hoven in Monchengladbach, Germany",51.222215,6.4512125,2,,,,Media,"Bettrath-Hoven in Monchengladbach, Germany",,german_fires_monchengladbach_locations,c01fa3fc9cd4ec57bc71a36bf5b0cf1f,german_fires_monchengladbach_locations__c01fa3fc9cd4ec57bc71a36bf5b0cf1f
monchengladbach-flughafen,"Flughafen in Monchengladbach, Germany",51.2310314,6.5009299,2,,,,Keyphrase,"Flughafen in Monchengladbach, Germany",,german_fires_monchengladbach_locations,44b8ff378f8ffa256b7bac85b233b17a,german_fires_monchengladbach_locations__44b8ff378f8ffa256b7bac85b233b17a
monchengladbach-neuwerk-mitte,"Neuwerk-Mitte in Monchengladbach, Germany",51.2231585,6.4757172,2,,,,space,"Neuwerk-Mitte in Monchengladbach, Germany",,german_fires_monchengladbach_locations,bb07902bccf20f84a1c4699d9999c6dc,german_fires_monchengladbach_locations__bb07902bccf20f84a1c4699d9999c6dc
monchengladbach-uedding,"Uedding in Monchengladbach, Germany",51.212423,6.4798075,2,,,,ForeignMinister,"Uedding in Monchengladbach, Germany",,german_fires_monchengladbach_locations,334539684fa60087760ec814d573cb16,german_fires_monchengladbach_locations__334539684fa60087760ec814d573cb16
monchengladbach-lurrip,"Lurrip in Monchengladbach, Germany",51.2010233,6.4722194,2,,,,Media,"Lurrip in Monchengladbach, Germany",,german_fires_monchengladbach_locations,c2dc7253ec15f7e399690aab3d4f979e,german_fires_monchengladbach_locations__c2dc7253ec15f7e399690aab3d4f979e
monchengladbach-hardterbroich-pesch,"Hardterbroich-Pesch in Monchengladbach, Germany",51.1927566,6.4554951,2,,,,Keyphrase,"Hardterbroich-Pesch in Monchengladbach, Germany",,german_fires_monchengladbach_locations,2bf7d5558559fd0f20f8339085371e7b,german_fires_monchengladbach_locations__2bf7d5558559fd0f20f8339085371e7b
monchengladbach-bungt,"Bungt in Monchengladbach, Germany",51.192038,6.4684874,2,,,,Organization,"Bungt in Monchengladbach, Germany",,german_fires_monchengladbach_locations,8b1c4ae50f9993533ae560f9e104c7fe,german_fires_monchengladbach_locations__8b1c4ae50f9993533ae560f9e104c7fe
monchengladbach-giesenkirchen-nord,"Giesenkirchen-Nord in Monchengladbach, Germany",51.1691364,6.5026358,2,,,,Wells,"Giesenkirchen-Nord in Monchengladbach, Germany",,german_fires_monchengladbach_locations,3a4053c8ee65020afe3d33bcd9d57652,german_fires_monchengladbach_locations__3a4053c8ee65020afe3d33bcd9d57652
monchengladbach-schelsen,"Schelsen in Monchengladbach, Germany",51.1525029,6.5184859,2,,,,Organization,"Schelsen in Monchengladbach, Germany",,german_fires_monchengladbach_locations,e03dfa9b006c006afe5c5d8029ded283,german_fires_monchengladbach_locations__e03dfa9b006c006afe5c5d8029ded283
monchengladbach-giesenkirchen-mitte,"Giesenkirchen-Mitte in Monchengladbach, Germany",51.1543102,6.4860269,2,,,,CompanyKeyword,"Giesenkirchen-Mitte in Monchengladbach, Germany",,german_fires_monchengladbach_locations,64e5a9f1a580a88dd1f4ae18b69c8cd6,german_fires_monchengladbach_locations__64e5a9f1a580a88dd1f4ae18b69c8cd6
monchengladbach-schloss rheydt,"Schloss Rheydt in Monchengladbach, Germany",51.1821665,6.4814659,2,,,,Pipeline,"Schloss Rheydt in Monchengladbach, Germany",,german_fires_monchengladbach_locations,30bb19f64542a12b7a1487336d75e379,german_fires_monchengladbach_locations__30bb19f64542a12b7a1487336d75e379
monchengladbach-bonnenbroich-geneicken,"Bonnenbroich-Geneicken in Monchengladbach, Germany",51.1764831,6.4648774,2,,,,Person,"Bonnenbroich-Geneicken in Monchengladbach, Germany",,german_fires_monchengladbach_locations,6e714fce63607d25fa6bbb1588755c13,german_fires_monchengladbach_locations__6e714fce63607d25fa6bbb1588755c13
monchengladbach-rheydt,"Rheydt in Monchengladbach, Germany",51.1686686,6.4469619,2,,,,Refinery,"Rheydt in Monchengladbach, Germany",,german_fires_monchengladbach_locations,f26002dfb79c13a704ac33b86da4d4f5,german_fires_monchengladbach_locations__f26002dfb79c13a704ac33b86da4d4f5
monchengladbach-mulfort,"Mulfort in Monchengladbach, Germany",51.1553898,6.4665579,2,,,,Pipeline,"Mulfort in Monchengladbach, Germany",,german_fires_monchengladbach_locations,8bffe41e5b106fc72c47e9db1850ff5a,german_fires_monchengladbach_locations__8bffe41e5b106fc72c47e9db1850ff5a
monchengladbach-heyden,"Heyden in Monchengladbach, Germany",51.1576721,6.4490153,2,,,,AAEntity,"Heyden in Monchengladbach, Germany",,german_fires_monchengladbach_locations,5811704f9dbafe6b0b41af9a5880a7ff,german_fires_monchengladbach_locations__5811704f9dbafe6b0b41af9a5880a7ff
monchengladbach-geistenbeck,"Geistenbeck in Monchengladbach, Germany",51.1516408,6.4394091,2,,,,ForeignMinister,"Geistenbeck in Monchengladbach, Germany",,german_fires_monchengladbach_locations,5801ca585daec9b417293b5f31cb5253,german_fires_monchengladbach_locations__5801ca585daec9b417293b5f31cb5253
monchengladbach-pongs,"Pongs in Monchengladbach, Germany",51.1637913,6.4093718,2,,,,Diplomat,"Pongs in Monchengladbach, Germany",,german_fires_monchengladbach_locations,5bebe78f491b7933bdc43bcc064947d7,german_fires_monchengladbach_locations__5bebe78f491b7933bdc43bcc064947d7
monchengladbach-schrievers,"Schrievers in Monchengladbach, Germany",51.1692912,6.4287027,2,,,,Shipping,"Schrievers in Monchengladbach, Germany",,german_fires_monchengladbach_locations,f13bf6da7bf41735966f39f04ae83985,german_fires_monchengladbach_locations__f13bf6da7bf41735966f39f04ae83985
monchengladbach-grenzlandstadion,"Grenzlandstadion in Monchengladbach, Germany",51.1761737,6.4467236,2,,,,Refinery,"Grenzlandstadion in Monchengladbach, Germany",,german_fires_monchengladbach_locations,05a70fbaa5ddf4c7cb22f31ce043d2ef,german_fires_monchengladbach_locations__05a70fbaa5ddf4c7cb22f31ce043d2ef
monchengladbach-schmolderpark,"Schmolderpark in Monchengladbach, Germany",51.1627219,6.4288299,2,,,,Refinery,"Schmolderpark in Monchengladbach, Germany",,german_fires_monchengladbach_locations,f1afa26e27008943ca6e21465feaca50,german_fires_monchengladbach_locations__f1afa26e27008943ca6e21465feaca50
monchengladbach-hockstein,"Hockstein in Monchengladbach, Germany",51.1527118,6.419955,2,,,,LegislativeCommittee,"Hockstein in Monchengladbach, Germany",,german_fires_monchengladbach_locations,7bf74cb3fde89d5f4578ce2493765d72,german_fires_monchengladbach_locations__7bf74cb3fde89d5f4578ce2493765d72
monchengladbach-odenkirchen-west,"Odenkirchen-West in Monchengladbach, Germany",51.1360945,6.4358186,2,,,,ForeignMinistry,"Odenkirchen-West in Monchengladbach, Germany",,german_fires_monchengladbach_locations,8be966ab7af38c6d9142ffa80d7c7b79,german_fires_monchengladbach_locations__8be966ab7af38c6d9142ffa80d7c7b79
monchengladbach-odenkirchen-mitte,"Odenkirchen-Mitte in Monchengladbach, Germany",51.1322513,6.4579086,2,,,,Refinery,"Odenkirchen-Mitte in Monchengladbach, Germany",,german_fires_monchengladbach_locations,abca8dda28f9ed36e7542c4b23083b6b,german_fires_monchengladbach_locations__abca8dda28f9ed36e7542c4b23083b6b
monchengladbach-sasserath,"Sasserath in Monchengladbach, Germany",51.1216219,6.4619544,2,,,,Diplomat,"Sasserath in Monchengladbach, Germany",,german_fires_monchengladbach_locations,cf08f06f791450846f5811c5b5b66241,german_fires_monchengladbach_locations__cf08f06f791450846f5811c5b5b66241
monchengladbach-wickrath-mitte,"Wickrath-Mitte in Monchengladbach, Germany",51.1351071,6.4060597,2,,,,Media,"Wickrath-Mitte in Monchengladbach, Germany",,german_fires_monchengladbach_locations,11f150f14ddab8085fdb122d35fb78fb,german_fires_monchengladbach_locations__11f150f14ddab8085fdb122d35fb78fb
monchengladbach-wickrath-west,"Wickrath-West in Monchengladbach, Germany",51.1157995,6.3754068,2,,,,Exec,"Wickrath-West in Monchengladbach, Germany",,german_fires_monchengladbach_locations,4b1594fc5bdb1c23912a7cb3aee75177,german_fires_monchengladbach_locations__4b1594fc5bdb1c23912a7cb3aee75177
monchengladbach-wickrathberg,"Wickrathberg in Monchengladbach, Germany",51.1109044,6.4168906,2,,,,LegislativeCommittee,"Wickrathberg in Monchengladbach, Germany",,german_fires_monchengladbach_locations,6ecc6701a83bdd48b6bb7edd5c8f8f2b,german_fires_monchengladbach_locations__6ecc6701a83bdd48b6bb7edd5c8f8f2b
monchengladbach-wanlo,"Wanlo in Monchengladbach, Germany",51.0936652,6.396545,2,,,,Exec,"Wanlo in Monchengladbach, Germany",,german_fires_monchengladbach_locations,3531718d82653a293f7e638e2539a4d9,german_fires_monchengladbach_locations__3531718d82653a293f7e638e2539a4d9
monchengladbach-hehn,"Hehn in Monchengladbach, Germany",51.1814755,6.374027,2,,,,Refinery,"Hehn in Monchengladbach, Germany",,german_fires_monchengladbach_locations,4fb21bb32251f417a4b24c35882d011a,german_fires_monchengladbach_locations__4fb21bb32251f417a4b24c35882d011a
monchengladbach-holt,"Holt in Monchengladbach, Germany",51.1852427,6.4011646,2,,,,Shipping,"Holt in Monchengladbach, Germany",,german_fires_monchengladbach_locations,a0d5e5f98edcfff2fb70121c578d566a,german_fires_monchengladbach_locations__a0d5e5f98edcfff2fb70121c578d566a
monchengladbach-hauptquartier,"Hauptquartier in Monchengladbach, Germany",51.1746208,6.3068506,2,,,,Consulates,"Hauptquartier in Monchengladbach, Germany",,german_fires_monchengladbach_locations,69d8ff67c8fe1509ebd323f4d679c46e,german_fires_monchengladbach_locations__69d8ff67c8fe1509ebd323f4d679c46e
monchengladbach-rheindahlen-land,"Rheindahlen-Land in Monchengladbach, Germany",51.1690417,6.3613395,2,,,,ForeignMinistry,"Rheindahlen-Land in Monchengladbach, Germany",,german_fires_monchengladbach_locations,8c3f1549b9039e526f1f85c0d06a7d69,german_fires_monchengladbach_locations__8c3f1549b9039e526f1f85c0d06a7d69
monchengladbach-rheindahlen-mitte,"Rheindahlen-Mitte in Monchengladbach, Germany",51.1507196,6.3604385,2,,,,IndustryTerm,"Rheindahlen-Mitte in Monchengladbach, Germany",,german_fires_monchengladbach_locations,73117862e2768f243564264d5d634245,german_fires_monchengladbach_locations__73117862e2768f243564264d5d634245
am schlagbaum,"Am Schlagbaum in Monchengladbach, Germany",51.12944,6.3212991,1,,,,DiplomaticFacilities,"Am Schlagbaum in Monchengladbach, Germany",,german_fires_monchengladbach_locations,90f0be4e30a369c53a4eacf33b3dcb32,german_fires_monchengladbach_locations__90f0be4e30a369c53a4eacf33b3dcb32
anna-schiller-stiege,"Anna-Schiller-Stiege in Monchengladbach, Germany",51.193603,6.4291968,1,,,,space,"Anna-Schiller-Stiege in Monchengladbach, Germany",,german_fires_monchengladbach_locations,ba9a624f6586c7586aa0b7778c46a0e9,german_fires_monchengladbach_locations__ba9a624f6586c7586aa0b7778c46a0e9
aretzplatzke,"Aretzplatzke in Monchengladbach, Germany",51.1745698,6.3855055,1,,,,IndustryTerm,"Aretzplatzke in Monchengladbach, Germany",,german_fires_monchengladbach_locations,513491e15ef06bbbceccff2c538648f6,german_fires_monchengladbach_locations__513491e15ef06bbbceccff2c538648f6
belgrader strasse,"Belgrader Strasse in Monchengladbach, Germany",51.1793753,6.3940947,1,,,,Person,"Belgrader Strasse in Monchengladbach, Germany",,german_fires_monchengladbach_locations,62637d48e0d0010c7779e3e5e7dcd23d,german_fires_monchengladbach_locations__62637d48e0d0010c7779e3e5e7dcd23d
beller busch,"Beller Busch in Monchengladbach, Germany",51.145265,6.4521804,1,,,,Exec,"Beller Busch in Monchengladbach, Germany",,german_fires_monchengladbach_locations,33b43062d398e150dd7bfd62d85d205e,german_fires_monchengladbach_locations__33b43062d398e150dd7bfd62d85d205e
beller feld,"Beller Feld in Monchengladbach, Germany",51.1456545,6.458218,1,,,,Person,"Beller Feld in Monchengladbach, Germany",,german_fires_monchengladbach_locations,3bc7596610b74d8e23c6dda205e3aa8b,german_fires_monchengladbach_locations__3bc7596610b74d8e23c6dda205e3aa8b
brentanostrasse,"Brentanostrasse in Monchengladbach, Germany",51.1551904,6.3604976,1,,,,Keyphrase,"Brentanostrasse in Monchengladbach, Germany",,german_fires_monchengladbach_locations,55d037b6ddae71738ade5ca166303928,german_fires_monchengladbach_locations__55d037b6ddae71738ade5ca166303928
denbigh lane,"Denbigh Lane in Monchengladbach, Germany",51.1696303,6.3107421,1,,,,Refinery,"Denbigh Lane in Monchengladbach, Germany",,german_fires_monchengladbach_locations,9fe65d3b02ec43068f8a733afc7cdf36,german_fires_monchengladbach_locations__9fe65d3b02ec43068f8a733afc7cdf36
dr.-adalbert-jordan-strasse,"Dr.-Adalbert-Jordan-Strasse in Monchengladbach, Germany",51.17421,6.388409,1,,,,Wells,"Dr.-Adalbert-Jordan-Strasse in Monchengladbach, Germany",,german_fires_monchengladbach_locations,bdb5755649a3eddc42024bdc0875d264,german_fires_monchengladbach_locations__bdb5755649a3eddc42024bdc0875d264
dr.-alfred-gerhards-strasse,"Dr.-Alfred-Gerhards-Strasse in Monchengladbach, Germany",51.176159,6.3894584,1,,,,LegislativeCommittee,"Dr.-Alfred-Gerhards-Strasse in Monchengladbach, Germany",,german_fires_monchengladbach_locations,e350d3f22388833aaa983b0ea04e09cb,german_fires_monchengladbach_locations__e350d3f22388833aaa983b0ea04e09cb
dr.-helmut-beyer-weg,"Dr.-Helmut-Beyer-Weg in Monchengladbach, Germany",51.213381,6.4754276,1,,,,LegislativeCommittee,"Dr.-Helmut-Beyer-Weg in Monchengladbach, Germany",,german_fires_monchengladbach_locations,a91f4b7a4e56e773dd7bd2b1bece4e03,german_fires_monchengladbach_locations__a91f4b7a4e56e773dd7bd2b1bece4e03
edmund-erlemann-platz,"Edmund-Erlemann-Platz in Monchengladbach, Germany",51.1938708,6.4317758,1,,,,LegislativeCommittee,"Edmund-Erlemann-Platz in Monchengladbach, Germany",,german_fires_monchengladbach_locations,edf03ef6f524ae3ade3ef6a38ec04128,german_fires_monchengladbach_locations__edf03ef6f524ae3ade3ef6a38ec04128
fife drive,"Fife Drive in Monchengladbach, Germany",51.1700517,6.2977867,1,,,,LegislativeCommittee,"Fife Drive in Monchengladbach, Germany",,german_fires_monchengladbach_locations,361e68bdb53186d86055dec89372c95f,german_fires_monchengladbach_locations__361e68bdb53186d86055dec89372c95f
fohlenallee,"Fohlenallee in Monchengladbach, Germany",51.1745698,6.3855055,1,,,,Media,"Fohlenallee in Monchengladbach, Germany",,german_fires_monchengladbach_locations,9c2a6c3d3fef91792c28f52d340071c5,german_fires_monchengladbach_locations__9c2a6c3d3fef91792c28f52d340071c5
fretwell road,"Fretwell Road in Monchengladbach, Germany",51.1591938,6.3042407,1,,,,DiplomaticFacilities,"Fretwell Road in Monchengladbach, Germany",,german_fires_monchengladbach_locations,13d6b99832dd3cc6ed1b4e9012b4e9dc,german_fires_monchengladbach_locations__13d6b99832dd3cc6ed1b4e9012b4e9dc
geistenbecker ring,"Geistenbecker Ring in Monchengladbach, Germany",51.1473416,6.4395255,1,,,,Person,"Geistenbecker Ring in Monchengladbach, Germany",,german_fires_monchengladbach_locations,d2e18f400310b7800df10bd8bbe6c776,german_fires_monchengladbach_locations__d2e18f400310b7800df10bd8bbe6c776
george-c.-marshall-platz,"George-C.-Marshall-Platz in Monchengladbach, Germany",39.1127549,-77.558673,1,,,,Consulates,"George-C.-Marshall-Platz in Monchengladbach, Germany",,german_fires_monchengladbach_locations,a44ccdc5d1b762450f43a3b9210a7794,german_fires_monchengladbach_locations__a44ccdc5d1b762450f43a3b9210a7794
gerkerather hofe,"Gerkerather Hofe in Monchengladbach, Germany",51.1745698,6.3855055,1,,,,ForeignMinister,"Gerkerather Hofe in Monchengladbach, Germany",,german_fires_monchengladbach_locations,d2cc0120367663645add38d592089b73,german_fires_monchengladbach_locations__d2cc0120367663645add38d592089b73
geroplatz,"Geroplatz in Monchengladbach, Germany",51.1912134,6.4313991,1,,,,Shipping,"Geroplatz in Monchengladbach, Germany",,german_fires_monchengladbach_locations,bb5dc8950573be3008c357a01cdbe3c5,german_fires_monchengladbach_locations__bb5dc8950573be3008c357a01cdbe3c5
gloucester drive,"Gloucester Drive in Monchengladbach, Germany",51.1723328,6.3264415,1,,,,FTO,"Gloucester Drive in Monchengladbach, Germany",,german_fires_monchengladbach_locations,3a135d613cada67a54be421550a80b8d,german_fires_monchengladbach_locations__3a135d613cada67a54be421550a80b8d
grachtstrasse,"Grachtstrasse in Monchengladbach, Germany",51.1668669,6.4479887,1,,,,Keyphrase,"Grachtstrasse in Monchengladbach, Germany",,german_fires_monchengladbach_locations,7e72b313b12abbd725d9cb00bcf643e6,german_fires_monchengladbach_locations__7e72b313b12abbd725d9cb00bcf643e6
hermann-piecq-anlage,"Hermann-Piecq-Anlage in Monchengladbach, Germany",51.1985953,6.4281767,1,,,,Diplomat,"Hermann-Piecq-Anlage in Monchengladbach, Germany",,german_fires_monchengladbach_locations,e4cdf530862dba567c7e413aef9fc1ab,german_fires_monchengladbach_locations__e4cdf530862dba567c7e413aef9fc1ab
johannes-cladders-platz,"Johannes-Cladders-Platz in Monchengladbach, Germany",51.1933106,6.432975,1,,,,Media,"Johannes-Cladders-Platz in Monchengladbach, Germany",,german_fires_monchengladbach_locations,1f67c280686387e4d0cfcb6b2f9d1bed,german_fires_monchengladbach_locations__1f67c280686387e4d0cfcb6b2f9d1bed
kaulenpesch,"Kaulenpesch in Monchengladbach, Germany",51.1947235,6.3856637,1,,,,Shipping,"Kaulenpesch in Monchengladbach, Germany",,german_fires_monchengladbach_locations,7156c539d8243ce72f6d68ae81154c85,german_fires_monchengladbach_locations__7156c539d8243ce72f6d68ae81154c85
kent ride,"Kent Ride in Monchengladbach, Germany",51.1703657,6.3099366,1,,,,Refinery,"Kent Ride in Monchengladbach, Germany",,german_fires_monchengladbach_locations,46225216732f08ec3db98c0b9c2815ab,german_fires_monchengladbach_locations__46225216732f08ec3db98c0b9c2815ab
kinross drive,"Kinross Drive in Monchengladbach, Germany",51.173482,6.3275649,1,,,,DiplomaticFacilities,"Kinross Drive in Monchengladbach, Germany",,german_fires_monchengladbach_locations,b3bcc6c8b5c75072739c4bcfb564ab52,german_fires_monchengladbach_locations__b3bcc6c8b5c75072739c4bcfb564ab52
lee potter drive,"Lee Potter Drive in Monchengladbach, Germany",51.1540815,6.3043928,1,,,,Exec,"Lee Potter Drive in Monchengladbach, Germany",,german_fires_monchengladbach_locations,cfc58ddaeeed89a43ac01d100f7ad039,german_fires_monchengladbach_locations__cfc58ddaeeed89a43ac01d100f7ad039
maarplatz,"Maarplatz in Monchengladbach, Germany",51.1731002,6.4652229,1,,,,DiplomaticFacilities,"Maarplatz in Monchengladbach, Germany",,german_fires_monchengladbach_locations,a259e964ef1b2b19d25846074ad4abc4,german_fires_monchengladbach_locations__a259e964ef1b2b19d25846074ad4abc4
malta way,"Malta Way in Monchengladbach, Germany",51.1784886,6.3330103,1,,,,Shipping,"Malta Way in Monchengladbach, Germany",,german_fires_monchengladbach_locations,1ab825c120a741dc0601f87c1b9040f3,german_fires_monchengladbach_locations__1ab825c120a741dc0601f87c1b9040f3
marienplatz,"Marienplatz in Monchengladbach, Germany",51.165691,6.4419375,1,,,,Consulates,"Marienplatz in Monchengladbach, Germany",,german_fires_monchengladbach_locations,e944dcb43bc1b0d7647ed098db1114f4,german_fires_monchengladbach_locations__e944dcb43bc1b0d7647ed098db1114f4
martin-luther-platz,"Martin-Luther-Platz in Monchengladbach, Germany",51.13374,6.4532261,1,,,,Wells,"Martin-Luther-Platz in Monchengladbach, Germany",,german_fires_monchengladbach_locations,2f546b3508855395b019d64558e77943,german_fires_monchengladbach_locations__2f546b3508855395b019d64558e77943
matthias-kronen-weg,"Matthias-Kronen-Weg in Monchengladbach, Germany",51.186042,6.4204655,1,,,,Person,"Matthias-Kronen-Weg in Monchengladbach, Germany",,german_fires_monchengladbach_locations,1a8f8fbfa39a6727b1bd5d5cbfbb386e,german_fires_monchengladbach_locations__1a8f8fbfa39a6727b1bd5d5cbfbb386e
norfolk lane,"Norfolk Lane in Monchengladbach, Germany",51.170215,6.3090804,1,,,,Media,"Norfolk Lane in Monchengladbach, Germany",,german_fires_monchengladbach_locations,3b3e607f4e5aae5c8344687dad12f111,german_fires_monchengladbach_locations__3b3e607f4e5aae5c8344687dad12f111
orschelsweg,"Orschelsweg in Monchengladbach, Germany",51.1880705,6.3261941,1,,,,News,"Orschelsweg in Monchengladbach, Germany",,german_fires_monchengladbach_locations,d249aa85db31f6aa220f2b65fb783a76,german_fires_monchengladbach_locations__d249aa85db31f6aa220f2b65fb783a76
paulstrasse,"Paulstrasse in Monchengladbach, Germany",51.1679589,6.4412077,1,,,,Refinery,"Paulstrasse in Monchengladbach, Germany",,german_fires_monchengladbach_locations,12b75b2c46b7775c3aa95a457f132b2b,german_fires_monchengladbach_locations__12b75b2c46b7775c3aa95a457f132b2b
peter-beier-platz,"Peter-Beier-Platz in Monchengladbach, Germany",50.8043097,6.4798065,1,,,,Media,"Peter-Beier-Platz in Monchengladbach, Germany",,german_fires_monchengladbach_locations,0cacff4be7371de0eefa2b08418bda84,german_fires_monchengladbach_locations__0cacff4be7371de0eefa2b08418bda84
peter-schumacher-platz,"Peter-Schumacher-Platz in Monchengladbach, Germany",51.2245264,6.4732561,1,,,,Refinery,"Peter-Schumacher-Platz in Monchengladbach, Germany",,german_fires_monchengladbach_locations,9c1a2241e6ce07c9c98e7b03fe10327a,german_fires_monchengladbach_locations__9c1a2241e6ce07c9c98e7b03fe10327a
portalstieg,"Portalstieg in Monchengladbach, Germany",51.1925048,6.4304471,1,,,,FTO,"Portalstieg in Monchengladbach, Germany",,german_fires_monchengladbach_locations,7f3d4b0ab51978d8641f2025cfb2e854,german_fires_monchengladbach_locations__7f3d4b0ab51978d8641f2025cfb2e854
propst-kauff-stiege,"Propst-Kauff-Stiege in Monchengladbach, Germany",51.1937494,6.4322733,1,,,,CompanyKeyword,"Propst-Kauff-Stiege in Monchengladbach, Germany",,german_fires_monchengladbach_locations,ca46449ff6a7c1644e18cdd02da0bee6,german_fires_monchengladbach_locations__ca46449ff6a7c1644e18cdd02da0bee6
remigiusstrasse,"Remigiusstrasse in Monchengladbach, Germany",51.1530081,6.4846214,1,,,,Legislator,"Remigiusstrasse in Monchengladbach, Germany",,german_fires_monchengladbach_locations,36b9287c8e7bb23766effbd54f52bbe1,german_fires_monchengladbach_locations__36b9287c8e7bb23766effbd54f52bbe1
romanstrasse,"Romanstrasse in Monchengladbach, Germany",51.2095817,6.4836811,1,,,,Exec,"Romanstrasse in Monchengladbach, Germany",,german_fires_monchengladbach_locations,144d7c6b9edb558b301e2406b514af04,german_fires_monchengladbach_locations__144d7c6b9edb558b301e2406b514af04
rook road,"Rook Road in Monchengladbach, Germany",51.1594152,6.3085178,1,,,,News,"Rook Road in Monchengladbach, Germany",,german_fires_monchengladbach_locations,8f599c636c5f40020eb1b060079e670a,german_fires_monchengladbach_locations__8f599c636c5f40020eb1b060079e670a
schillerplatz,"Schillerplatz in Monchengladbach, Germany",51.1992328,6.442846,1,,,,LegislativeCommittee,"Schillerplatz in Monchengladbach, Germany",,german_fires_monchengladbach_locations,1f4fc45a92efd78029fc3344d94ac0d2,german_fires_monchengladbach_locations__1f4fc45a92efd78029fc3344d94ac0d2
schrodter feld,"Schrodter Feld in Monchengladbach, Germany",51.1664455,6.477862,1,,,,Diplomat,"Schrodter Feld in Monchengladbach, Germany",,german_fires_monchengladbach_locations,424535d311e8720cf879904e14268f30,german_fires_monchengladbach_locations__424535d311e8720cf879904e14268f30
schwester-gisela-weg,"Schwester-Gisela-Weg in Monchengladbach, Germany",51.2189102,6.464364,1,,,,Exec,"Schwester-Gisela-Weg in Monchengladbach, Germany",,german_fires_monchengladbach_locations,593a633a6728bbf336682bbc8322c995,german_fires_monchengladbach_locations__593a633a6728bbf336682bbc8322c995
st.-apollinaris-platz,"St.-Apollinaris-Platz in Monchengladbach, Germany",51.1874195,6.4660457,1,,,,DiplomaticFacilities,"St.-Apollinaris-Platz in Monchengladbach, Germany",,german_fires_monchengladbach_locations,cd4a2bad8b4e762776822570cc536513,german_fires_monchengladbach_locations__cd4a2bad8b4e762776822570cc536513
steegesweg,"Steegesweg in Monchengladbach, Germany",51.1572985,6.4369331,1,,,,IndustryTerm,"Steegesweg in Monchengladbach, Germany",,german_fires_monchengladbach_locations,759bdea8d29363485532e3b8dbef1f3e,german_fires_monchengladbach_locations__759bdea8d29363485532e3b8dbef1f3e
suffolk lane,"Suffolk Lane in Monchengladbach, Germany",51.1693188,6.3102818,1,,,,space,"Suffolk Lane in Monchengladbach, Germany",,german_fires_monchengladbach_locations,a37230757474a923af27e63338ec26fc,german_fires_monchengladbach_locations__a37230757474a923af27e63338ec26fc
surrey ride,"Surrey Ride in Monchengladbach, Germany",51.1708663,6.3088956,1,,,,Legislator,"Surrey Ride in Monchengladbach, Germany",,german_fires_monchengladbach_locations,b3bd1910f8f79e347e4f40b239768506,german_fires_monchengladbach_locations__b3bd1910f8f79e347e4f40b239768506
sutherland lane,"Sutherland Lane in Monchengladbach, Germany",51.1690692,6.3102868,1,,,,Refinery,"Sutherland Lane in Monchengladbach, Germany",,german_fires_monchengladbach_locations,651f04887413a1a16018ddf770ef319a,german_fires_monchengladbach_locations__651f04887413a1a16018ddf770ef319a
tilsiter strasse,"Tilsiter Strasse in Monchengladbach, Germany",51.2035138,6.4172827,1,,,,Person,"Tilsiter Strasse in Monchengladbach, Germany",,german_fires_monchengladbach_locations,4031d0467f79a4617564ed8ae9092aa7,german_fires_monchengladbach_locations__4031d0467f79a4617564ed8ae9092aa7
uferweg,"Uferweg in Monchengladbach, Germany",51.1369316,6.4510345,1,,,,Wells,"Uferweg in Monchengladbach, Germany",,german_fires_monchengladbach_locations,d694b380f25df10694925a8231305340,german_fires_monchengladbach_locations__d694b380f25df10694925a8231305340
wallsendpromenade,"Wallsendpromenade in Monchengladbach, Germany",51.1591684,6.4258877,1,,,,Person,"Wallsendpromenade in Monchengladbach, Germany",,german_fires_monchengladbach_locations,9502037e105d8674c6532996d23d66fa,german_fires_monchengladbach_locations__9502037e105d8674c6532996d23d66fa
wattstrasse,"Wattstrasse in Monchengladbach, Germany",51.2055025,6.4516549,1,,,,Wells,"Wattstrasse in Monchengladbach, Germany",,german_fires_monchengladbach_locations,b7c83ebecc37f6664ffadd3f20a1a7a1,german_fires_monchengladbach_locations__b7c83ebecc37f6664ffadd3f20a1a7a1
westmoreland lane,"Westmoreland Lane in Monchengladbach, Germany",51.1693428,6.3098736,1,,,,Consulates,"Westmoreland Lane in Monchengladbach, Germany",,german_fires_monchengladbach_locations,f1a1399ebf9b427d1962be318c9ca709,german_fires_monchengladbach_locations__f1a1399ebf9b427d1962be318c9ca709
am beller wehr,"Am Beller Wehr in Monchengladbach, Germany",51.1498417,6.4539327,1,,,,Legislator,"Am Beller Wehr in Monchengladbach, Germany",,german_fires_monchengladbach_locations,5114e4778888522c223dd04decc6fbdb,german_fires_monchengladbach_locations__5114e4778888522c223dd04decc6fbdb
hindenburgstrasse,"Hindenburgstrasse in Monchengladbach, Germany",51.1978271,6.4445238,1,,,,Consulates,"Hindenburgstrasse in Monchengladbach, Germany",,german_fires_monchengladbach_locations,f504546d8f33fe49ece83ee372875991,german_fires_monchengladbach_locations__f504546d8f33fe49ece83ee372875991
theodor-heuss-strasse,"Theodor-Heuss-Strasse in Monchengladbach, Germany",51.1852131,6.4439881,1,,,,space,"Theodor-Heuss-Strasse in Monchengladbach, Germany",,german_fires_monchengladbach_locations,aed1d67ac4a439524099587f1343744a,german_fires_monchengladbach_locations__aed1d67ac4a439524099587f1343744a
krefelder strasse,"Krefelder Strasse in Monchengladbach, Germany",51.2177556,6.4763374,1,,,,space,"Krefelder Strasse in Monchengladbach, Germany",,german_fires_monchengladbach_locations,7ef82f7323b735932a6e708670a7bfd7,german_fires_monchengladbach_locations__7ef82f7323b735932a6e708670a7bfd7
carl-diem-strasse,"Carl-Diem-Strasse in Monchengladbach, Germany",51.1945205,6.4625297,1,,,,DiplomaticFacilities,"Carl-Diem-Strasse in Monchengladbach, Germany",,german_fires_monchengladbach_locations,940807969ed058cbc4f1031312fdac59,german_fires_monchengladbach_locations__940807969ed058cbc4f1031312fdac59
an der rheydter hohe,"An der Rheydter Hohe in Monchengladbach, Germany",51.1591131,6.4112935,1,,,,ForeignMinistry,"An der Rheydter Hohe in Monchengladbach, Germany",,german_fires_monchengladbach_locations,4e2723646f357f11e1e727aad6476941,german_fires_monchengladbach_locations__4e2723646f357f11e1e727aad6476941
wilhelm-krumme-strasse,"Wilhelm-Krumme-Strasse in Monchengladbach, Germany",51.1266477,6.4574898,1,,,,space,"Wilhelm-Krumme-Strasse in Monchengladbach, Germany",,german_fires_monchengladbach_locations,cd72dac86a7fb5c9a1c6b015b4e275fa,german_fires_monchengladbach_locations__cd72dac86a7fb5c9a1c6b015b4e275fa
woof,"Woof in Monchengladbach, Germany",51.1520496,6.3238618,1,,,,space,"Woof in Monchengladbach, Germany",,german_fires_monchengladbach_locations,ee5e0e314f68a99b44c4734772120e1c,german_fires_monchengladbach_locations__ee5e0e314f68a99b44c4734772120e1c
leppershutte,"Leppershutte in Monchengladbach, Germany",51.1716105,6.5185977,1,,,,space,"Leppershutte in Monchengladbach, Germany",,german_fires_monchengladbach_locations,68ea5e520a76e9f44244c6763b85b522,german_fires_monchengladbach_locations__68ea5e520a76e9f44244c6763b85b522
taubenhutte,"Taubenhutte in Monchengladbach, Germany",51.1700269,6.5121006,1,,,,AAEntity,"Taubenhutte in Monchengladbach, Germany",,german_fires_monchengladbach_locations,ad485d8052d894b7c106b1db1584fdaa,german_fires_monchengladbach_locations__ad485d8052d894b7c106b1db1584fdaa
jahnstrasse,"Jahnstrasse in Monchengladbach, Germany",51.1371815,6.4181135,1,,,,ForeignMinistry,"Jahnstrasse in Monchengladbach, Germany",,german_fires_monchengladbach_locations,b8775740298aa4aabd9a13f5a1103c17,german_fires_monchengladbach_locations__b8775740298aa4aabd9a13f5a1103c17
bruckenstrasse,"Bruckenstrasse in Monchengladbach, Germany",51.1550512,6.4602143,1,,,,Keyphrase,"Bruckenstrasse in Monchengladbach, Germany",,german_fires_monchengladbach_locations,bbd94f8a2f3a1a947f996535bad45418,german_fires_monchengladbach_locations__bbd94f8a2f3a1a947f996535bad45418
konnental,"Konnental in Monchengladbach, Germany",51.1227564,6.4399562,1,,,,CompanyKeyword,"Konnental in Monchengladbach, Germany",,german_fires_monchengladbach_locations,e781e0f35dbe728853c57fa6e0b98e01,german_fires_monchengladbach_locations__e781e0f35dbe728853c57fa6e0b98e01
heiligenpesch,"Heiligenpesch in Monchengladbach, Germany",51.1809383,6.3712792,1,,,,Keyphrase,"Heiligenpesch in Monchengladbach, Germany",,german_fires_monchengladbach_locations,412fb33c2db85b94162a1c7847f07871,german_fires_monchengladbach_locations__412fb33c2db85b94162a1c7847f07871
hermann-ehlers-strasse,"Hermann-Ehlers-Strasse in Monchengladbach, Germany",51.1521128,6.3663232,1,,,,AAEntity,"Hermann-Ehlers-Strasse in Monchengladbach, Germany",,german_fires_monchengladbach_locations,b1d236cd4295534eada991a396690868,german_fires_monchengladbach_locations__b1d236cd4295534eada991a396690868
an den huren,"An den Huren in Monchengladbach, Germany",51.2116454,6.4795108,1,,,,FTO,"An den Huren in Monchengladbach, Germany",,german_fires_monchengladbach_locations,5ff770bf9c329f7b8003e6244b6f8a38,german_fires_monchengladbach_locations__5ff770bf9c329f7b8003e6244b6f8a38
webershutte,"Webershutte in Monchengladbach, Germany",51.207086,6.4825421,1,,,,IndustryTerm,"Webershutte in Monchengladbach, Germany",,german_fires_monchengladbach_locations,84dae3e6d478a6a44fd4722b08c7b34a,german_fires_monchengladbach_locations__84dae3e6d478a6a44fd4722b08c7b34a
neersbroicher strasse,"Neersbroicher Strasse in Monchengladbach, Germany",51.2281408,6.4801084,1,,,,ForeignMinistry,"Neersbroicher Strasse in Monchengladbach, Germany",,german_fires_monchengladbach_locations,b9d4504dc3cf014e0bce5da5ea7fe541,german_fires_monchengladbach_locations__b9d4504dc3cf014e0bce5da5ea7fe541
vorster strasse,"Vorster Strasse in Monchengladbach, Germany",51.1989597,6.3581523,1,,,,News,"Vorster Strasse in Monchengladbach, Germany",,german_fires_monchengladbach_locations,d41250e8d8e273c6dffd052237dfbc84,german_fires_monchengladbach_locations__d41250e8d8e273c6dffd052237dfbc84
landgrafenstrasse,"Landgrafenstrasse in Monchengladbach, Germany",51.1841734,6.4240142,1,,,,IndustryTerm,"Landgrafenstrasse in Monchengladbach, Germany",,german_fires_monchengladbach_locations,b82accc22dcc3e940a6a937c229275ca,german_fires_monchengladbach_locations__b82accc22dcc3e940a6a937c229275ca
graf-haeseler-strasse,"Graf-Haeseler-Strasse in Monchengladbach, Germany",51.2200717,6.4419873,1,,,,FTO,"Graf-Haeseler-Strasse in Monchengladbach, Germany",,german_fires_monchengladbach_locations,745bf775c546e2696411f0233a19bc79,german_fires_monchengladbach_locations__745bf775c546e2696411f0233a19bc79
hovener strasse,"Hovener Strasse in Monchengladbach, Germany",51.2230157,6.4552943,1,,,,Organization,"Hovener Strasse in Monchengladbach, Germany",,german_fires_monchengladbach_locations,04457e8436514c2b484a1ee5422c3da7,german_fires_monchengladbach_locations__04457e8436514c2b484a1ee5422c3da7
heinrich-pesch-strasse,"Heinrich-Pesch-Strasse in Monchengladbach, Germany",51.1712698,6.4366472,1,,,,LegislativeCommittee,"Heinrich-Pesch-Strasse in Monchengladbach, Germany",,german_fires_monchengladbach_locations,6ed93bd26d9ab6d16f4ef95b643d87a0,german_fires_monchengladbach_locations__6ed93bd26d9ab6d16f4ef95b643d87a0
bertolt-brecht-platz,"Bertolt-Brecht-Platz in Monchengladbach, Germany",51.200332,6.3850714,1,,,,AAEntity,"Bertolt-Brecht-Platz in Monchengladbach, Germany",,german_fires_monchengladbach_locations,9c329b909b565674cdeec864e921c4ed,german_fires_monchengladbach_locations__9c329b909b565674cdeec864e921c4ed
brucknerallee,"Brucknerallee in Monchengladbach, Germany",51.1730149,6.443718,1,,,,Person,"Brucknerallee in Monchengladbach, Germany",,german_fires_monchengladbach_locations,10691cfd5220190ee305c9617035ad3e,german_fires_monchengladbach_locations__10691cfd5220190ee305c9617035ad3e
am romerlager,"Am Romerlager in Monchengladbach, Germany",51.148638,6.4579537,1,,,,Shipping,"Am Romerlager in Monchengladbach, Germany",,german_fires_monchengladbach_locations,8f8bae2a536b72f7d284c661b583dae8,german_fires_monchengladbach_locations__8f8bae2a536b72f7d284c661b583dae8
gerkerathwinkel,"Gerkerathwinkel in Monchengladbach, Germany",51.1685323,6.3526111,1,,,,Shipping,"Gerkerathwinkel in Monchengladbach, Germany",,german_fires_monchengladbach_locations,3ac874ebaad31297d6fd213f8c6044f8,german_fires_monchengladbach_locations__3ac874ebaad31297d6fd213f8c6044f8
schloss-dyck-strasse,"Schloss-Dyck-Strasse in Monchengladbach, Germany",51.1499156,6.5170964,1,,,,FTO,"Schloss-Dyck-Strasse in Monchengladbach, Germany",,german_fires_monchengladbach_locations,dddf174a64103d687522172b68912e5d,german_fires_monchengladbach_locations__dddf174a64103d687522172b68912e5d
mossenweg,"Mossenweg in Monchengladbach, Germany",51.2083617,6.386403,1,,,,CompanyKeyword,"Mossenweg in Monchengladbach, Germany",,german_fires_monchengladbach_locations,cebbc860d72e1fae27e593fa120cd3e7,german_fires_monchengladbach_locations__cebbc860d72e1fae27e593fa120cd3e7
marie-juchacz-strasse,"Marie-Juchacz-Strasse in Monchengladbach, Germany",51.1230784,6.4329268,1,,,,ForeignMinister,"Marie-Juchacz-Strasse in Monchengladbach, Germany",,german_fires_monchengladbach_locations,8250f74f11480cbf7a9f971bea550b14,german_fires_monchengladbach_locations__8250f74f11480cbf7a9f971bea550b14
mennrathschmidt,"Mennrathschmidt in Monchengladbach, Germany",51.1404938,6.3855365,1,,,,LegislativeCommittee,"Mennrathschmidt in Monchengladbach, Germany",,german_fires_monchengladbach_locations,4b51c014d925d8f121a49f1fe4e6c842,german_fires_monchengladbach_locations__4b51c014d925d8f121a49f1fe4e6c842
donker strasse,"Donker Strasse in Monchengladbach, Germany",51.2385699,6.4634764,1,,,,ForeignMinister,"Donker Strasse in Monchengladbach, Germany",,german_fires_monchengladbach_locations,9bde53bcf9dce39fbe065912a1e30e02,german_fires_monchengladbach_locations__9bde53bcf9dce39fbe065912a1e30e02
preyerstrasse,"Preyerstrasse in Monchengladbach, Germany",51.1684403,6.418407,1,,,,Person,"Preyerstrasse in Monchengladbach, Germany",,german_fires_monchengladbach_locations,91d569969e583ff2ac269dc477188fdb,german_fires_monchengladbach_locations__91d569969e583ff2ac269dc477188fdb
rommelsmaar,"Rommelsmaar in Monchengladbach, Germany",51.1575071,6.5231284,1,,,,Refinery,"Rommelsmaar in Monchengladbach, Germany",,german_fires_monchengladbach_locations,f2e8874a2d9994258f81fa18588da624,german_fires_monchengladbach_locations__f2e8874a2d9994258f81fa18588da624
eichenstrasse,"Eichenstrasse in Monchengladbach, Germany",51.182643,6.4658261,1,,,,Wells,"Eichenstrasse in Monchengladbach, Germany",,german_fires_monchengladbach_locations,bcceb364e01f8c742c4abd58ed7a31dc,german_fires_monchengladbach_locations__bcceb364e01f8c742c4abd58ed7a31dc
dohrer strasse,"Dohrer Strasse in Monchengladbach, Germany",51.1581702,6.467246,1,,,,Shipping,"Dohrer Strasse in Monchengladbach, Germany",,german_fires_monchengladbach_locations,e8f24daed1efce4f50515df45162521b,german_fires_monchengladbach_locations__e8f24daed1efce4f50515df45162521b
hehn,"Hehn in Monchengladbach, Germany",51.1814755,6.374027,1,,,,News,"Hehn in Monchengladbach, Germany",,german_fires_monchengladbach_locations,4fb21bb32251f417a4b24c35882d011a,german_fires_monchengladbach_locations__4fb21bb32251f417a4b24c35882d011a
ruckes,"Ruckes in Monchengladbach, Germany",51.1659244,6.4916602,1,,,,Wells,"Ruckes in Monchengladbach, Germany",,german_fires_monchengladbach_locations,7416c316187152ef2f5e607e80dc61f0,german_fires_monchengladbach_locations__7416c316187152ef2f5e607e80dc61f0
aachener strasse,"Aachener Strasse in Monchengladbach, Germany",51.1847171,6.4134782,1,,,,Legislator,"Aachener Strasse in Monchengladbach, Germany",,german_fires_monchengladbach_locations,d1db4771795c20e254676a11734f73b2,german_fires_monchengladbach_locations__d1db4771795c20e254676a11734f73b2
tomper weg,"Tomper Weg in Monchengladbach, Germany",51.2085597,6.3350453,1,,,,LegislativeCommittee,"Tomper Weg in Monchengladbach, Germany",,german_fires_monchengladbach_locations,f972d5a79eb67b197e573bfe647b2029,german_fires_monchengladbach_locations__f972d5a79eb67b197e573bfe647b2029
maarstrasse,"Maarstrasse in Monchengladbach, Germany",51.1729925,6.4634394,1,,,,Keyphrase,"Maarstrasse in Monchengladbach, Germany",,german_fires_monchengladbach_locations,c169a8dc5e00779c6122adee28eca779,german_fires_monchengladbach_locations__c169a8dc5e00779c6122adee28eca779
blaffert,"Blaffert in Monchengladbach, Germany",51.1620025,6.4779784,1,,,,AAEntity,"Blaffert in Monchengladbach, Germany",,german_fires_monchengladbach_locations,d4640339a1719fd0bdf06a30844ddddd,german_fires_monchengladbach_locations__d4640339a1719fd0bdf06a30844ddddd
engelsmuhlenweg,"Engelsmuhlenweg in Monchengladbach, Germany",51.217372,6.4837454,1,,,,Diplomat,"Engelsmuhlenweg in Monchengladbach, Germany",,german_fires_monchengladbach_locations,ff855e84d6bc177a3517264e884bde9b,german_fires_monchengladbach_locations__ff855e84d6bc177a3517264e884bde9b
wilhelmstrasse,"Wilhelmstrasse in Monchengladbach, Germany",51.1932273,6.4398651,1,,,,Keyphrase,"Wilhelmstrasse in Monchengladbach, Germany",,german_fires_monchengladbach_locations,92a7d1e8ed59ff9fcc9ad4f4ee6f16f8,german_fires_monchengladbach_locations__92a7d1e8ed59ff9fcc9ad4f4ee6f16f8
lambertsstrasse,"Lambertsstrasse in Monchengladbach, Germany",51.1935746,6.4391285,1,,,,AAEntity,"Lambertsstrasse in Monchengladbach, Germany",,german_fires_monchengladbach_locations,e0f7d54db28a9aa7bf6acb73058012ea,german_fires_monchengladbach_locations__e0f7d54db28a9aa7bf6acb73058012ea
burggrafenstrasse,"Burggrafenstrasse in Monchengladbach, Germany",51.1916908,6.4197036,1,,,,Diplomat,"Burggrafenstrasse in Monchengladbach, Germany",,german_fires_monchengladbach_locations,d25ad45ff84c8dbda472cec1991a1561,german_fires_monchengladbach_locations__d25ad45ff84c8dbda472cec1991a1561
herrather linde,"Herrather Linde in Monchengladbach, Germany",51.1003668,6.3642545,1,,,,Organization,"Herrather Linde in Monchengladbach, Germany",,german_fires_monchengladbach_locations,dbec1de2352db8e7aec7174ae949cbe1,german_fires_monchengladbach_locations__dbec1de2352db8e7aec7174ae949cbe1
reyerstrasse,"Reyerstrasse in Monchengladbach, Germany",51.195904,6.4634595,1,,,,Pipeline,"Reyerstrasse in Monchengladbach, Germany",,german_fires_monchengladbach_locations,11dd11531a71026d8c9f322ce8c6bce7,german_fires_monchengladbach_locations__11dd11531a71026d8c9f322ce8c6bce7
dohler strasse,"Dohler Strasse in Monchengladbach, Germany",51.178792,6.4627162,1,,,,Refinery,"Dohler Strasse in Monchengladbach, Germany",,german_fires_monchengladbach_locations,78bf4f8ea74ce31dce367e83df638d14,german_fires_monchengladbach_locations__78bf4f8ea74ce31dce367e83df638d14
mongshof,"Mongshof in Monchengladbach, Germany",51.1169416,6.4481136,1,,,,Person,"Mongshof in Monchengladbach, Germany",,german_fires_monchengladbach_locations,fb18d1670d50681b3573171647a61830,german_fires_monchengladbach_locations__fb18d1670d50681b3573171647a61830
urftstrasse,"Urftstrasse in Monchengladbach, Germany",51.1609432,6.4290374,1,,,,Refinery,"Urftstrasse in Monchengladbach, Germany",,german_fires_monchengladbach_locations,e7345b59564ed96f21904b2b6c74e85d,german_fires_monchengladbach_locations__e7345b59564ed96f21904b2b6c74e85d
marie-bernays-ring,"Marie-Bernays-Ring in Monchengladbach, Germany",51.1201011,6.4335864,1,,,,CompanyKeyword,"Marie-Bernays-Ring in Monchengladbach, Germany",,german_fires_monchengladbach_locations,d5d6c47d04b5e016b151a8578ce3ceb1,german_fires_monchengladbach_locations__d5d6c47d04b5e016b151a8578ce3ceb1
hompeschstrasse,"Hompeschstrasse in Monchengladbach, Germany",51.1342171,6.4019254,1,,,,Refinery,"Hompeschstrasse in Monchengladbach, Germany",,german_fires_monchengladbach_locations,723070a643690e360b1dd387df10bb31,german_fires_monchengladbach_locations__723070a643690e360b1dd387df10bb31
pongser strasse,"Pongser Strasse in Monchengladbach, Germany",51.1664995,6.415308,1,,,,Refinery,"Pongser Strasse in Monchengladbach, Germany",,german_fires_monchengladbach_locations,a035daebd7dd251c01553dcb69a2aaad,german_fires_monchengladbach_locations__a035daebd7dd251c01553dcb69a2aaad
ohlerhof,"Ohlerhof in Monchengladbach, Germany",51.175371,6.4265849,1,,,,IndustryTerm,"Ohlerhof in Monchengladbach, Germany",,german_fires_monchengladbach_locations,106db47ed61dade5cf896d117d99d247,german_fires_monchengladbach_locations__106db47ed61dade5cf896d117d99d247
engelblecker strasse,"Engelblecker Strasse in Monchengladbach, Germany",51.2173354,6.4692269,1,,,,Consulates,"Engelblecker Strasse in Monchengladbach, Germany",,german_fires_monchengladbach_locations,28a3822dc890a222a7d7c6f9435562b9,german_fires_monchengladbach_locations__28a3822dc890a222a7d7c6f9435562b9
genholland,"Genholland in Monchengladbach, Germany",51.1277621,6.3568226,1,,,,Diplomat,"Genholland in Monchengladbach, Germany",,german_fires_monchengladbach_locations,66ab3fd8aec2d6a27e99925a636fcc15,german_fires_monchengladbach_locations__66ab3fd8aec2d6a27e99925a636fcc15
meerkamp,"Meerkamp in Monchengladbach, Germany",51.1661605,6.483426,1,,,,Wells,"Meerkamp in Monchengladbach, Germany",,german_fires_monchengladbach_locations,b3cacfeb0e31d4f86e5f7dd59a26d5df,german_fires_monchengladbach_locations__b3cacfeb0e31d4f86e5f7dd59a26d5df
plattenstrasse,"Plattenstrasse in Monchengladbach, Germany",51.0985681,6.413823,1,,,,Organization,"Plattenstrasse in Monchengladbach, Germany",,german_fires_monchengladbach_locations,70412aac651d7a4d97f2dff0d97b0972,german_fires_monchengladbach_locations__70412aac651d7a4d97f2dff0d97b0972
korschenbroicher strasse,"Korschenbroicher Strasse in Monchengladbach, Germany",51.1983597,6.4671701,1,,,,Refinery,"Korschenbroicher Strasse in Monchengladbach, Germany",,german_fires_monchengladbach_locations,bed3f078a8eb55ac24411c16106bb225,german_fires_monchengladbach_locations__bed3f078a8eb55ac24411c16106bb225
selma-horn-weg,"Selma-Horn-Weg in Monchengladbach, Germany",51.1257616,6.457433,1,,,,Consulates,"Selma-Horn-Weg in Monchengladbach, Germany",,german_fires_monchengladbach_locations,81469854e0750cfc556e3bf42491afe1,german_fires_monchengladbach_locations__81469854e0750cfc556e3bf42491afe1
fuchskuhlenweg,"Fuchskuhlenweg in Monchengladbach, Germany",51.142418,6.4369411,1,,,,DiplomaticFacilities,"Fuchskuhlenweg in Monchengladbach, Germany",,german_fires_monchengladbach_locations,028f4420a2aacfec524e1a38b643564d,german_fires_monchengladbach_locations__028f4420a2aacfec524e1a38b643564d
flachsbleiche,"Flachsbleiche in Monchengladbach, Germany",51.1680353,6.3816484,1,,,,Refinery,"Flachsbleiche in Monchengladbach, Germany",,german_fires_monchengladbach_locations,89e745ae1ce22df18e5d45b2e15151c4,german_fires_monchengladbach_locations__89e745ae1ce22df18e5d45b2e15151c4
klusenstrasse,"Klusenstrasse in Monchengladbach, Germany",51.1524794,6.4147689,1,,,,News,"Klusenstrasse in Monchengladbach, Germany",,german_fires_monchengladbach_locations,ee9aa1746a1a6f122ebeb459475b6d19,german_fires_monchengladbach_locations__ee9aa1746a1a6f122ebeb459475b6d19
jakobshohe,"Jakobshohe in Monchengladbach, Germany",51.2147885,6.4780166,1,,,,IndustryTerm,"Jakobshohe in Monchengladbach, Germany",,german_fires_monchengladbach_locations,97186d3b51c432943480ead3a168dfb8,german_fires_monchengladbach_locations__97186d3b51c432943480ead3a168dfb8
kabelstrasse,"Kabelstrasse in Monchengladbach, Germany",51.1831311,6.4204037,1,,,,DiplomaticFacilities,"Kabelstrasse in Monchengladbach, Germany",,german_fires_monchengladbach_locations,08713cd7943b2dd50c39a26e0cd55180,german_fires_monchengladbach_locations__08713cd7943b2dd50c39a26e0cd55180
heinz-nixdorf-strasse,"Heinz-Nixdorf-Strasse in Monchengladbach, Germany",51.1725807,6.3906398,1,,,,Exec,"Heinz-Nixdorf-Strasse in Monchengladbach, Germany",,german_fires_monchengladbach_locations,a2d547c478aed7ab4fc56dde9e7470df,german_fires_monchengladbach_locations__a2d547c478aed7ab4fc56dde9e7470df
hehner strasse,"Hehner Strasse in Monchengladbach, Germany",51.1887932,6.4098852,1,,,,LegislativeCommittee,"Hehner Strasse in Monchengladbach, Germany",,german_fires_monchengladbach_locations,4568cb995d6dbeedb93b3c374483849e,german_fires_monchengladbach_locations__4568cb995d6dbeedb93b3c374483849e
voosen,"Voosen in Monchengladbach, Germany",51.1513016,6.3798403,1,,,,Person,"Voosen in Monchengladbach, Germany",,german_fires_monchengladbach_locations,f8cdd1dbfa59afdc2b3e735860790891,german_fires_monchengladbach_locations__f8cdd1dbfa59afdc2b3e735860790891
windmuhlenweg,"Windmuhlenweg in Monchengladbach, Germany",51.2015838,6.4025159,1,,,,Keyphrase,"Windmuhlenweg in Monchengladbach, Germany",,german_fires_monchengladbach_locations,88937645ab327d71646d750e051f27bf,german_fires_monchengladbach_locations__88937645ab327d71646d750e051f27bf
kirchhofstrasse,"Kirchhofstrasse in Monchengladbach, Germany",51.134139,6.4570547,1,,,,ForeignMinister,"Kirchhofstrasse in Monchengladbach, Germany",,german_fires_monchengladbach_locations,25eef4e2c087ab72b1ef8c731bdf9cd9,german_fires_monchengladbach_locations__25eef4e2c087ab72b1ef8c731bdf9cd9
im grund,"Im Grund in Monchengladbach, Germany",51.1507619,6.4160839,1,,,,DiplomaticFacilities,"Im Grund in Monchengladbach, Germany",,german_fires_monchengladbach_locations,e533b9849d99e34a569389bf2586af70,german_fires_monchengladbach_locations__e533b9849d99e34a569389bf2586af70
jorespfad,"Jorespfad in Monchengladbach, Germany",51.2057658,6.4672966,1,,,,CompanyKeyword,"Jorespfad in Monchengladbach, Germany",,german_fires_monchengladbach_locations,b2d88f5380610919b1ec5cb80d47c34e,german_fires_monchengladbach_locations__b2d88f5380610919b1ec5cb80d47c34e
grunstrasse,"Grunstrasse in Monchengladbach, Germany",51.1283191,6.4553164,1,,,,Exec,"Grunstrasse in Monchengladbach, Germany",,german_fires_monchengladbach_locations,5779d809c0c385e45c3a8de8aa6cc8de,german_fires_monchengladbach_locations__5779d809c0c385e45c3a8de8aa6cc8de
giesenkirchener strasse,"Giesenkirchener Strasse in Monchengladbach, Germany",51.150362,6.4641035,1,,,,Refinery,"Giesenkirchener Strasse in Monchengladbach, Germany",,german_fires_monchengladbach_locations,68e31d42437b4aae1b5679a3ba745bb0,german_fires_monchengladbach_locations__68e31d42437b4aae1b5679a3ba745bb0
am flughafen,"Am Flughafen in Monchengladbach, Germany",51.2314873,6.493787,1,,,,News,"Am Flughafen in Monchengladbach, Germany",,german_fires_monchengladbach_locations,8f9b02d76fa92db59bfb48100297fb06,german_fires_monchengladbach_locations__8f9b02d76fa92db59bfb48100297fb06
wehnerstrasse,"Wehnerstrasse in Monchengladbach, Germany",51.1959993,6.4195443,1,,,,Diplomat,"Wehnerstrasse in Monchengladbach, Germany",,german_fires_monchengladbach_locations,144f07e072a51e5b6d1905d497cd79a6,german_fires_monchengladbach_locations__144f07e072a51e5b6d1905d497cd79a6
bockerkamp,"Bockerkamp in Monchengladbach, Germany",51.2255032,6.4552087,1,,,,Keyphrase,"Bockerkamp in Monchengladbach, Germany",,german_fires_monchengladbach_locations,8d9721ba0afffa8be319cfda59df12a0,german_fires_monchengladbach_locations__8d9721ba0afffa8be319cfda59df12a0
friesenstrasse,"Friesenstrasse in Monchengladbach, Germany",51.1562312,6.4810931,1,,,,ForeignMinistry,"Friesenstrasse in Monchengladbach, Germany",,german_fires_monchengladbach_locations,a30eccbb8d98447038beea70f8a52017,german_fires_monchengladbach_locations__a30eccbb8d98447038beea70f8a52017
muhlenstrasse,"Muhlenstrasse in Monchengladbach, Germany",51.1694284,6.4480212,1,,,,DiplomaticFacilities,"Muhlenstrasse in Monchengladbach, Germany",,german_fires_monchengladbach_locations,9ff4dfca74dab62c1ffbd9e46f1a36f0,german_fires_monchengladbach_locations__9ff4dfca74dab62c1ffbd9e46f1a36f0
steinsstrasse,"Steinsstrasse in Monchengladbach, Germany",51.1492057,6.4468901,1,,,,AAEntity,"Steinsstrasse in Monchengladbach, Germany",,german_fires_monchengladbach_locations,e559a78b114a45d78b658a98890e38df,german_fires_monchengladbach_locations__e559a78b114a45d78b658a98890e38df
burgfreiheit,"Burgfreiheit in Monchengladbach, Germany",51.1342913,6.4526518,1,,,,space,"Burgfreiheit in Monchengladbach, Germany",,german_fires_monchengladbach_locations,67af248381302d04e0751a6c0bb1c272,german_fires_monchengladbach_locations__67af248381302d04e0751a6c0bb1c272
hackesstrasse,"Hackesstrasse in Monchengladbach, Germany",51.2255063,6.4438697,1,,,,Pipeline,"Hackesstrasse in Monchengladbach, Germany",,german_fires_monchengladbach_locations,15ac1490bb6ce37dcf86cd8ae259f380,german_fires_monchengladbach_locations__15ac1490bb6ce37dcf86cd8ae259f380
friedrich-ebert-strasse,"Friedrich-Ebert-Strasse in Monchengladbach, Germany",51.1698161,6.4398924,1,,,,CompanyKeyword,"Friedrich-Ebert-Strasse in Monchengladbach, Germany",,german_fires_monchengladbach_locations,5822a540bb98fd88a503486f2a55b74c,german_fires_monchengladbach_locations__5822a540bb98fd88a503486f2a55b74c
broicher strasse,"Broicher Strasse in Monchengladbach, Germany",51.1557493,6.3454418,1,,,,Consulates,"Broicher Strasse in Monchengladbach, Germany",,german_fires_monchengladbach_locations,248c0e33a2114660d4b730d3f53e91f2,german_fires_monchengladbach_locations__248c0e33a2114660d4b730d3f53e91f2
bellstieg,"Bellstieg in Monchengladbach, Germany",51.2004869,6.4474475,1,,,,Wells,"Bellstieg in Monchengladbach, Germany",,german_fires_monchengladbach_locations,5d3006051410c3d415b5158546495bab,german_fires_monchengladbach_locations__5d3006051410c3d415b5158546495bab
tackhutte,"Tackhutte in Monchengladbach, Germany",51.1715268,6.480636,1,,,,DiplomaticFacilities,"Tackhutte in Monchengladbach, Germany",,german_fires_monchengladbach_locations,3d5f20fb9e0f708d097857f9ad30c533,german_fires_monchengladbach_locations__3d5f20fb9e0f708d097857f9ad30c533
bendhutter strasse,"Bendhutter Strasse in Monchengladbach, Germany",51.2207598,6.4728807,1,,,,Organization,"Bendhutter Strasse in Monchengladbach, Germany",,german_fires_monchengladbach_locations,f0b7fb5956be20461f9299ea652241dd,german_fires_monchengladbach_locations__f0b7fb5956be20461f9299ea652241dd
pfarrer-orth-weg,"Pfarrer-Orth-Weg in Monchengladbach, Germany",51.1978289,6.3575211,1,,,,Organization,"Pfarrer-Orth-Weg in Monchengladbach, Germany",,german_fires_monchengladbach_locations,39e37e826c8996291ef79b97e61c4869,german_fires_monchengladbach_locations__39e37e826c8996291ef79b97e61c4869
hardenbergstrasse,"Hardenbergstrasse in Monchengladbach, Germany",51.1591376,6.4527416,1,,,,Refinery,"Hardenbergstrasse in Monchengladbach, Germany",,german_fires_monchengladbach_locations,454c3c15fd5dd11a193e3fd47ac1e463,german_fires_monchengladbach_locations__454c3c15fd5dd11a193e3fd47ac1e463
steinmetzstrasse,"Steinmetzstrasse in Monchengladbach, Germany",51.1974561,6.4424233,1,,,,ForeignMinistry,"Steinmetzstrasse in Monchengladbach, Germany",,german_fires_monchengladbach_locations,5bd23252385496f2857145e3bd14c266,german_fires_monchengladbach_locations__5bd23252385496f2857145e3bd14c266
sittardstrasse,"Sittardstrasse in Monchengladbach, Germany",51.1983103,6.4415879,1,,,,Diplomat,"Sittardstrasse in Monchengladbach, Germany",,german_fires_monchengladbach_locations,c99d2807c3bfba5193fd9d0eaa0f69d9,german_fires_monchengladbach_locations__c99d2807c3bfba5193fd9d0eaa0f69d9
ringesfeldchen,"Ringesfeldchen in Monchengladbach, Germany",51.1666652,6.5266519,1,,,,Wells,"Ringesfeldchen in Monchengladbach, Germany",,german_fires_monchengladbach_locations,427b94d240e0482fa6e4fc4f152f2cc2,german_fires_monchengladbach_locations__427b94d240e0482fa6e4fc4f152f2cc2
schonskanterweg,"Schonskanterweg in Monchengladbach, Germany",51.2156754,6.4820044,1,,,,Wells,"Schonskanterweg in Monchengladbach, Germany",,german_fires_monchengladbach_locations,f2615ea0af3f12d71a6925b323bb03f5,german_fires_monchengladbach_locations__f2615ea0af3f12d71a6925b323bb03f5
im flachsfeld,"Im Flachsfeld in Monchengladbach, Germany",51.1438844,6.4429831,1,,,,IndustryTerm,"Im Flachsfeld in Monchengladbach, Germany",,german_fires_monchengladbach_locations,e24bcbec6a353a31ba778865bee32de0,german_fires_monchengladbach_locations__e24bcbec6a353a31ba778865bee32de0
gelderner strasse,"Gelderner Strasse in Monchengladbach, Germany",51.1371158,6.4196391,1,,,,Organization,"Gelderner Strasse in Monchengladbach, Germany",,german_fires_monchengladbach_locations,0b93b35f1c59a1426846f9c6cd11ed3f,german_fires_monchengladbach_locations__0b93b35f1c59a1426846f9c6cd11ed3f
schelsenweg,"Schelsenweg in Monchengladbach, Germany",51.1518484,6.4930274,1,,,,DiplomaticFacilities,"Schelsenweg in Monchengladbach, Germany",,german_fires_monchengladbach_locations,01fbc755b2be0b946dbc12e12b4694f1,german_fires_monchengladbach_locations__01fbc755b2be0b946dbc12e12b4694f1
annakirchstrasse,"Annakirchstrasse in Monchengladbach, Germany",51.2056329,6.4168626,1,,,,FTO,"Annakirchstrasse in Monchengladbach, Germany",,german_fires_monchengladbach_locations,6c96bb2f8930808e0261d36114c965e6,german_fires_monchengladbach_locations__6c96bb2f8930808e0261d36114c965e6
venner strasse,"Venner Strasse in Monchengladbach, Germany",51.2071513,6.3968495,1,,,,FTO,"Venner Strasse in Monchengladbach, Germany",,german_fires_monchengladbach_locations,8186897f897666ceb626dd37c87c26ef,german_fires_monchengladbach_locations__8186897f897666ceb626dd37c87c26ef
geistenbecker feld,"Geistenbecker Feld in Monchengladbach, Germany",51.1502198,6.4361989,1,,,,Wells,"Geistenbecker Feld in Monchengladbach, Germany",,german_fires_monchengladbach_locations,b54a1c1c80e75949a9b95dc1372e1254,german_fires_monchengladbach_locations__b54a1c1c80e75949a9b95dc1372e1254
sophienstrasse,"Sophienstrasse in Monchengladbach, Germany",51.1935462,6.4479123,1,,,,News,"Sophienstrasse in Monchengladbach, Germany",,german_fires_monchengladbach_locations,5ad8bb039ef80fe9ff6583b0ef425917,german_fires_monchengladbach_locations__5ad8bb039ef80fe9ff6583b0ef425917
stapper weg,"Stapper Weg in Monchengladbach, Germany",51.1474139,6.440002,1,,,,Exec,"Stapper Weg in Monchengladbach, Germany",,german_fires_monchengladbach_locations,221ff4085242cfa5d6e6765592eb0481,german_fires_monchengladbach_locations__221ff4085242cfa5d6e6765592eb0481
neusser strasse,"Neusser Strasse in Monchengladbach, Germany",51.2040783,6.4744641,1,,,,Legislator,"Neusser Strasse in Monchengladbach, Germany",,german_fires_monchengladbach_locations,14ed9f0319f7809adf2b33ad1c68cbcd,german_fires_monchengladbach_locations__14ed9f0319f7809adf2b33ad1c68cbcd
broseweg,"Broseweg in Monchengladbach, Germany",51.2072153,6.4454609,1,,,,Exec,"Broseweg in Monchengladbach, Germany",,german_fires_monchengladbach_locations,668b2c8ba0288688b33075731f9124a1,german_fires_monchengladbach_locations__668b2c8ba0288688b33075731f9124a1
saarlandallee,"Saarlandallee in Monchengladbach, Germany",51.2038323,6.4320601,1,,,,Diplomat,"Saarlandallee in Monchengladbach, Germany",,german_fires_monchengladbach_locations,0cb0d57d2ef8dfa571668d014dd6b7e8,german_fires_monchengladbach_locations__0cb0d57d2ef8dfa571668d014dd6b7e8
alsstrasse,"Alsstrasse in Monchengladbach, Germany",51.2067686,6.4555302,1,,,,Pipeline,"Alsstrasse in Monchengladbach, Germany",,german_fires_monchengladbach_locations,b121852a0495a73b2123934ede7fd560,german_fires_monchengladbach_locations__b121852a0495a73b2123934ede7fd560
huttendyk,"Huttendyk in Monchengladbach, Germany",51.2275204,6.444986,1,,,,Wells,"Huttendyk in Monchengladbach, Germany",,german_fires_monchengladbach_locations,fb7158b6d658417a4263031126c73cdc,german_fires_monchengladbach_locations__fb7158b6d658417a4263031126c73cdc
labbstrasse,"Labbstrasse in Monchengladbach, Germany",51.2039295,6.3340371,1,,,,DiplomaticFacilities,"Labbstrasse in Monchengladbach, Germany",,german_fires_monchengladbach_locations,cf5e38db1bcb8a37a0c80bea1d402c53,german_fires_monchengladbach_locations__cf5e38db1bcb8a37a0c80bea1d402c53
dahlener strasse,"Dahlener Strasse in Monchengladbach, Germany",51.1621588,6.4206026,1,,,,ForeignMinistry,"Dahlener Strasse in Monchengladbach, Germany",,german_fires_monchengladbach_locations,98887b324aa755571ee65d8a7bf8ea0b,german_fires_monchengladbach_locations__98887b324aa755571ee65d8a7bf8ea0b
odenkirchener strasse,"Odenkirchener Strasse in Monchengladbach, Germany",51.1583502,6.4470005,1,,,,FTO,"Odenkirchener Strasse in Monchengladbach, Germany",,german_fires_monchengladbach_locations,6ddcd3d6db513cbd6131b89e4b798169,german_fires_monchengladbach_locations__6ddcd3d6db513cbd6131b89e4b798169
broichhausenstrasse,"Broichhausenstrasse in Monchengladbach, Germany",51.1317704,6.4154025,1,,,,Media,"Broichhausenstrasse in Monchengladbach, Germany",,german_fires_monchengladbach_locations,05d8c77eb57c715b6f5727107c807ce6,german_fires_monchengladbach_locations__05d8c77eb57c715b6f5727107c807ce6
hochstadenstrasse,"Hochstadenstrasse in Monchengladbach, Germany",51.1314884,6.4188234,1,,,,ForeignMinister,"Hochstadenstrasse in Monchengladbach, Germany",,german_fires_monchengladbach_locations,007aa5f8d844fc248e2a12fb362ed4b9,german_fires_monchengladbach_locations__007aa5f8d844fc248e2a12fb362ed4b9
bahnstrasse,"Bahnstrasse in Monchengladbach, Germany",51.1832605,6.4143528,1,,,,LegislativeCommittee,"Bahnstrasse in Monchengladbach, Germany",,german_fires_monchengladbach_locations,6516e5fc765a2a863988b6d8ec974fec,german_fires_monchengladbach_locations__6516e5fc765a2a863988b6d8ec974fec
corresburger weg,"Corresburger Weg in Monchengladbach, Germany",51.1544204,6.5152366,1,,,,Consulates,"Corresburger Weg in Monchengladbach, Germany",,german_fires_monchengladbach_locations,7637007682d7fd74125b23f33edc198b,german_fires_monchengladbach_locations__7637007682d7fd74125b23f33edc198b
theodor-storm-strasse,"Theodor-Storm-Strasse in Monchengladbach, Germany",51.1543088,6.4835452,1,,,,Diplomat,"Theodor-Storm-Strasse in Monchengladbach, Germany",,german_fires_monchengladbach_locations,fc23ad99a32ee15dc469b1d37e09d40f,german_fires_monchengladbach_locations__fc23ad99a32ee15dc469b1d37e09d40f
kamphausener hohe,"Kamphausener Hohe in Monchengladbach, Germany",51.1360157,6.4593858,1,,,,ForeignMinistry,"Kamphausener Hohe in Monchengladbach, Germany",,german_fires_monchengladbach_locations,155a3085c967e02e93e30aba026ff128,german_fires_monchengladbach_locations__155a3085c967e02e93e30aba026ff128
dammer strasse,"Dammer Strasse in Monchengladbach, Germany",51.2227719,6.4759467,1,,,,ForeignMinister,"Dammer Strasse in Monchengladbach, Germany",,german_fires_monchengladbach_locations,7cc71b0ae01c74595d280fe2f354bf5c,german_fires_monchengladbach_locations__7cc71b0ae01c74595d280fe2f354bf5c
pescher strasse,"Pescher Strasse in Monchengladbach, Germany",51.1939161,6.453138,1,,,,ForeignMinistry,"Pescher Strasse in Monchengladbach, Germany",,german_fires_monchengladbach_locations,469d837763cd85138a2eb44734e0caec,german_fires_monchengladbach_locations__469d837763cd85138a2eb44734e0caec
ritterstrasse,"Ritterstrasse in Monchengladbach, Germany",51.1806102,6.4724004,1,,,,ForeignMinistry,"Ritterstrasse in Monchengladbach, Germany",,german_fires_monchengladbach_locations,0623335cca44042637dae652916331c1,german_fires_monchengladbach_locations__0623335cca44042637dae652916331c1
baueshutte,"Baueshutte in Monchengladbach, Germany",51.1632703,6.4955557,1,,,,IndustryTerm,"Baueshutte in Monchengladbach, Germany",,german_fires_monchengladbach_locations,2fd9e218c7f5c3e861f6a352bcd6ccb2,german_fires_monchengladbach_locations__2fd9e218c7f5c3e861f6a352bcd6ccb2
in der bungt,"In der Bungt in Monchengladbach, Germany",51.19221,6.4716952,1,,,,AAEntity,"In der Bungt in Monchengladbach, Germany",,german_fires_monchengladbach_locations,402b6233977c515de2c0e0729bb9471f,german_fires_monchengladbach_locations__402b6233977c515de2c0e0729bb9471f
theodor-trippel-strasse,"Theodor-Trippel-Strasse in Monchengladbach, Germany",51.123706,6.3949201,1,,,,Pipeline,"Theodor-Trippel-Strasse in Monchengladbach, Germany",,german_fires_monchengladbach_locations,88054c8f74a80d4b71f2073bfed27494,german_fires_monchengladbach_locations__88054c8f74a80d4b71f2073bfed27494
geistenbecker strasse,"Geistenbecker Strasse in Monchengladbach, Germany",51.1483195,6.4436341,1,,,,AAEntity,"Geistenbecker Strasse in Monchengladbach, Germany",,german_fires_monchengladbach_locations,f531fba7748bbe0e1507c15a848692b3,german_fires_monchengladbach_locations__f531fba7748bbe0e1507c15a848692b3
ronneterheide,"Ronneterheide in Monchengladbach, Germany",51.1928691,6.3993646,1,,,,CompanyKeyword,"Ronneterheide in Monchengladbach, Germany",,german_fires_monchengladbach_locations,29087281d407169bd3528f5a24c0799d,german_fires_monchengladbach_locations__29087281d407169bd3528f5a24c0799d
luisental,"Luisental in Monchengladbach, Germany",51.1461157,6.4462102,1,,,,FTO,"Luisental in Monchengladbach, Germany",,german_fires_monchengladbach_locations,fe21f29d956ca258349ac4bbdf7fb9fa,german_fires_monchengladbach_locations__fe21f29d956ca258349ac4bbdf7fb9fa
gotzweg,"Gotzweg in Monchengladbach, Germany",51.1517758,6.4427638,1,,,,AAEntity,"Gotzweg in Monchengladbach, Germany",,german_fires_monchengladbach_locations,5d511c444f524a2bc3ff53e537ba48ef,german_fires_monchengladbach_locations__5d511c444f524a2bc3ff53e537ba48ef
tomper feld,"Tomper Feld in Monchengladbach, Germany",51.2086335,6.3367998,1,,,,Media,"Tomper Feld in Monchengladbach, Germany",,german_fires_monchengladbach_locations,8a78905ebc8069a3fb703ec809a76302,german_fires_monchengladbach_locations__8a78905ebc8069a3fb703ec809a76302
an den fichten,"An den Fichten in Monchengladbach, Germany",51.1383245,6.4429289,1,,,,Person,"An den Fichten in Monchengladbach, Germany",,german_fires_monchengladbach_locations,eff17de14e6149aad5ae027fc56867e6,german_fires_monchengladbach_locations__eff17de14e6149aad5ae027fc56867e6
johannes-brockers-strasse,"Johannes-Brockers-Strasse in Monchengladbach, Germany",51.2224796,6.4454771,1,,,,Consulates,"Johannes-Brockers-Strasse in Monchengladbach, Germany",,german_fires_monchengladbach_locations,8c9fdd22ffc4512838f8f87af5fa664f,german_fires_monchengladbach_locations__8c9fdd22ffc4512838f8f87af5fa664f
viersener strasse,"Viersener Strasse in Monchengladbach, Germany",51.2069401,6.4242906,1,,,,Shipping,"Viersener Strasse in Monchengladbach, Germany",,german_fires_monchengladbach_locations,bb341ca0cbb6a985c4d9c6a703a15faa,german_fires_monchengladbach_locations__bb341ca0cbb6a985c4d9c6a703a15faa
wanloer strasse,"Wanloer Strasse in Monchengladbach, Germany",51.1080278,6.3842146,1,,,,ForeignMinister,"Wanloer Strasse in Monchengladbach, Germany",,german_fires_monchengladbach_locations,eceaa7ff516cc45f5a320f55c9bc7088,german_fires_monchengladbach_locations__eceaa7ff516cc45f5a320f55c9bc7088
mittelstrasse,"Mittelstrasse in Monchengladbach, Germany",51.1626237,6.4385617,1,,,,Keyphrase,"Mittelstrasse in Monchengladbach, Germany",,german_fires_monchengladbach_locations,4bbb7a3e52705064dcfdf6fa355a19de,german_fires_monchengladbach_locations__4bbb7a3e52705064dcfdf6fa355a19de
hehnerholt,"Hehnerholt in Monchengladbach, Germany",51.1848033,6.4006233,1,,,,ForeignMinistry,"Hehnerholt in Monchengladbach, Germany",,german_fires_monchengladbach_locations,48e19ebe2aa9db8968453c68d914dc28,german_fires_monchengladbach_locations__48e19ebe2aa9db8968453c68d914dc28
dominikus-vraetz-strasse,"Dominikus-Vraetz-Strasse in Monchengladbach, Germany",51.1581479,6.4902518,1,,,,News,"Dominikus-Vraetz-Strasse in Monchengladbach, Germany",,german_fires_monchengladbach_locations,97dc2e654837b04879f1e44adc60ceb9,german_fires_monchengladbach_locations__97dc2e654837b04879f1e44adc60ceb9
schurenweg,"Schurenweg in Monchengladbach, Germany",51.208906,6.4348713,1,,,,Refinery,"Schurenweg in Monchengladbach, Germany",,german_fires_monchengladbach_locations,552f13aee243e9bd08d95ff46efb6f03,german_fires_monchengladbach_locations__552f13aee243e9bd08d95ff46efb6f03
susanne-beckers-weg,"Susanne-Beckers-Weg in Monchengladbach, Germany",51.1677088,6.3874367,1,,,,Shipping,"Susanne-Beckers-Weg in Monchengladbach, Germany",,german_fires_monchengladbach_locations,9818e36afa32bf8939d2f1cf18519b86,german_fires_monchengladbach_locations__9818e36afa32bf8939d2f1cf18519b86
kleinenbroicher strasse,"Kleinenbroicher Strasse in Monchengladbach, Germany",51.1576926,6.4918811,1,,,,News,"Kleinenbroicher Strasse in Monchengladbach, Germany",,german_fires_monchengladbach_locations,afab499fc8b584d0df623bdc7e94fc48,german_fires_monchengladbach_locations__afab499fc8b584d0df623bdc7e94fc48
stakelberg,"Stakelberg in Monchengladbach, Germany",51.2095401,6.4268788,1,,,,Keyphrase,"Stakelberg in Monchengladbach, Germany",,german_fires_monchengladbach_locations,dc8b108a8effff1d70ac1b6fce5232c8,german_fires_monchengladbach_locations__dc8b108a8effff1d70ac1b6fce5232c8
mutter-ey-strasse,"Mutter-Ey-Strasse in Monchengladbach, Germany",51.1328986,6.4021587,1,,,,LegislativeCommittee,"Mutter-Ey-Strasse in Monchengladbach, Germany",,german_fires_monchengladbach_locations,09a7aefac3e3c225d7333e5132a07413,german_fires_monchengladbach_locations__09a7aefac3e3c225d7333e5132a07413
sandkaule,"Sandkaule in Monchengladbach, Germany",51.2121579,6.4434983,1,,,,Organization,"Sandkaule in Monchengladbach, Germany",,german_fires_monchengladbach_locations,9d9079c38f32da159e95b7a79c9d9e90,german_fires_monchengladbach_locations__9d9079c38f32da159e95b7a79c9d9e90
elisabeth-selbert-weg,"Elisabeth-Selbert-Weg in Monchengladbach, Germany",51.2050097,6.4588827,1,,,,IndustryTerm,"Elisabeth-Selbert-Weg in Monchengladbach, Germany",,german_fires_monchengladbach_locations,719b9966962c59a45a1bd419c9326fd9,german_fires_monchengladbach_locations__719b9966962c59a45a1bd419c9326fd9
oststrasse,"Oststrasse in Monchengladbach, Germany",51.1894834,6.4476381,1,,,,space,"Oststrasse in Monchengladbach, Germany",,german_fires_monchengladbach_locations,d9b21267d513b92b08cf72d828125cac,german_fires_monchengladbach_locations__d9b21267d513b92b08cf72d828125cac
lurriper strasse,"Lurriper Strasse in Monchengladbach, Germany",51.1995111,6.459018,1,,,,Refinery,"Lurriper Strasse in Monchengladbach, Germany",,german_fires_monchengladbach_locations,dff9ed904e0128e368ad832c229ae792,german_fires_monchengladbach_locations__dff9ed904e0128e368ad832c229ae792
antonie-boetzelen-ring,"Antonie-Boetzelen-Ring in Monchengladbach, Germany",51.1662356,6.3885204,1,,,,AAEntity,"Antonie-Boetzelen-Ring in Monchengladbach, Germany",,german_fires_monchengladbach_locations,4992482fb4b5dce18a0dad26a7601550,german_fires_monchengladbach_locations__4992482fb4b5dce18a0dad26a7601550
leibnizstrasse,"Leibnizstrasse in Monchengladbach, Germany",51.1893259,6.4267243,1,,,,Diplomat,"Leibnizstrasse in Monchengladbach, Germany",,german_fires_monchengladbach_locations,0a0e8e89a0eb1c900e871e3d1298a1ee,german_fires_monchengladbach_locations__0a0e8e89a0eb1c900e871e3d1298a1ee
kaldenkirchener strasse,"Kaldenkirchener Strasse in Monchengladbach, Germany",51.2136889,6.4338582,1,,,,Exec,"Kaldenkirchener Strasse in Monchengladbach, Germany",,german_fires_monchengladbach_locations,cb2d5744a4d83b663504bda2ec42bc75,german_fires_monchengladbach_locations__cb2d5744a4d83b663504bda2ec42bc75
mulgaustrasse,"Mulgaustrasse in Monchengladbach, Germany",51.1446916,6.4564685,1,,,,Organization,"Mulgaustrasse in Monchengladbach, Germany",,german_fires_monchengladbach_locations,629a759b23ffb9e2220f4ec64203067a,german_fires_monchengladbach_locations__629a759b23ffb9e2220f4ec64203067a
rheydter strasse,"Rheydter Strasse in Monchengladbach, Germany",51.1820919,6.4402886,1,,,,Consulates,"Rheydter Strasse in Monchengladbach, Germany",,german_fires_monchengladbach_locations,7135c545e74f8c91f28b2090bf9f3a9c,german_fires_monchengladbach_locations__7135c545e74f8c91f28b2090bf9f3a9c
trompeterallee,"Trompeterallee in Monchengladbach, Germany",51.1392221,6.4101959,1,,,,LegislativeCommittee,"Trompeterallee in Monchengladbach, Germany",,german_fires_monchengladbach_locations,44e858a5e90037f1b104469fba8af0eb,german_fires_monchengladbach_locations__44e858a5e90037f1b104469fba8af0eb
sasserather feld,"Sasserather Feld in Monchengladbach, Germany",51.1233201,6.4616425,1,,,,FTO,"Sasserather Feld in Monchengladbach, Germany",,german_fires_monchengladbach_locations,b3e1d969f9095fbfa0a1f364aae9df96,german_fires_monchengladbach_locations__b3e1d969f9095fbfa0a1f364aae9df96
geneickener strasse,"Geneickener Strasse in Monchengladbach, Germany",51.1747647,6.4688918,1,,,,AAEntity,"Geneickener Strasse in Monchengladbach, Germany",,german_fires_monchengladbach_locations,0f02eac9a5edfa46d724d4f42728876d,german_fires_monchengladbach_locations__0f02eac9a5edfa46d724d4f42728876d
rasseln,"Rasseln in Monchengladbach, Germany",51.2191076,6.3641512,1,,,,ForeignMinistry,"Rasseln in Monchengladbach, Germany",,german_fires_monchengladbach_locations,408c33e595e527e0d910fe957ff01842,german_fires_monchengladbach_locations__408c33e595e527e0d910fe957ff01842
hermann-noell-strasse,"Hermann-Noell-Strasse in Monchengladbach, Germany",51.1241729,6.3887452,1,,,,Refinery,"Hermann-Noell-Strasse in Monchengladbach, Germany",,german_fires_monchengladbach_locations,cc26c3ba3868b438609feed9a09fb841,german_fires_monchengladbach_locations__cc26c3ba3868b438609feed9a09fb841
stiegerfeldstrasse,"Stiegerfeldstrasse in Monchengladbach, Germany",51.1851718,6.4617774,1,,,,Legislator,"Stiegerfeldstrasse in Monchengladbach, Germany",,german_fires_monchengladbach_locations,ecfe85a54801a375199556fbd767c7df,german_fires_monchengladbach_locations__ecfe85a54801a375199556fbd767c7df
eichendorffweg,"Eichendorffweg in Monchengladbach, Germany",51.1391691,6.4038102,1,,,,Refinery,"Eichendorffweg in Monchengladbach, Germany",,german_fires_monchengladbach_locations,fe6b737513509d5dd1dd1bd45847d735,german_fires_monchengladbach_locations__fe6b737513509d5dd1dd1bd45847d735
holter kreuz,"Holter Kreuz in Monchengladbach, Germany",51.1850785,6.3972211,1,,,,Person,"Holter Kreuz in Monchengladbach, Germany",,german_fires_monchengladbach_locations,48bf5dc2f28c7f89bfcd317c7491c9e8,german_fires_monchengladbach_locations__48bf5dc2f28c7f89bfcd317c7491c9e8
charlottenstrasse,"Charlottenstrasse in Monchengladbach, Germany",51.1926826,6.4548725,1,,,,ForeignMinister,"Charlottenstrasse in Monchengladbach, Germany",,german_fires_monchengladbach_locations,eddaa52c84a6162490183a27382e61cf,german_fires_monchengladbach_locations__eddaa52c84a6162490183a27382e61cf
schroffstrasse,"Schroffstrasse in Monchengladbach, Germany",51.1465702,6.4356977,1,,,,Refinery,"Schroffstrasse in Monchengladbach, Germany",,german_fires_monchengladbach_locations,8d15e1de97dda0e71edcc07ed64e8634,german_fires_monchengladbach_locations__8d15e1de97dda0e71edcc07ed64e8634
am kirschbaum,"Am Kirschbaum in Monchengladbach, Germany",51.1961795,6.3436222,1,,,,IndustryTerm,"Am Kirschbaum in Monchengladbach, Germany",,german_fires_monchengladbach_locations,74580792ad637b2985b71ccbd5f815ff,german_fires_monchengladbach_locations__74580792ad637b2985b71ccbd5f815ff
hardterbroicher strasse,"Hardterbroicher Strasse in Monchengladbach, Germany",51.1876546,6.4620013,1,,,,Legislator,"Hardterbroicher Strasse in Monchengladbach, Germany",,german_fires_monchengladbach_locations,8b0e0cd46a4fece247c512a0c45c829a,german_fires_monchengladbach_locations__8b0e0cd46a4fece247c512a0c45c829a
gladbacher strasse,"Gladbacher Strasse in Monchengladbach, Germany",51.1627026,6.3755835,1,,,,Shipping,"Gladbacher Strasse in Monchengladbach, Germany",,german_fires_monchengladbach_locations,3289468d40e97c639edf15fe25b7a8e8,german_fires_monchengladbach_locations__3289468d40e97c639edf15fe25b7a8e8
kloetersgasse,"Kloetersgasse in Monchengladbach, Germany",51.1676282,6.4396173,1,,,,Exec,"Kloetersgasse in Monchengladbach, Germany",,german_fires_monchengladbach_locations,1a492180b1654c9e91b88c98eff2b4bc,german_fires_monchengladbach_locations__1a492180b1654c9e91b88c98eff2b4bc
kurt-jacobi-strasse,"Kurt-Jacobi-Strasse in Monchengladbach, Germany",51.1330044,6.4044595,1,,,,Exec,"Kurt-Jacobi-Strasse in Monchengladbach, Germany",,german_fires_monchengladbach_locations,d0801ab3a3e5c8f3b0b5d49348cb4a28,german_fires_monchengladbach_locations__d0801ab3a3e5c8f3b0b5d49348cb4a28
nachtigallenweg,"Nachtigallenweg in Monchengladbach, Germany",51.1996561,6.4858397,1,,,,IndustryTerm,"Nachtigallenweg in Monchengladbach, Germany",,german_fires_monchengladbach_locations,e1f62eb2295b7ff73658378ff2d34b6f,german_fires_monchengladbach_locations__e1f62eb2295b7ff73658378ff2d34b6f
mowenweg,"Mowenweg in Monchengladbach, Germany",51.1546389,6.4138192,1,,,,Exec,"Mowenweg in Monchengladbach, Germany",,german_fires_monchengladbach_locations,08d66ad82ee6ec6716ddcf0fdb44c003,german_fires_monchengladbach_locations__08d66ad82ee6ec6716ddcf0fdb44c003
helmut-freuen-ring,"Helmut-Freuen-Ring in Monchengladbach, Germany",51.1748624,6.4349691,1,,,,Media,"Helmut-Freuen-Ring in Monchengladbach, Germany",,german_fires_monchengladbach_locations,2e618f1fedaa1412008ceb99952baaaa,german_fires_monchengladbach_locations__2e618f1fedaa1412008ceb99952baaaa
iltisweg,"Iltisweg in Monchengladbach, Germany",51.1697302,6.4286037,1,,,,Person,"Iltisweg in Monchengladbach, Germany",,german_fires_monchengladbach_locations,e56685eeaea5bd03c52c111cb7274403,german_fires_monchengladbach_locations__e56685eeaea5bd03c52c111cb7274403
braunsstrasse,"Braunsstrasse in Monchengladbach, Germany",51.2065999,6.4069576,1,,,,Legislator,"Braunsstrasse in Monchengladbach, Germany",,german_fires_monchengladbach_locations,c7a3a04a72b6cd7df52e3fd005d3487b,german_fires_monchengladbach_locations__c7a3a04a72b6cd7df52e3fd005d3487b
sasserath,"Sasserath in Monchengladbach, Germany",51.1216219,6.4619544,1,,,,DiplomaticFacilities,"Sasserath in Monchengladbach, Germany",,german_fires_monchengladbach_locations,cf08f06f791450846f5811c5b5b66241,german_fires_monchengladbach_locations__cf08f06f791450846f5811c5b5b66241
grossheide,"Grossheide in Monchengladbach, Germany",51.21294,6.417276,1,,,,Keyphrase,"Grossheide in Monchengladbach, Germany",,german_fires_monchengladbach_locations,558f710e5f514eddc7855b5a87b66c66,german_fires_monchengladbach_locations__558f710e5f514eddc7855b5a87b66c66
bleckhutter weg,"Bleckhutter Weg in Monchengladbach, Germany",51.2223868,6.4568226,1,,,,Diplomat,"Bleckhutter Weg in Monchengladbach, Germany",,german_fires_monchengladbach_locations,f8e35045ffca2023330c3078556b1cfe,german_fires_monchengladbach_locations__f8e35045ffca2023330c3078556b1cfe
konstantinstrasse,"Konstantinstrasse in Monchengladbach, Germany",51.1563669,6.4907686,1,,,,CompanyKeyword,"Konstantinstrasse in Monchengladbach, Germany",,german_fires_monchengladbach_locations,3ced78400779592f9ae41e1f99ee45ac,german_fires_monchengladbach_locations__3ced78400779592f9ae41e1f99ee45ac
ronneterkamp,"Ronneterkamp in Monchengladbach, Germany",51.1921473,6.3988728,1,,,,Consulates,"Ronneterkamp in Monchengladbach, Germany",,german_fires_monchengladbach_locations,30290d007fb942580057cd42b136c7af,german_fires_monchengladbach_locations__30290d007fb942580057cd42b136c7af
mennrath,"Mennrath in Monchengladbach, Germany",51.1383362,6.3830219,1,,,,FTO,"Mennrath in Monchengladbach, Germany",,german_fires_monchengladbach_locations,62cca1ac0a9aefe64c87018dcfcfbfd1,german_fires_monchengladbach_locations__62cca1ac0a9aefe64c87018dcfcfbfd1
mulforter zeug,"Mulforter Zeug in Monchengladbach, Germany",51.1439991,6.449302,1,,,,Wells,"Mulforter Zeug in Monchengladbach, Germany",,german_fires_monchengladbach_locations,d591afa3cb979a4ac0b0c94be2b11e48,german_fires_monchengladbach_locations__d591afa3cb979a4ac0b0c94be2b11e48
gasthausstrasse,"Gasthausstrasse in Monchengladbach, Germany",51.1939302,6.4286897,1,,,,Organization,"Gasthausstrasse in Monchengladbach, Germany",,german_fires_monchengladbach_locations,0fe676e4daea8e5b35db97d4a3f85c50,german_fires_monchengladbach_locations__0fe676e4daea8e5b35db97d4a3f85c50
laurentiusplatz,"Laurentiusplatz in Monchengladbach, Germany",51.1325222,6.4506928,1,,,,ForeignMinistry,"Laurentiusplatz in Monchengladbach, Germany",,german_fires_monchengladbach_locations,e6cc0b06f691799a4fa90b0b363bef4c,german_fires_monchengladbach_locations__e6cc0b06f691799a4fa90b0b363bef4c
erzbergerstrasse,"Erzbergerstrasse in Monchengladbach, Germany",51.190697,6.4490068,1,,,,Diplomat,"Erzbergerstrasse in Monchengladbach, Germany",,german_fires_monchengladbach_locations,0c1467e2a2e03a75c38937b68e3fa69d,german_fires_monchengladbach_locations__0c1467e2a2e03a75c38937b68e3fa69d
ginsterweg,"Ginsterweg in Monchengladbach, Germany",51.1943379,6.3483427,1,,,,Wells,"Ginsterweg in Monchengladbach, Germany",,german_fires_monchengladbach_locations,a0d1594a6e06cbf6884b084c49e2ec41,german_fires_monchengladbach_locations__a0d1594a6e06cbf6884b084c49e2ec41
gerberstrasse,"Gerberstrasse in Monchengladbach, Germany",51.1458468,6.4433304,1,,,,Exec,"Gerberstrasse in Monchengladbach, Germany",,german_fires_monchengladbach_locations,c4282cf61030fa0b0c6e6c14001d5716,german_fires_monchengladbach_locations__c4282cf61030fa0b0c6e6c14001d5716
kohrstrasse,"Kohrstrasse in Monchengladbach, Germany",51.1446258,6.4443311,1,,,,Consulates,"Kohrstrasse in Monchengladbach, Germany",,german_fires_monchengladbach_locations,105114127504f639504af8da396e0272,german_fires_monchengladbach_locations__105114127504f639504af8da396e0272
sponnradsweg,"Sponnradsweg in Monchengladbach, Germany",51.2051165,6.3445718,1,,,,AAEntity,"Sponnradsweg in Monchengladbach, Germany",,german_fires_monchengladbach_locations,04a26be93dddb3bc6daa2ed2673bc3f3,german_fires_monchengladbach_locations__04a26be93dddb3bc6daa2ed2673bc3f3
fockestrasse,"Fockestrasse in Monchengladbach, Germany",51.1833459,6.4032383,1,,,,Pipeline,"Fockestrasse in Monchengladbach, Germany",,german_fires_monchengladbach_locations,643f26ad7db64ae8f67bb1bc9172f018,german_fires_monchengladbach_locations__643f26ad7db64ae8f67bb1bc9172f018
schrieversberg,"Schrieversberg in Monchengladbach, Germany",51.168103,6.4307103,1,,,,DiplomaticFacilities,"Schrieversberg in Monchengladbach, Germany",,german_fires_monchengladbach_locations,f93e89711d1ad95192de0946304c7bd8,german_fires_monchengladbach_locations__f93e89711d1ad95192de0946304c7bd8
oberlinstrasse,"Oberlinstrasse in Monchengladbach, Germany",51.1694049,6.4302023,1,,,,Pipeline,"Oberlinstrasse in Monchengladbach, Germany",,german_fires_monchengladbach_locations,689be452068cc08f4885f22d21d72de5,german_fires_monchengladbach_locations__689be452068cc08f4885f22d21d72de5
wilhelm-strater-strasse,"Wilhelm-Strater-Strasse in Monchengladbach, Germany",51.1699786,6.4418449,1,,,,LegislativeCommittee,"Wilhelm-Strater-Strasse in Monchengladbach, Germany",,german_fires_monchengladbach_locations,588436c3cc68983805fe850b58ec8023,german_fires_monchengladbach_locations__588436c3cc68983805fe850b58ec8023
ortshof,"Ortshof in Monchengladbach, Germany",51.2190651,6.4544445,1,,,,Diplomat,"Ortshof in Monchengladbach, Germany",,german_fires_monchengladbach_locations,fff3ff70c5046d738450696aacc22747,german_fires_monchengladbach_locations__fff3ff70c5046d738450696aacc22747
ehlerstrasse,"Ehlerstrasse in Monchengladbach, Germany",51.2181827,6.4728509,1,,,,LegislativeCommittee,"Ehlerstrasse in Monchengladbach, Germany",,german_fires_monchengladbach_locations,135722c41ed6db7da49e36836aed8397,german_fires_monchengladbach_locations__135722c41ed6db7da49e36836aed8397
merowingerstrasse,"Merowingerstrasse in Monchengladbach, Germany",51.1765754,6.469674,1,,,,FTO,"Merowingerstrasse in Monchengladbach, Germany",,german_fires_monchengladbach_locations,41d808242a4bef0ca54b63e95c21e493,german_fires_monchengladbach_locations__41d808242a4bef0ca54b63e95c21e493
wolfsittard,"Wolfsittard in Monchengladbach, Germany",51.1747858,6.3725418,1,,,,Person,"Wolfsittard in Monchengladbach, Germany",,german_fires_monchengladbach_locations,4298c190bb0517bf4bd2f03439088f4d,german_fires_monchengladbach_locations__4298c190bb0517bf4bd2f03439088f4d
kuhlenweg,"Kuhlenweg in Monchengladbach, Germany",51.1546239,6.4393232,1,,,,CompanyKeyword,"Kuhlenweg in Monchengladbach, Germany",,german_fires_monchengladbach_locations,657d416880b0dd595a5eaae8bff10163,german_fires_monchengladbach_locations__657d416880b0dd595a5eaae8bff10163
grevenbroicher strasse,"Grevenbroicher Strasse in Monchengladbach, Germany",51.1851192,6.4562058,1,,,,Person,"Grevenbroicher Strasse in Monchengladbach, Germany",,german_fires_monchengladbach_locations,da9a6e242924b3d9e731c417ef7adb6e,german_fires_monchengladbach_locations__da9a6e242924b3d9e731c417ef7adb6e
metzenweg,"Metzenweg in Monchengladbach, Germany",51.2003502,6.4148344,1,,,,ForeignMinistry,"Metzenweg in Monchengladbach, Germany",,german_fires_monchengladbach_locations,b14e64bd476e4177f014d60bd8932df2,german_fires_monchengladbach_locations__b14e64bd476e4177f014d60bd8932df2
herrather weg,"Herrather Weg in Monchengladbach, Germany",51.1047123,6.3727813,1,,,,Media,"Herrather Weg in Monchengladbach, Germany",,german_fires_monchengladbach_locations,37e15ac9522bcedd57b43e30a859840b,german_fires_monchengladbach_locations__37e15ac9522bcedd57b43e30a859840b
ronneter,"Ronneter in Monchengladbach, Germany",51.1932696,6.3989004,1,,,,Consulates,"Ronneter in Monchengladbach, Germany",,german_fires_monchengladbach_locations,38c93825825d46d907605dd3eb3bf8fa,german_fires_monchengladbach_locations__38c93825825d46d907605dd3eb3bf8fa
hardter strasse,"Hardter Strasse in Monchengladbach, Germany",51.1644666,6.3464862,1,,,,Person,"Hardter Strasse in Monchengladbach, Germany",,german_fires_monchengladbach_locations,54d6e895bc233718726567f11b3a08e8,german_fires_monchengladbach_locations__54d6e895bc233718726567f11b3a08e8
am wickrather tor,"Am Wickrather Tor in Monchengladbach, Germany",51.1470277,6.3648031,1,,,,IndustryTerm,"Am Wickrather Tor in Monchengladbach, Germany",,german_fires_monchengladbach_locations,774b3968be2685432eee626ab977d82b,german_fires_monchengladbach_locations__774b3968be2685432eee626ab977d82b
neuhofstrasse,"Neuhofstrasse in Monchengladbach, Germany",51.2035952,6.4432785,1,,,,space,"Neuhofstrasse in Monchengladbach, Germany",,german_fires_monchengladbach_locations,012d510bae2b899fc89dbbfe27405f69,german_fires_monchengladbach_locations__012d510bae2b899fc89dbbfe27405f69
schwogenstrasse,"Schwogenstrasse in Monchengladbach, Germany",51.205701,6.4402933,1,,,,ForeignMinister,"Schwogenstrasse in Monchengladbach, Germany",,german_fires_monchengladbach_locations,2528c103b0ce2902be9361ea109a7d43,german_fires_monchengladbach_locations__2528c103b0ce2902be9361ea109a7d43
an der siep,"An der Siep in Monchengladbach, Germany",51.1632045,6.4830664,1,,,,Consulates,"An der Siep in Monchengladbach, Germany",,german_fires_monchengladbach_locations,7d78da825677155b92cc2fbd45ae6850,german_fires_monchengladbach_locations__7d78da825677155b92cc2fbd45ae6850
loosenweg,"Loosenweg in Monchengladbach, Germany",51.2200444,6.4657069,1,,,,News,"Loosenweg in Monchengladbach, Germany",,german_fires_monchengladbach_locations,f7cb203a1ff6189eeb2b9f28cb6c0218,german_fires_monchengladbach_locations__f7cb203a1ff6189eeb2b9f28cb6c0218
gingterkamp,"Gingterkamp in Monchengladbach, Germany",51.1719702,6.3993961,1,,,,Shipping,"Gingterkamp in Monchengladbach, Germany",,german_fires_monchengladbach_locations,c21ad3fd8612dbeaa237fcc16f1d9242,german_fires_monchengladbach_locations__c21ad3fd8612dbeaa237fcc16f1d9242
alfons-schulz-strasse,"Alfons-Schulz-Strasse in Monchengladbach, Germany",51.2220654,6.450267,1,,,,ForeignMinistry,"Alfons-Schulz-Strasse in Monchengladbach, Germany",,german_fires_monchengladbach_locations,796ebd8ad52eb2c5ac1cbc51c2b386a9,german_fires_monchengladbach_locations__796ebd8ad52eb2c5ac1cbc51c2b386a9
