german_text,caption_text,lat,lon,ranking,default location,default_lat,default_lon,,ss,ENTITY_LABEL,name,description,source,source_identifier,global_identifier
altenfurt,"Altenfurt in Nuremberg, Germany",49.4063738,11.1738314,2,"Nuremberg, Germany",49.45033536,11.10205625,,u,LegislativeCommittee,"Altenfurt in Nuremberg, Germany",,german_fires_nuremberg_locations,274740c3e02f14d16cbcf17dda5e08e9,german_fires_nuremberg_locations__274740c3e02f14d16cbcf17dda5e08e9
barenschanze,"Barenschanze in Nuremberg, Germany",49.4528905,11.048146,2,,,,,a,Person,"Barenschanze in Nuremberg, Germany",,german_fires_nuremberg_locations,fd8af78f637feda882adfcf48e7f2ce9,german_fires_nuremberg_locations__fd8af78f637feda882adfcf48e7f2ce9
boxdorf,"Boxdorf in Nuremberg, Germany",49.5163637,11.0172093,2,,,,,o,Refinery,"Boxdorf in Nuremberg, Germany",,german_fires_nuremberg_locations,00e8bc2748af2a6db6a80a04f3a1a343,german_fires_nuremberg_locations__00e8bc2748af2a6db6a80a04f3a1a343
brunn,"Brunn in Nuremberg, Germany",49.4251963,11.2663657,2,,,,,,space,"Brunn in Nuremberg, Germany",,german_fires_nuremberg_locations,77b650bb429bbf44a5229a539ed2953d,german_fires_nuremberg_locations__77b650bb429bbf44a5229a539ed2953d
buch,"Buch in Nuremberg, Germany",49.4967937,11.0332553,2,,,,,,Shipping,"Buch in Nuremberg, Germany",,german_fires_nuremberg_locations,cfce945d373d7bd5051c633b31355f34,german_fires_nuremberg_locations__cfce945d373d7bd5051c633b31355f34
buchenbuhl,"Buchenbuhl in Nuremberg, Germany",49.5019203,11.1134309,2,,,,,,News,"Buchenbuhl in Nuremberg, Germany",,german_fires_nuremberg_locations,822913976018884483c91b8d22fe2cee,german_fires_nuremberg_locations__822913976018884483c91b8d22fe2cee
eibach,"Eibach in Nuremberg, Germany",49.4016318,11.0329845,2,,,,,,Pipeline,"Eibach in Nuremberg, Germany",,german_fires_nuremberg_locations,64fa3e21400d7f22835296a60c54180b,german_fires_nuremberg_locations__64fa3e21400d7f22835296a60c54180b
erlenstegen,"Erlenstegen in Nuremberg, Germany",49.4739513,11.1362907,2,,,,,,Refinery,"Erlenstegen in Nuremberg, Germany",,german_fires_nuremberg_locations,7a08542c3651027f16a3355791556de8,german_fires_nuremberg_locations__7a08542c3651027f16a3355791556de8
fischbach,"Fischbach in Nuremberg, Germany",49.4212752,11.1883033,2,,,,,,News,"Fischbach in Nuremberg, Germany",,german_fires_nuremberg_locations,f6118806fdb636070ae5296950ce67ba,german_fires_nuremberg_locations__f6118806fdb636070ae5296950ce67ba
gartenstadt,"Gartenstadt in Nuremberg, Germany",49.4071263,11.0825771,2,,,,,,space,"Gartenstadt in Nuremberg, Germany",,german_fires_nuremberg_locations,c23ae5bafa158628bc0eab33d7fa6f08,german_fires_nuremberg_locations__c23ae5bafa158628bc0eab33d7fa6f08
gebersdorf,"Gebersdorf in Nuremberg, Germany",49.4295423,11.0101273,2,,,,,,Wells,"Gebersdorf in Nuremberg, Germany",,german_fires_nuremberg_locations,d5aea520b3223e9f55ab589ff53f4813,german_fires_nuremberg_locations__d5aea520b3223e9f55ab589ff53f4813
gerasmuhle,"Gerasmuhle in Nuremberg, Germany",49.4528471,11.0495401,2,,,,,,Legislator,"Gerasmuhle in Nuremberg, Germany",,german_fires_nuremberg_locations,48f0c8856010b0e213697a04abf9ca03,german_fires_nuremberg_locations__48f0c8856010b0e213697a04abf9ca03
gibitzenhof,"Gibitzenhof in Nuremberg, Germany",49.4330228,11.067414,2,,,,,,DiplomaticFacilities,"Gibitzenhof in Nuremberg, Germany",,german_fires_nuremberg_locations,a510b870ae10f786453849e437e9dc82,german_fires_nuremberg_locations__a510b870ae10f786453849e437e9dc82
gleisshammer,"Gleisshammer in Nuremberg, Germany",49.4448534,11.1179108,2,,,,,,Pipeline,"Gleisshammer in Nuremberg, Germany",,german_fires_nuremberg_locations,dd116d3d87bf76057366b2b24f8720e8,german_fires_nuremberg_locations__dd116d3d87bf76057366b2b24f8720e8
grossgrundlach,"Grossgrundlach in Nuremberg, Germany",49.5303449,11.0057382,2,,,,,,DiplomaticFacilities,"Grossgrundlach in Nuremberg, Germany",,german_fires_nuremberg_locations,a204b011ce2759ea53fb7c385d4b679b,german_fires_nuremberg_locations__a204b011ce2759ea53fb7c385d4b679b
herpersdorf,"Herpersdorf in Nuremberg, Germany",49.3729198,11.0774885,2,,,,,,Keyphrase,"Herpersdorf in Nuremberg, Germany",,german_fires_nuremberg_locations,54d1e7dc3baf7502997f6cf53c99be4c,german_fires_nuremberg_locations__54d1e7dc3baf7502997f6cf53c99be4c
herrnhutte,"Herrnhutte in Nuremberg, Germany",49.478119,11.1110742,2,,,,,,News,"Herrnhutte in Nuremberg, Germany",,german_fires_nuremberg_locations,a4a34343c681ac7dbfe49432c7a5ada8,german_fires_nuremberg_locations__a4a34343c681ac7dbfe49432c7a5ada8
hofen,"Hofen in Nuremberg, Germany",49.4499961,11.011408,2,,,,,,FTO,"Hofen in Nuremberg, Germany",,german_fires_nuremberg_locations,9c50af58e510295a31e82f12875a2eda,german_fires_nuremberg_locations__9c50af58e510295a31e82f12875a2eda
katzwang,"Katzwang in Nuremberg, Germany",49.3515961,11.0588978,2,,,,,,Diplomat,"Katzwang in Nuremberg, Germany",,german_fires_nuremberg_locations,0f6fe81ad25df3a5f8ca4220f7e028bf,german_fires_nuremberg_locations__0f6fe81ad25df3a5f8ca4220f7e028bf
klingenhof,"Klingenhof in Nuremberg, Germany",49.4774767,11.1136782,2,,,,,,CompanyKeyword,"Klingenhof in Nuremberg, Germany",,german_fires_nuremberg_locations,8dd366c24bbdfbfc07bf8af789742423,german_fires_nuremberg_locations__8dd366c24bbdfbfc07bf8af789742423
kornburg,"Kornburg in Nuremberg, Germany",49.3552331,11.1009393,2,,,,,,CompanyKeyword,"Kornburg in Nuremberg, Germany",,german_fires_nuremberg_locations,8fc900e1d467500fc3c5a634204a4ae8,german_fires_nuremberg_locations__8fc900e1d467500fc3c5a634204a4ae8
kraftshof,"Kraftshof in Nuremberg, Germany",49.5082512,11.0479698,2,,,,,,AAEntity,"Kraftshof in Nuremberg, Germany",,german_fires_nuremberg_locations,d074642203d9cffa01029acbb49d1fb4,german_fires_nuremberg_locations__d074642203d9cffa01029acbb49d1fb4
langwasser,"Langwasser in Nuremberg, Germany",49.413795,11.1394785,2,,,,,,DiplomaticFacilities,"Langwasser in Nuremberg, Germany",,german_fires_nuremberg_locations,d1cffb144889a19978bb3b7ac79616d4,german_fires_nuremberg_locations__d1cffb144889a19978bb3b7ac79616d4
laufamholz,"Laufamholz in Nuremberg, Germany",49.4662671,11.1626241,2,,,,,,Legislator,"Laufamholz in Nuremberg, Germany",,german_fires_nuremberg_locations,fe3cf44b861649670d5bcc31b82238cf,german_fires_nuremberg_locations__fe3cf44b861649670d5bcc31b82238cf
maxfeld,"Maxfeld in Nuremberg, Germany",49.4670821,11.0876989,2,,,,,,ForeignMinistry,"Maxfeld in Nuremberg, Germany",,german_fires_nuremberg_locations,d42861b83b89e0cf56129a25c07f6a19,german_fires_nuremberg_locations__d42861b83b89e0cf56129a25c07f6a19
mogeldorf,"Mogeldorf in Nuremberg, Germany",49.462323,11.1367537,2,,,,,,Wells,"Mogeldorf in Nuremberg, Germany",,german_fires_nuremberg_locations,f23c78223b8a3c6a2b6094df9b0be7b7,german_fires_nuremberg_locations__f23c78223b8a3c6a2b6094df9b0be7b7
moorenbrunn,"Moorenbrunn in Nuremberg, Germany",49.3971631,11.1718678,2,,,,,,FTO,"Moorenbrunn in Nuremberg, Germany",,german_fires_nuremberg_locations,ad7eb52ec8c0619377dd6948216ec5c0,german_fires_nuremberg_locations__ad7eb52ec8c0619377dd6948216ec5c0
neunhof,"Neunhof in Nuremberg, Germany",49.5237689,11.04731,2,,,,,,ForeignMinister,"Neunhof in Nuremberg, Germany",,german_fires_nuremberg_locations,80e40ba235b5f1fba9b795e09548fdc8,german_fires_nuremberg_locations__80e40ba235b5f1fba9b795e09548fdc8
pillenreuth,"Pillenreuth in Nuremberg, Germany",49.37904,11.0739885,2,,,,,,ForeignMinister,"Pillenreuth in Nuremberg, Germany",,german_fires_nuremberg_locations,1fde398aadf5ec9d623f0b02b02aa10a,german_fires_nuremberg_locations__1fde398aadf5ec9d623f0b02b02aa10a
reichelsdorf,"Reichelsdorf in Nuremberg, Germany",49.3811958,11.0316898,2,,,,,,LegislativeCommittee,"Reichelsdorf in Nuremberg, Germany",,german_fires_nuremberg_locations,6e6b3a7830e77af161f5a3d21cdf6982,german_fires_nuremberg_locations__6e6b3a7830e77af161f5a3d21cdf6982
rothenbach,"Rothenbach in Nuremberg, Germany",49.4159978,11.0374699,2,,,,,,CompanyKeyword,"Rothenbach in Nuremberg, Germany",,german_fires_nuremberg_locations,8f9a8e677fc4396a32905af9407df3ef,german_fires_nuremberg_locations__8f9a8e677fc4396a32905af9407df3ef
schafhof,"Schafhof in Nuremberg, Germany",49.4801802,11.1251765,2,,,,,,Keyphrase,"Schafhof in Nuremberg, Germany",,german_fires_nuremberg_locations,65e50ccdf0a907b4c450deab7dab818b,german_fires_nuremberg_locations__65e50ccdf0a907b4c450deab7dab818b
schnepfenreuth,"Schnepfenreuth in Nuremberg, Germany",49.4780162,11.0603313,2,,,,,,Shipping,"Schnepfenreuth in Nuremberg, Germany",,german_fires_nuremberg_locations,a7efb18b55ce6f9dde9d31b4b52ba5d6,german_fires_nuremberg_locations__a7efb18b55ce6f9dde9d31b4b52ba5d6
schniegling,"Schniegling in Nuremberg, Germany",49.4702825,11.0278815,2,,,,,,Refinery,"Schniegling in Nuremberg, Germany",,german_fires_nuremberg_locations,826deba147d186beecdb41258a9ba5fb,german_fires_nuremberg_locations__826deba147d186beecdb41258a9ba5fb
schweinau,"Schweinau in Nuremberg, Germany",49.4321218,11.0501076,2,,,,,,Refinery,"Schweinau in Nuremberg, Germany",,german_fires_nuremberg_locations,7bd1a653e7084b1ecf32adb24b826537,german_fires_nuremberg_locations__7bd1a653e7084b1ecf32adb24b826537
st. johannis,"St. Johannis in Nuremberg, Germany",49.4584024,11.065778,2,,,,,,LegislativeCommittee,"St. Johannis in Nuremberg, Germany",,german_fires_nuremberg_locations,75e04e02c7c5ed4e6a0441cceaac4072,german_fires_nuremberg_locations__75e04e02c7c5ed4e6a0441cceaac4072
st. leonhard,"St. Leonhard in Nuremberg, Germany",49.4398698,11.0497806,2,,,,,,DiplomaticFacilities,"St. Leonhard in Nuremberg, Germany",,german_fires_nuremberg_locations,95288dc9487a1746f42e2603e949d89f,german_fires_nuremberg_locations__95288dc9487a1746f42e2603e949d89f
st. peter,"St. Peter in Nuremberg, Germany",49.445633,11.0953627,2,,,,,,ForeignMinister,"St. Peter in Nuremberg, Germany",,german_fires_nuremberg_locations,982ef0f432bac961551ec6bb118db0f7,german_fires_nuremberg_locations__982ef0f432bac961551ec6bb118db0f7
steinbuhl,"Steinbuhl in Nuremberg, Germany",49.4404553,11.0703572,2,,,,,,FTO,"Steinbuhl in Nuremberg, Germany",,german_fires_nuremberg_locations,48c598a3de10d8b229576a68ed5c34f3,german_fires_nuremberg_locations__48c598a3de10d8b229576a68ed5c34f3
thon,"Thon in Nuremberg, Germany",49.4802931,11.0708667,2,,,,,,IndustryTerm,"Thon in Nuremberg, Germany",,german_fires_nuremberg_locations,bbfed6c07a8ab20f7fddf2355f490fe3,german_fires_nuremberg_locations__bbfed6c07a8ab20f7fddf2355f490fe3
weiherhaus,"Weiherhaus in Nuremberg, Germany",49.3756308,11.0733985,2,,,,,,DiplomaticFacilities,"Weiherhaus in Nuremberg, Germany",,german_fires_nuremberg_locations,a2dfe449c0b79f238943a974a5ea8be1,german_fires_nuremberg_locations__a2dfe449c0b79f238943a974a5ea8be1
wetzendorf,"Wetzendorf in Nuremberg, Germany",49.4744336,11.0515744,2,,,,,,Wells,"Wetzendorf in Nuremberg, Germany",,german_fires_nuremberg_locations,3f1f43cf3005c0003d53238db2b6bbe9,german_fires_nuremberg_locations__3f1f43cf3005c0003d53238db2b6bbe9
wohrd,"Wohrd in Nuremberg, Germany",49.4547943,11.09317,2,,,,,,AAEntity,"Wohrd in Nuremberg, Germany",,german_fires_nuremberg_locations,a8ef923392f71501b6ae384729753275,german_fires_nuremberg_locations__a8ef923392f71501b6ae384729753275
zerzabelshof,"Zerzabelshof in Nuremberg, Germany",49.4372321,11.130154,2,,,,,,Media,"Zerzabelshof in Nuremberg, Germany",,german_fires_nuremberg_locations,d6208343abc61f905cf2dc14980be03d,german_fires_nuremberg_locations__d6208343abc61f905cf2dc14980be03d
ziegelstein,"Ziegelstein in Nuremberg, Germany",49.4864086,11.11406,2,,,,,,Exec,"Ziegelstein in Nuremberg, Germany",,german_fires_nuremberg_locations,89ac70d5f8c192e73f1d3cb5f1ffc54a,german_fires_nuremberg_locations__89ac70d5f8c192e73f1d3cb5f1ffc54a
aachener strasse,"Aachener strasseasse in Nuremberg, Germany",49.4682636,11.058301,1,,,,,,Diplomat,"Aachener strasseasse in Nuremberg, Germany",,german_fires_nuremberg_locations,531e670f5225616097e81b601e40cbe2,german_fires_nuremberg_locations__531e670f5225616097e81b601e40cbe2
aalener strasse,"Aalener strasse in Nuremberg, Germany",49.4249449,11.0441479,1,,,,,,Consulates,"Aalener strasse in Nuremberg, Germany",,german_fires_nuremberg_locations,7bab037cac9cfc5f5c85835a2a53fa62,german_fires_nuremberg_locations__7bab037cac9cfc5f5c85835a2a53fa62
abenberger strasse,"Abenberger strasse in Nuremberg, Germany",49.4057265,11.0376108,1,,,,,,News,"Abenberger strasse in Nuremberg, Germany",,german_fires_nuremberg_locations,6e96f8a7d5332088a0baf10c5706bc71,german_fires_nuremberg_locations__6e96f8a7d5332088a0baf10c5706bc71
abendgasse,"Abendgasse in Nuremberg, Germany",49.4011257,11.0356746,1,,,,,,AAEntity,"Abendgasse in Nuremberg, Germany",,german_fires_nuremberg_locations,505d254839c8f5d80a1e075f50e9513b,german_fires_nuremberg_locations__505d254839c8f5d80a1e075f50e9513b
achahildisweg,"Achahildisweg in Nuremberg, Germany",49.3932786,11.1750322,1,,,,,,IndustryTerm,"Achahildisweg in Nuremberg, Germany",,german_fires_nuremberg_locations,8a6a7bf548881121a7a88684e3247ed3,german_fires_nuremberg_locations__8a6a7bf548881121a7a88684e3247ed3
ackerstrasse,"Ackerstrasse in Nuremberg, Germany",49.4403617,11.0648986,1,,,,,,Refinery,"Ackerstrasse in Nuremberg, Germany",,german_fires_nuremberg_locations,b75e5abc923bee13a2c1f0f80fcb7ede,german_fires_nuremberg_locations__b75e5abc923bee13a2c1f0f80fcb7ede
adalbert-stifter-strasse,"Adalbert-Stifter-strasse in Nuremberg, Germany",49.4412754,11.128998,1,,,,,,IndustryTerm,"Adalbert-Stifter-strasse in Nuremberg, Germany",,german_fires_nuremberg_locations,af53ed4fbf3bc1a878a3b1ce1ca6fca7,german_fires_nuremberg_locations__af53ed4fbf3bc1a878a3b1ce1ca6fca7
adalbertstrasse,"Adalbertstrasse in Nuremberg, Germany",49.428372,11.0423914,1,,,,,,ForeignMinistry,"Adalbertstrasse in Nuremberg, Germany",,german_fires_nuremberg_locations,17b26bad83fcdc76ba0a6a4ded2d00e1,german_fires_nuremberg_locations__17b26bad83fcdc76ba0a6a4ded2d00e1
adam-kraft-strasse,"Adam-Kraft-strasse in Nuremberg, Germany",49.4600629,11.0648632,1,,,,,,IndustryTerm,"Adam-Kraft-strasse in Nuremberg, Germany",,german_fires_nuremberg_locations,bd5405b4648ec18c30a657a370831919,german_fires_nuremberg_locations__bd5405b4648ec18c30a657a370831919
adamstrasse,"Adamstrasse in Nuremberg, Germany",49.4604299,11.0976333,1,,,,,,IndustryTerm,"Adamstrasse in Nuremberg, Germany",,german_fires_nuremberg_locations,ac28c2e10bc8241c79e4e7f8f6c8edf9,german_fires_nuremberg_locations__ac28c2e10bc8241c79e4e7f8f6c8edf9
adelgundenstrasse,"Adelgundenstrasse in Nuremberg, Germany",49.4619814,11.0528338,1,,,,,,Organization,"Adelgundenstrasse in Nuremberg, Germany",,german_fires_nuremberg_locations,cca616d2c7bb288c92cd37af79412ac5,german_fires_nuremberg_locations__cca616d2c7bb288c92cd37af79412ac5
adlerstrasse,"Adlerstrasse in Nuremberg, Germany",49.4518938,11.0759855,1,,,,,,Media,"Adlerstrasse in Nuremberg, Germany",,german_fires_nuremberg_locations,0368bb74e73c96f8ce7ac6ddbf8dfd9e,german_fires_nuremberg_locations__0368bb74e73c96f8ce7ac6ddbf8dfd9e
adolf-braun-strasse,"Adolf-Braun-strasse in Nuremberg, Germany",49.4642081,11.025228,1,,,,,,DiplomaticFacilities,"Adolf-Braun-strasse in Nuremberg, Germany",,german_fires_nuremberg_locations,f96fc4275001782b3e91493d9e79c437,german_fires_nuremberg_locations__f96fc4275001782b3e91493d9e79c437
adolf-v.-harless-strasse.,"Adolf-v.-Harless-strasse. in Nuremberg, Germany",49.5333129,11.0133141,1,,,,,,Consulates,"Adolf-v.-Harless-strasse. in Nuremberg, Germany",,german_fires_nuremberg_locations,6283d187d439f43ef68246f2a8666f2c,german_fires_nuremberg_locations__6283d187d439f43ef68246f2a8666f2c
agnesgasse,"Agnesgasse in Nuremberg, Germany",49.4561484,11.0748309,1,,,,,,IndustryTerm,"Agnesgasse in Nuremberg, Germany",,german_fires_nuremberg_locations,e5029e7d11961ef205b5dcb98b8bec73,german_fires_nuremberg_locations__e5029e7d11961ef205b5dcb98b8bec73
agnes-gerlach-ring,"Agnes-Gerlach-Ring in Nuremberg, Germany",49.3543707,11.061548,1,,,,,,Keyphrase,"Agnes-Gerlach-Ring in Nuremberg, Germany",,german_fires_nuremberg_locations,daf75e23abee5562cb4eee00d7f9d4ec,german_fires_nuremberg_locations__daf75e23abee5562cb4eee00d7f9d4ec
ahornstrasse,"Ahornstrasse in Nuremberg, Germany",49.4099283,11.038354,1,,,,,,DiplomaticFacilities,"Ahornstrasse in Nuremberg, Germany",,german_fires_nuremberg_locations,f0dea72732e2ad06070e28941b3d6206,german_fires_nuremberg_locations__f0dea72732e2ad06070e28941b3d6206
aichacher strasse,"Aichacher strasse in Nuremberg, Germany",49.3689711,11.0737765,1,,,,,,LegislativeCommittee,"Aichacher strasse in Nuremberg, Germany",,german_fires_nuremberg_locations,051e994ce59cc92f102a921a983dc65c,german_fires_nuremberg_locations__051e994ce59cc92f102a921a983dc65c
ailsbachweg,"Ailsbachweg in Nuremberg, Germany",49.4308813,11.0120878,1,,,,,,AAEntity,"Ailsbachweg in Nuremberg, Germany",,german_fires_nuremberg_locations,80884e7e3085bc862083143e59da1f1d,german_fires_nuremberg_locations__80884e7e3085bc862083143e59da1f1d
aischweg,"Aischweg in Nuremberg, Germany",49.431282,11.0111929,1,,,,,,Consulates,"Aischweg in Nuremberg, Germany",,german_fires_nuremberg_locations,8a8c1cd3c8f0f44a24c5ffb96f4654c3,german_fires_nuremberg_locations__8a8c1cd3c8f0f44a24c5ffb96f4654c3
ajtoschstrasse,"Ajtoschstrasse in Nuremberg, Germany",49.433405,11.084091,1,,,,,,space,"Ajtoschstrasse in Nuremberg, Germany",,german_fires_nuremberg_locations,fe64a428612a1c498cf2c0d552e83276,german_fires_nuremberg_locations__fe64a428612a1c498cf2c0d552e83276
akeleiweg,"Akeleiweg in Nuremberg, Germany",49.418525,11.0599834,1,,,,,,AAEntity,"Akeleiweg in Nuremberg, Germany",,german_fires_nuremberg_locations,3ee6594a8d38a15cea62c439c4b8b9a6,german_fires_nuremberg_locations__3ee6594a8d38a15cea62c439c4b8b9a6
alberichstrasse,"Alberichstrasse in Nuremberg, Germany",49.4394519,11.0990242,1,,,,,,News,"Alberichstrasse in Nuremberg, Germany",,german_fires_nuremberg_locations,31d67177cfb231abef6c178b3de85b54,german_fires_nuremberg_locations__31d67177cfb231abef6c178b3de85b54
albert-ortmann-strasse,"Albert-Ortmann-strasse in Nuremberg, Germany",49.4790142,11.0534182,1,,,,,,FTO,"Albert-Ortmann-strasse in Nuremberg, Germany",,german_fires_nuremberg_locations,81822c44d4abe2f829fd8e3c2aea229d,german_fires_nuremberg_locations__81822c44d4abe2f829fd8e3c2aea229d
albert-rosenfelder-strasse,"Albert-Rosenfelder-strasse in Nuremberg, Germany",49.4169825,11.0427897,1,,,,,,LegislativeCommittee,"Albert-Rosenfelder-strasse in Nuremberg, Germany",,german_fires_nuremberg_locations,990d1727cad5e180a46da42ea87245d5,german_fires_nuremberg_locations__990d1727cad5e180a46da42ea87245d5
albert-schweitzer-strasse,"Albert-Schweitzer-strasse in Nuremberg, Germany",49.3635388,11.053306,1,,,,,,Keyphrase,"Albert-Schweitzer-strasse in Nuremberg, Germany",,german_fires_nuremberg_locations,769739a103e276200e5f77ebe667624b,german_fires_nuremberg_locations__769739a103e276200e5f77ebe667624b
albertstrasse,"Albertstrasse in Nuremberg, Germany",49.4466062,11.1039883,1,,,,,,Exec,"Albertstrasse in Nuremberg, Germany",,german_fires_nuremberg_locations,3eb1ad96ed2d3d852d316c6c30e5b9aa,german_fires_nuremberg_locations__3eb1ad96ed2d3d852d316c6c30e5b9aa
albrecht-achilles-strasse,"Albrecht-Achilles-strasse in Nuremberg, Germany",49.3744707,11.0748189,1,,,,,,Wells,"Albrecht-Achilles-strasse in Nuremberg, Germany",,german_fires_nuremberg_locations,1a86394de2b61b75fec90bcbee59fa36,german_fires_nuremberg_locations__1a86394de2b61b75fec90bcbee59fa36
albrecht-durer-platz,"Albrecht-Durer-Platz in Nuremberg, Germany",49.4561511,11.0758831,1,,,,,,IndustryTerm,"Albrecht-Durer-Platz in Nuremberg, Germany",,german_fires_nuremberg_locations,015303d90c76d614bdd4b7559fba2a40,german_fires_nuremberg_locations__015303d90c76d614bdd4b7559fba2a40
albrecht-durer-strasse,"Albrecht-Durer-strasse in Nuremberg, Germany",49.4564323,11.0742105,1,,,,,,ForeignMinister,"Albrecht-Durer-strasse in Nuremberg, Germany",,german_fires_nuremberg_locations,7f37fd979ea6041a4f58ff30340f19aa,german_fires_nuremberg_locations__7f37fd979ea6041a4f58ff30340f19aa
albrecht-thaer-strasse,"Albrecht-Thaer-strasse in Nuremberg, Germany",49.4160353,11.0279086,1,,,,,,FTO,"Albrecht-Thaer-strasse in Nuremberg, Germany",,german_fires_nuremberg_locations,562ecd70ac94db1f41269f0d044dce20,german_fires_nuremberg_locations__562ecd70ac94db1f41269f0d044dce20
aldringenstrasse,"Aldringenstrasse in Nuremberg, Germany",49.37395,11.019601,1,,,,,,DiplomaticFacilities,"Aldringenstrasse in Nuremberg, Germany",,german_fires_nuremberg_locations,7e34fc4b09c32a9a35222fdc85a796e7,german_fires_nuremberg_locations__7e34fc4b09c32a9a35222fdc85a796e7
alexanderstrasse,"Alexanderstrasse in Nuremberg, Germany",49.4412837,11.0771968,1,,,,,,Refinery,"Alexanderstrasse in Nuremberg, Germany",,german_fires_nuremberg_locations,83b5f7ac4e9e5434f401882f1cc252c9,german_fires_nuremberg_locations__83b5f7ac4e9e5434f401882f1cc252c9
alfelder weg,"Alfelder Weg in Nuremberg, Germany",49.4640753,11.1428923,1,,,,,,LegislativeCommittee,"Alfelder Weg in Nuremberg, Germany",,german_fires_nuremberg_locations,54161ac9001f4fac48fe648295dd4fe5,german_fires_nuremberg_locations__54161ac9001f4fac48fe648295dd4fe5
alfons-stauder-strasse,"Alfons-Stauder-strasse in Nuremberg, Germany",49.3645365,11.0571871,1,,,,,,Wells,"Alfons-Stauder-strasse in Nuremberg, Germany",,german_fires_nuremberg_locations,2b776d708088397f50332049e9b2362e,german_fires_nuremberg_locations__2b776d708088397f50332049e9b2362e
alfonsstrasse,"Alfonsstrasse in Nuremberg, Germany",49.4277529,11.0424207,1,,,,,,DiplomaticFacilities,"Alfonsstrasse in Nuremberg, Germany",,german_fires_nuremberg_locations,a7fc1f64e406def262fe83a5dfb5ef5d,german_fires_nuremberg_locations__a7fc1f64e406def262fe83a5dfb5ef5d
alfred-graf-weg,"Alfred-Graf-Weg in Nuremberg, Germany",49.4146341,11.1356731,1,,,,,,Person,"Alfred-Graf-Weg in Nuremberg, Germany",,german_fires_nuremberg_locations,ad564a208a0d0c057c0fa99f387a64c8,german_fires_nuremberg_locations__ad564a208a0d0c057c0fa99f387a64c8
alfredstrasse,"Alfredstrasse in Nuremberg, Germany",49.4559684,11.0128446,1,,,,,,Exec,"Alfredstrasse in Nuremberg, Germany",,german_fires_nuremberg_locations,32c896aa06aac2f266ddfc4b09776140,german_fires_nuremberg_locations__32c896aa06aac2f266ddfc4b09776140
almoshofer hauptstrasse,"Almoshofer Hauptstrasse in Nuremberg, Germany",49.4892632,11.0645249,1,,,,,,Wells,"Almoshofer Hauptstrasse in Nuremberg, Germany",,german_fires_nuremberg_locations,ee8168ef1f817a996d5cddfd953e6ef6,german_fires_nuremberg_locations__ee8168ef1f817a996d5cddfd953e6ef6
alpenrosenweg,"Alpenrosenweg in Nuremberg, Germany",49.4163883,11.0606534,1,,,,,,Organization,"Alpenrosenweg in Nuremberg, Germany",,german_fires_nuremberg_locations,e04dbaac90c8107d3964d853d1fc27e2,german_fires_nuremberg_locations__e04dbaac90c8107d3964d853d1fc27e2
alsterstrasse,"Alsterstrasse in Nuremberg, Germany",49.3609677,11.0544319,1,,,,,,Organization,"Alsterstrasse in Nuremberg, Germany",,german_fires_nuremberg_locations,7076c13ebd70170aebefe78e36ee78f7,german_fires_nuremberg_locations__7076c13ebd70170aebefe78e36ee78f7
altdorfer strasse,"Altdorfer strasse in Nuremberg, Germany",49.4531094,11.1191189,1,,,,,,Diplomat,"Altdorfer strasse in Nuremberg, Germany",,german_fires_nuremberg_locations,5cbdf15217ab9cc259e610759bb29a01,german_fires_nuremberg_locations__5cbdf15217ab9cc259e610759bb29a01
alte parlerstrasse,"Alte Parlerstrasse in Nuremberg, Germany",49.4703318,11.0426871,1,,,,,,Exec,"Alte Parlerstrasse in Nuremberg, Germany",,german_fires_nuremberg_locations,dae8c80d966e3a6b5a87ac2cacf1b4a0,german_fires_nuremberg_locations__dae8c80d966e3a6b5a87ac2cacf1b4a0
alte strasse,"Alte strasse in Nuremberg, Germany",49.4037597,11.0338478,1,,,,,,Person,"Alte strasse in Nuremberg, Germany",,german_fires_nuremberg_locations,0c5fd661a8feddd68be9f7a27cf35292,german_fires_nuremberg_locations__0c5fd661a8feddd68be9f7a27cf35292
alte wallensteinstrasse,"Alte Wallensteinstrasse in Nuremberg, Germany",49.4344229,11.0214188,1,,,,,,Keyphrase,"Alte Wallensteinstrasse in Nuremberg, Germany",,german_fires_nuremberg_locations,bd71577eeb9c75fa674b72cabe97d003,german_fires_nuremberg_locations__bd71577eeb9c75fa674b72cabe97d003
altenberger strasse,"Altenberger strasse in Nuremberg, Germany",49.4414449,11.0084299,1,,,,,,Wells,"Altenberger strasse in Nuremberg, Germany",,german_fires_nuremberg_locations,359d82cfa519fa6e1c340bc921f7b7f1,german_fires_nuremberg_locations__359d82cfa519fa6e1c340bc921f7b7f1
altenfurter strasse,"Altenfurter strasse in Nuremberg, Germany",49.4054097,11.1744245,1,,,,,,DiplomaticFacilities,"Altenfurter strasse in Nuremberg, Germany",,german_fires_nuremberg_locations,c459640c73ef82bff2a9555de30c7913,german_fires_nuremberg_locations__c459640c73ef82bff2a9555de30c7913
altmuhlweg,"Altmuhlweg in Nuremberg, Germany",49.3863674,11.0372853,1,,,,,,News,"Altmuhlweg in Nuremberg, Germany",,german_fires_nuremberg_locations,e9fa31098c7a9fb7295ad72f2adb1059,german_fires_nuremberg_locations__e9fa31098c7a9fb7295ad72f2adb1059
am alten sudhaus,"Am Alten Sudhaus in Nuremberg, Germany",49.4646025,11.0837325,1,,,,,,Exec,"Am Alten Sudhaus in Nuremberg, Germany",,german_fires_nuremberg_locations,e6600b4397f9b78b3c3d68758baebe05,german_fires_nuremberg_locations__e6600b4397f9b78b3c3d68758baebe05
am anger,"Am Anger in Nuremberg, Germany",49.4888427,11.107416,1,,,,,,Refinery,"Am Anger in Nuremberg, Germany",,german_fires_nuremberg_locations,465d257a744e7950a2e85055aa43f9e8,german_fires_nuremberg_locations__465d257a744e7950a2e85055aa43f9e8
am bauernfeld,"Am Bauernfeld in Nuremberg, Germany",49.4238369,11.1907792,1,,,,,,Media,"Am Bauernfeld in Nuremberg, Germany",,german_fires_nuremberg_locations,0390f42210c3fb7bd491d0e75c16c039,german_fires_nuremberg_locations__0390f42210c3fb7bd491d0e75c16c039
am bauernwald,"Am Bauernwald in Nuremberg, Germany",49.4826698,11.110045,1,,,,,,CompanyKeyword,"Am Bauernwald in Nuremberg, Germany",,german_fires_nuremberg_locations,65840fd7909290c212473cf9d54f57f4,german_fires_nuremberg_locations__65840fd7909290c212473cf9d54f57f4
am baumling,"Am Baumling in Nuremberg, Germany",49.4875342,11.0758502,1,,,,,,Legislator,"Am Baumling in Nuremberg, Germany",,german_fires_nuremberg_locations,5fc5f9a11d0d68ed393972709ef62294,german_fires_nuremberg_locations__5fc5f9a11d0d68ed393972709ef62294
am behlanger,"Am Behlanger in Nuremberg, Germany",49.4626758,11.1681771,1,,,,,,IndustryTerm,"Am Behlanger in Nuremberg, Germany",,german_fires_nuremberg_locations,021dd47031bcafd91abf1a626dcbbe1f,german_fires_nuremberg_locations__021dd47031bcafd91abf1a626dcbbe1f
am berg,"Am Berg in Nuremberg, Germany",49.3928798,11.1708626,1,,,,,,Refinery,"Am Berg in Nuremberg, Germany",,german_fires_nuremberg_locations,afe91f739648c6c23dd9ef6f34894418,german_fires_nuremberg_locations__afe91f739648c6c23dd9ef6f34894418
am birkenschlag,"Am Birkenschlag in Nuremberg, Germany",49.3703485,11.0392058,1,,,,,,Diplomat,"Am Birkenschlag in Nuremberg, Germany",,german_fires_nuremberg_locations,1d123c0d00b7840c0d6d0a060fdfd469,german_fires_nuremberg_locations__1d123c0d00b7840c0d6d0a060fdfd469
am birnbaum,"Am Birnbaum in Nuremberg, Germany",49.4249661,11.0108846,1,,,,,,Shipping,"Am Birnbaum in Nuremberg, Germany",,german_fires_nuremberg_locations,8465eec256177e2ac4831e5f43a6600d,german_fires_nuremberg_locations__8465eec256177e2ac4831e5f43a6600d
am brand,"Am Brand in Nuremberg, Germany",49.4263277,11.1819559,1,,,,,,space,"Am Brand in Nuremberg, Germany",,german_fires_nuremberg_locations,d41ae9becc9976343fd7e4a5c4b94051,german_fires_nuremberg_locations__d41ae9becc9976343fd7e4a5c4b94051
am doktorsfeld,"Am Doktorsfeld in Nuremberg, Germany",49.4658118,11.1670733,1,,,,,,Pipeline,"Am Doktorsfeld in Nuremberg, Germany",,german_fires_nuremberg_locations,8562febb749d243f0bb49c251148c858,german_fires_nuremberg_locations__8562febb749d243f0bb49c251148c858
am eichelberg,"Am Eichelberg in Nuremberg, Germany",49.3758849,11.0300901,1,,,,,,CompanyKeyword,"Am Eichelberg in Nuremberg, Germany",,german_fires_nuremberg_locations,0b48055e0ffa9a43620a31e2660a7fe1,german_fires_nuremberg_locations__0b48055e0ffa9a43620a31e2660a7fe1
am eichgrabenfeld,"Am Eichgrabenfeld in Nuremberg, Germany",49.4490849,11.1251479,1,,,,,,Legislator,"Am Eichgrabenfeld in Nuremberg, Germany",,german_fires_nuremberg_locations,0c03fbf2c411a375b4ca23c62cfd0f37,german_fires_nuremberg_locations__0c03fbf2c411a375b4ca23c62cfd0f37
am entengraben,"Am Entengraben in Nuremberg, Germany",49.3859204,11.0360275,1,,,,,,Refinery,"Am Entengraben in Nuremberg, Germany",,german_fires_nuremberg_locations,328d0ba4cfb663fe4158853bb09fbcd7,german_fires_nuremberg_locations__328d0ba4cfb663fe4158853bb09fbcd7
am fernmeldeturm,"Am Fernmeldeturm in Nuremberg, Germany",49.4274724,11.038921,1,,,,,,Diplomat,"Am Fernmeldeturm in Nuremberg, Germany",,german_fires_nuremberg_locations,8bf406135881b7dc1710bc085c5abd74,german_fires_nuremberg_locations__8bf406135881b7dc1710bc085c5abd74
am feuchter brucklein,"Am Feuchter Brucklein in Nuremberg, Germany",49.4165095,11.1938521,1,,,,,,Exec,"Am Feuchter Brucklein in Nuremberg, Germany",,german_fires_nuremberg_locations,dc8cbf68a868def8baa7ce42bbefc4dc,german_fires_nuremberg_locations__dc8cbf68a868def8baa7ce42bbefc4dc
am fuchsberg,"Am Fuchsberg in Nuremberg, Germany",49.3652777,11.0460398,1,,,,,,Exec,"Am Fuchsberg in Nuremberg, Germany",,german_fires_nuremberg_locations,b8591ae47e76f30dfa33087068cc540e,german_fires_nuremberg_locations__b8591ae47e76f30dfa33087068cc540e
am gaulnhofener graben,"Am Gaulnhofener Graben in Nuremberg, Germany",49.3689002,11.079207,1,,,,,,Legislator,"Am Gaulnhofener Graben in Nuremberg, Germany",,german_fires_nuremberg_locations,dec5773885d15c1b3aed203888643482,german_fires_nuremberg_locations__dec5773885d15c1b3aed203888643482
am goldhammer,"Am Goldhammer in Nuremberg, Germany",49.4640949,11.1280829,1,,,,,,Organization,"Am Goldhammer in Nuremberg, Germany",,german_fires_nuremberg_locations,2cfa8159b29f8fe37827e3469766984d,german_fires_nuremberg_locations__2cfa8159b29f8fe37827e3469766984d
am graben,"Am Graben in Nuremberg, Germany",49.4096771,11.1720271,1,,,,,,Person,"Am Graben in Nuremberg, Germany",,german_fires_nuremberg_locations,8fe6f9dd5c6061b2a573189108ed8d15,german_fires_nuremberg_locations__8fe6f9dd5c6061b2a573189108ed8d15
am hammer,"Am Hammer in Nuremberg, Germany",49.35262,11.055007,1,,,,,,Organization,"Am Hammer in Nuremberg, Germany",,german_fires_nuremberg_locations,7380df5b988c71288de9c68bb107af18,german_fires_nuremberg_locations__7380df5b988c71288de9c68bb107af18
am hang,"Am Hang in Nuremberg, Germany",49.4669572,11.1134956,1,,,,,,IndustryTerm,"Am Hang in Nuremberg, Germany",,german_fires_nuremberg_locations,d7e90b394a072e3ff51dcea7cfa6aa76,german_fires_nuremberg_locations__d7e90b394a072e3ff51dcea7cfa6aa76
am harnischschlag,"Am Harnischschlag in Nuremberg, Germany",49.4033876,11.1183012,1,,,,,,News,"Am Harnischschlag in Nuremberg, Germany",,german_fires_nuremberg_locations,36e5e72551b27fdc2b7bee88f25ca949,german_fires_nuremberg_locations__36e5e72551b27fdc2b7bee88f25ca949
am herrenwaldchen,"Am Herrenwaldchen in Nuremberg, Germany",49.4656696,11.1744892,1,,,,,,Shipping,"Am Herrenwaldchen in Nuremberg, Germany",,german_fires_nuremberg_locations,db23fec9cc5761da0b7c1f9ee3ac7629,german_fires_nuremberg_locations__db23fec9cc5761da0b7c1f9ee3ac7629
am hirschfeld,"Am Hirschfeld in Nuremberg, Germany",49.4169971,11.0376655,1,,,,,,Legislator,"Am Hirschfeld in Nuremberg, Germany",,german_fires_nuremberg_locations,0619c3c6f379692fcfc367596a7cd68f,german_fires_nuremberg_locations__0619c3c6f379692fcfc367596a7cd68f
am hochwald,"Am Hochwald in Nuremberg, Germany",49.3731134,11.1058133,1,,,,,,News,"Am Hochwald in Nuremberg, Germany",,german_fires_nuremberg_locations,38fbd999a5d820f9bc70031111688a04,german_fires_nuremberg_locations__38fbd999a5d820f9bc70031111688a04
am kappelberg,"Am Kappelberg in Nuremberg, Germany",49.3467682,11.0479461,1,,,,,,Keyphrase,"Am Kappelberg in Nuremberg, Germany",,german_fires_nuremberg_locations,895680a95a9bfd04d1b10d348d5db8ae,german_fires_nuremberg_locations__895680a95a9bfd04d1b10d348d5db8ae
am katharinenkloster,"Am Katharinenkloster in Nuremberg, Germany",49.4516995,11.0817216,1,,,,,,Person,"Am Katharinenkloster in Nuremberg, Germany",,german_fires_nuremberg_locations,046f7c3cb37bdd94a65d6b75fd3ce137,german_fires_nuremberg_locations__046f7c3cb37bdd94a65d6b75fd3ce137
am keuper,"Am Keuper in Nuremberg, Germany",49.3880867,11.1780297,1,,,,,,Legislator,"Am Keuper in Nuremberg, Germany",,german_fires_nuremberg_locations,0b6015f76e1667e6e55cc09f0c08ab2c,german_fires_nuremberg_locations__0b6015f76e1667e6e55cc09f0c08ab2c
am klosterfeld,"Am Klosterfeld in Nuremberg, Germany",49.5314253,11.0170061,1,,,,,,DiplomaticFacilities,"Am Klosterfeld in Nuremberg, Germany",,german_fires_nuremberg_locations,c5724549863279ff72411341f739ce86,german_fires_nuremberg_locations__c5724549863279ff72411341f739ce86
am knappsteig,"Am Knappsteig in Nuremberg, Germany",49.5115644,11.0414826,1,,,,,,Organization,"Am Knappsteig in Nuremberg, Germany",,german_fires_nuremberg_locations,12aa1e98e48359339aaa082ac948ced6,german_fires_nuremberg_locations__12aa1e98e48359339aaa082ac948ced6
am kohlrangen,"Am Kohlrangen in Nuremberg, Germany",49.4011356,11.0334236,1,,,,,,Pipeline,"Am Kohlrangen in Nuremberg, Germany",,german_fires_nuremberg_locations,c3d5bde09f1d44c3c3912fca3ddfbf97,german_fires_nuremberg_locations__c3d5bde09f1d44c3c3912fca3ddfbf97
am kressenstein,"Am Kressenstein in Nuremberg, Germany",49.5097171,11.0463429,1,,,,,,IndustryTerm,"Am Kressenstein in Nuremberg, Germany",,german_fires_nuremberg_locations,e81a7cf34ca5b87db03be7eba4a25cda,german_fires_nuremberg_locations__e81a7cf34ca5b87db03be7eba4a25cda
am kreuzberg,"Am Kreuzberg in Nuremberg, Germany",49.3550005,11.0577238,1,,,,,,AAEntity,"Am Kreuzberg in Nuremberg, Germany",,german_fires_nuremberg_locations,17d3a8bb4eaa0ba2ca517191adbdd63f,german_fires_nuremberg_locations__17d3a8bb4eaa0ba2ca517191adbdd63f
am kriegerdenkmal,"Am Kriegerdenkmal in Nuremberg, Germany",49.5185588,11.0482263,1,,,,,,Shipping,"Am Kriegerdenkmal in Nuremberg, Germany",,german_fires_nuremberg_locations,17901ed8267ee855ebb8ee646619b359,german_fires_nuremberg_locations__17901ed8267ee855ebb8ee646619b359
am kuhnleinsgarten,"Am Kuhnleinsgarten in Nuremberg, Germany",49.3549449,11.065729,1,,,,,,Organization,"Am Kuhnleinsgarten in Nuremberg, Germany",,german_fires_nuremberg_locations,d317b1780fc52b5af2a5d89b5688d383,german_fires_nuremberg_locations__d317b1780fc52b5af2a5d89b5688d383
am laufer schlagturm,"Am Laufer Schlagturm in Nuremberg, Germany",49.4561049,11.0834507,1,,,,,,space,"Am Laufer Schlagturm in Nuremberg, Germany",,german_fires_nuremberg_locations,3725d2b15b2143907047c18cd00171a1,german_fires_nuremberg_locations__3725d2b15b2143907047c18cd00171a1
am leonhardspark,"Am Leonhardspark in Nuremberg, Germany",49.4431071,11.0560656,1,,,,,,FTO,"Am Leonhardspark in Nuremberg, Germany",,german_fires_nuremberg_locations,e87a2cc76e3c33b1d864d0f7c9678a04,german_fires_nuremberg_locations__e87a2cc76e3c33b1d864d0f7c9678a04
am lerchenfeld,"Am Lerchenfeld in Nuremberg, Germany",49.3544734,11.0597893,1,,,,,,FTO,"Am Lerchenfeld in Nuremberg, Germany",,german_fires_nuremberg_locations,77a3e9175829d69f86e33e5439c66dad,german_fires_nuremberg_locations__77a3e9175829d69f86e33e5439c66dad
am lindenpark,"Am Lindenpark in Nuremberg, Germany",49.5346588,11.0263098,1,,,,,,IndustryTerm,"Am Lindenpark in Nuremberg, Germany",,german_fires_nuremberg_locations,d0835389d0f50b2846de5732286bf314,german_fires_nuremberg_locations__d0835389d0f50b2846de5732286bf314
am maderersbrunnen,"Am Maderersbrunnen in Nuremberg, Germany",49.4394291,11.2543802,1,,,,,,Legislator,"Am Maderersbrunnen in Nuremberg, Germany",,german_fires_nuremberg_locations,a74759e5182950f6d5d8ca10c6cac8c7,german_fires_nuremberg_locations__a74759e5182950f6d5d8ca10c6cac8c7
am messehaus,"Am Messehaus in Nuremberg, Germany",49.4645232,11.1002765,1,,,,,,FTO,"Am Messehaus in Nuremberg, Germany",,german_fires_nuremberg_locations,6dc61db1d76253f347c908b4476330c7,german_fires_nuremberg_locations__6dc61db1d76253f347c908b4476330c7
am mooshof,"Am Mooshof in Nuremberg, Germany",49.4840716,11.1015475,1,,,,,,FTO,"Am Mooshof in Nuremberg, Germany",,german_fires_nuremberg_locations,06ffb6997b4df13610106f1cd818b827,german_fires_nuremberg_locations__06ffb6997b4df13610106f1cd818b827
am muhlbach,"Am Muhlbach in Nuremberg, Germany",49.5257716,11.0122251,1,,,,,,Organization,"Am Muhlbach in Nuremberg, Germany",,german_fires_nuremberg_locations,bd916dd66b7a00518675cc704173f945,german_fires_nuremberg_locations__bd916dd66b7a00518675cc704173f945
am nordostbahnhof,"Am Nordostbahnhof in Nuremberg, Germany",49.4734021,11.1075753,1,,,,,,DiplomaticFacilities,"Am Nordostbahnhof in Nuremberg, Germany",,german_fires_nuremberg_locations,3feb49ed66cad0495168f841487a3ee8,german_fires_nuremberg_locations__3feb49ed66cad0495168f841487a3ee8
am nordwestbahnhof,"Am Nordwestbahnhof in Nuremberg, Germany",49.467168,11.040207,1,,,,,,Refinery,"Am Nordwestbahnhof in Nuremberg, Germany",,german_fires_nuremberg_locations,b202f49f5e68c6c096f59fead0932b59,german_fires_nuremberg_locations__b202f49f5e68c6c096f59fead0932b59
am olberg,"Am olberg in Nuremberg, Germany",49.4574262,11.0761364,1,,,,,,Person,"Am olberg in Nuremberg, Germany",,german_fires_nuremberg_locations,c2e4e8f99afb361a21c6888b261d754c,german_fires_nuremberg_locations__c2e4e8f99afb361a21c6888b261d754c
am ostbahnhof,"Am Ostbahnhof in Nuremberg, Germany",49.4643324,11.121056,1,,,,,,DiplomaticFacilities,"Am Ostbahnhof in Nuremberg, Germany",,german_fires_nuremberg_locations,7fa4e9aa22f4fe74cf52029a71154deb,german_fires_nuremberg_locations__7fa4e9aa22f4fe74cf52029a71154deb
am paulusstein,"Am Paulusstein in Nuremberg, Germany",49.5029784,11.1104468,1,,,,,,AAEntity,"Am Paulusstein in Nuremberg, Germany",,german_fires_nuremberg_locations,852cfa54529d4e848e6e96ea92070fb2,german_fires_nuremberg_locations__852cfa54529d4e848e6e96ea92070fb2
am pfarrbaum,"Am Pfarrbaum in Nuremberg, Germany",49.5318335,11.0133688,1,,,,,,Shipping,"Am Pfarrbaum in Nuremberg, Germany",,german_fires_nuremberg_locations,a44b54a0b8420e43779282b289341ef8,german_fires_nuremberg_locations__a44b54a0b8420e43779282b289341ef8
am pferdemarkt,"Am Pferdemarkt in Nuremberg, Germany",49.4416071,11.0581864,1,,,,,,News,"Am Pferdemarkt in Nuremberg, Germany",,german_fires_nuremberg_locations,68f2e2eadeceda75c654dadfb0d41015,german_fires_nuremberg_locations__68f2e2eadeceda75c654dadfb0d41015
am plarrer,"Am Plarrer in Nuremberg, Germany",49.4482381,11.0660127,1,,,,,,Shipping,"Am Plarrer in Nuremberg, Germany",,german_fires_nuremberg_locations,f119073dace8b23fce931fa18458558a,german_fires_nuremberg_locations__f119073dace8b23fce931fa18458558a
am pointgraben,"Am Pointgraben in Nuremberg, Germany",49.3611299,11.0583808,1,,,,,,Organization,"Am Pointgraben in Nuremberg, Germany",,german_fires_nuremberg_locations,f79afbd342e2879b79037ca189846173,german_fires_nuremberg_locations__f79afbd342e2879b79037ca189846173
am rednitzhang,"Am Rednitzhang in Nuremberg, Germany",49.4040346,11.0294634,1,,,,,,News,"Am Rednitzhang in Nuremberg, Germany",,german_fires_nuremberg_locations,e3b4a52c2b8f03e7914f72e8e86347fe,german_fires_nuremberg_locations__e3b4a52c2b8f03e7914f72e8e86347fe
am reichsforst,"Am Reichsforst in Nuremberg, Germany",49.5002249,11.1075423,1,,,,,,Keyphrase,"Am Reichsforst in Nuremberg, Germany",,german_fires_nuremberg_locations,46bccb0d8cec7e3e89e528dd14940bfd,german_fires_nuremberg_locations__46bccb0d8cec7e3e89e528dd14940bfd
am roten buhl,"Am Roten Buhl in Nuremberg, Germany",49.357947,11.0715193,1,,,,,,ForeignMinistry,"Am Roten Buhl in Nuremberg, Germany",,german_fires_nuremberg_locations,87a2dab95e32c11485a3a0c5442a2efd,german_fires_nuremberg_locations__87a2dab95e32c11485a3a0c5442a2efd
am rothenbacher landgr,"Am Rothenbacher Landgr in Nuremberg, Germany",49.4478908,11.0827879,1,,,,,,Exec,"Am Rothenbacher Landgr in Nuremberg, Germany",,german_fires_nuremberg_locations,ba6a6b514ccaf988f4a2df6189c432da,german_fires_nuremberg_locations__ba6a6b514ccaf988f4a2df6189c432da
am schlag,"Am Schlag in Nuremberg, Germany",49.4271795,11.1874896,1,,,,,,News,"Am Schlag in Nuremberg, Germany",,german_fires_nuremberg_locations,639cb96b85064f887e25a1a61d7625c5,german_fires_nuremberg_locations__639cb96b85064f887e25a1a61d7625c5
am schlossgraben,"Am Schlossgraben in Nuremberg, Germany",49.3556407,11.0985021,1,,,,,,News,"Am Schlossgraben in Nuremberg, Germany",,german_fires_nuremberg_locations,028a36f70bc8638ae1869a2b5481c402,german_fires_nuremberg_locations__028a36f70bc8638ae1869a2b5481c402
am schlosspark,"Am Schlosspark in Nuremberg, Germany",49.4202558,11.195142,1,,,,,,ForeignMinistry,"Am Schlosspark in Nuremberg, Germany",,german_fires_nuremberg_locations,70648e4efdf020b4a02ab22989eca914,german_fires_nuremberg_locations__70648e4efdf020b4a02ab22989eca914
am schwedenbrunnen,"Am Schwedenbrunnen in Nuremberg, Germany",49.5047111,11.111938,1,,,,,,ForeignMinister,"Am Schwedenbrunnen in Nuremberg, Germany",,german_fires_nuremberg_locations,2a24048a0a150bd9f0989dc828c85c92,german_fires_nuremberg_locations__2a24048a0a150bd9f0989dc828c85c92
am schwedengraben,"Am Schwedengraben in Nuremberg, Germany",49.3746746,11.0688261,1,,,,,,Wells,"Am Schwedengraben in Nuremberg, Germany",,german_fires_nuremberg_locations,1281a916e79bef4251ddf03ed446d467,german_fires_nuremberg_locations__1281a916e79bef4251ddf03ed446d467
am schweigeracker,"Am Schweigeracker in Nuremberg, Germany",49.4805389,11.0793786,1,,,,,,Keyphrase,"Am Schweigeracker in Nuremberg, Germany",,german_fires_nuremberg_locations,084a5a7520682a97da2330b8f8d390b1,german_fires_nuremberg_locations__084a5a7520682a97da2330b8f8d390b1
am sportplatz,"Am Sportplatz in Nuremberg, Germany",49.5159904,11.0320847,1,,,,,,Keyphrase,"Am Sportplatz in Nuremberg, Germany",,german_fires_nuremberg_locations,38d5646121243e4a18c7f14abe9f1f5a,german_fires_nuremberg_locations__38d5646121243e4a18c7f14abe9f1f5a
am spund,"Am Spund in Nuremberg, Germany",49.5222216,11.0265315,1,,,,,,Exec,"Am Spund in Nuremberg, Germany",,german_fires_nuremberg_locations,62f399553b4d4c4c24947e717945894b,german_fires_nuremberg_locations__62f399553b4d4c4c24947e717945894b
am stadtpark,"Am Stadtpark in Nuremberg, Germany",49.4661277,11.0912536,1,,,,,,DiplomaticFacilities,"Am Stadtpark in Nuremberg, Germany",,german_fires_nuremberg_locations,48a9f1e0175991f3cafe8d88e08345e3,german_fires_nuremberg_locations__48a9f1e0175991f3cafe8d88e08345e3
am steig,"Am Steig in Nuremberg, Germany",49.5251157,11.0058169,1,,,,,,Legislator,"Am Steig in Nuremberg, Germany",,german_fires_nuremberg_locations,c83b7a1f287731b590c87bd8e4fff72c,german_fires_nuremberg_locations__c83b7a1f287731b590c87bd8e4fff72c
am steinberg,"Am Steinberg in Nuremberg, Germany",49.3855393,11.0354532,1,,,,,,CompanyKeyword,"Am Steinberg in Nuremberg, Germany",,german_fires_nuremberg_locations,915a006e5bfd988fe5c64e8a34e9e18c,german_fires_nuremberg_locations__915a006e5bfd988fe5c64e8a34e9e18c
am steinbruchlein,"Am Steinbruchlein in Nuremberg, Germany",49.3917128,11.1106515,1,,,,,,Exec,"Am Steinbruchlein in Nuremberg, Germany",,german_fires_nuremberg_locations,78b68fecbaec54f10a394e62d6862d57,german_fires_nuremberg_locations__78b68fecbaec54f10a394e62d6862d57
am thoner espan,"Am Thoner Espan in Nuremberg, Germany",49.4748574,11.0664079,1,,,,,,Legislator,"Am Thoner Espan in Nuremberg, Germany",,german_fires_nuremberg_locations,60d23a27a7050867c7d94e9b18ac9f81,german_fires_nuremberg_locations__60d23a27a7050867c7d94e9b18ac9f81
am tiergarten,"Am Tiergarten in Nuremberg, Germany",49.445396,11.1404522,1,,,,,,LegislativeCommittee,"Am Tiergarten in Nuremberg, Germany",,german_fires_nuremberg_locations,7a11063caa696475bca80e5c569f8f7b,german_fires_nuremberg_locations__7a11063caa696475bca80e5c569f8f7b
am tower,"Am Tower in Nuremberg, Germany",49.3903449,11.1791162,1,,,,,,AAEntity,"Am Tower in Nuremberg, Germany",,german_fires_nuremberg_locations,2c0decb38543c6c23f47f5ca364151d6,german_fires_nuremberg_locations__2c0decb38543c6c23f47f5ca364151d6
am tucherturm,"Am Tucherturm in Nuremberg, Germany",49.4656731,11.0845596,1,,,,,,ForeignMinistry,"Am Tucherturm in Nuremberg, Germany",,german_fires_nuremberg_locations,bb2e1b2c722ca450e21c61aa41795130,german_fires_nuremberg_locations__bb2e1b2c722ca450e21c61aa41795130
am tullnaupark,"Am Tullnaupark in Nuremberg, Germany",49.4498113,11.1028648,1,,,,,,Media,"Am Tullnaupark in Nuremberg, Germany",,german_fires_nuremberg_locations,963b1ba2bdc8dbab525c30862a93d3fe,german_fires_nuremberg_locations__963b1ba2bdc8dbab525c30862a93d3fe
am vogelberg,"Am Vogelberg in Nuremberg, Germany",49.374546,11.0667778,1,,,,,,FTO,"Am Vogelberg in Nuremberg, Germany",,german_fires_nuremberg_locations,7914234adbbc323934538af15f7409e6,german_fires_nuremberg_locations__7914234adbbc323934538af15f7409e6
am waldrand,"Am Waldrand in Nuremberg, Germany",49.3470243,11.0565111,1,,,,,,Organization,"Am Waldrand in Nuremberg, Germany",,german_fires_nuremberg_locations,8220d3eda61caa2ae951b6401097a2eb,german_fires_nuremberg_locations__8220d3eda61caa2ae951b6401097a2eb
am wasserturm,"Am Wasserturm in Nuremberg, Germany",49.3547063,11.1048731,1,,,,,,Media,"Am Wasserturm in Nuremberg, Germany",,german_fires_nuremberg_locations,0e2ffcaf90e05b83c4a1be508d02cd6e,german_fires_nuremberg_locations__0e2ffcaf90e05b83c4a1be508d02cd6e
am wegfeld,"Am Wegfeld in Nuremberg, Germany",49.4920708,11.0461549,1,,,,,,ForeignMinistry,"Am Wegfeld in Nuremberg, Germany",,german_fires_nuremberg_locations,e28359e3fb30fef560acde1a1ba7b018,german_fires_nuremberg_locations__e28359e3fb30fef560acde1a1ba7b018
am weiher,"Am Weiher in Nuremberg, Germany",49.5177786,11.0279835,1,,,,,,Consulates,"Am Weiher in Nuremberg, Germany",,german_fires_nuremberg_locations,7ebace6b476e1e94d72c08773f62bb23,german_fires_nuremberg_locations__7ebace6b476e1e94d72c08773f62bb23
am weissensee,"Am Weissensee in Nuremberg, Germany",49.3688735,11.0522892,1,,,,,,Organization,"Am Weissensee in Nuremberg, Germany",,german_fires_nuremberg_locations,76d16e32213706cae493b03830026aea,german_fires_nuremberg_locations__76d16e32213706cae493b03830026aea
am westpark,"Am Westpark in Nuremberg, Germany",49.4437592,11.0280169,1,,,,,,Consulates,"Am Westpark in Nuremberg, Germany",,german_fires_nuremberg_locations,3784b7391b59eabdab7f30f9f4ad0088,german_fires_nuremberg_locations__3784b7391b59eabdab7f30f9f4ad0088
am wiesengrund,"Am Wiesengrund in Nuremberg, Germany",49.3738766,11.0895591,1,,,,,,CompanyKeyword,"Am Wiesengrund in Nuremberg, Germany",,german_fires_nuremberg_locations,b428e0bd4b139e50103868e2e0f94226,german_fires_nuremberg_locations__b428e0bd4b139e50103868e2e0f94226
am wirtsacker,"Am Wirtsacker in Nuremberg, Germany",49.4406774,11.0107076,1,,,,,,ForeignMinister,"Am Wirtsacker in Nuremberg, Germany",,german_fires_nuremberg_locations,439a35182a30501b41aaae20f2559943,german_fires_nuremberg_locations__439a35182a30501b41aaae20f2559943
am wolfshof,"Am Wolfshof in Nuremberg, Germany",49.4252413,11.1809974,1,,,,,,IndustryTerm,"Am Wolfshof in Nuremberg, Germany",,german_fires_nuremberg_locations,2926ecda66ce170d2de0d6b156b7f57b,german_fires_nuremberg_locations__2926ecda66ce170d2de0d6b156b7f57b
am zollhaus,"Am Zollhaus in Nuremberg, Germany",49.3917757,11.1278618,1,,,,,,Exec,"Am Zollhaus in Nuremberg, Germany",,german_fires_nuremberg_locations,a8470209020e49dc46738af66002cc13,german_fires_nuremberg_locations__a8470209020e49dc46738af66002cc13
amalienstrasse,"Amalienstrasse in Nuremberg, Germany",49.4605027,11.0567088,1,,,,,,Person,"Amalienstrasse in Nuremberg, Germany",,german_fires_nuremberg_locations,194cf7452e6158cbc8cbf05234afc85c,german_fires_nuremberg_locations__194cf7452e6158cbc8cbf05234afc85c
ambergerstrasse,"Ambergerstrasse in Nuremberg, Germany",49.4283828,11.0489739,1,,,,,,Consulates,"Ambergerstrasse in Nuremberg, Germany",,german_fires_nuremberg_locations,e6207604e3ea3f4aebc6da5e29030437,german_fires_nuremberg_locations__e6207604e3ea3f4aebc6da5e29030437
ammanstrasse,"Ammanstrasse in Nuremberg, Germany",49.4387904,11.0798277,1,,,,,,Pipeline,"Ammanstrasse in Nuremberg, Germany",,german_fires_nuremberg_locations,47c1c7425cb756d2fdc2c686b8205bc7,german_fires_nuremberg_locations__47c1c7425cb756d2fdc2c686b8205bc7
ammerndorfer strasse,"Ammerndorfer strasse in Nuremberg, Germany",49.451953,11.0313684,1,,,,,,space,"Ammerndorfer strasse in Nuremberg, Germany",,german_fires_nuremberg_locations,7f412371f6cdf7386f0388ef4381787f,german_fires_nuremberg_locations__7f412371f6cdf7386f0388ef4381787f
amorbacher strasse,"Amorbacher strasse in Nuremberg, Germany",49.5352657,11.0253067,1,,,,,,Diplomat,"Amorbacher strasse in Nuremberg, Germany",,german_fires_nuremberg_locations,90566405cb91369037c6450c9a1d49c5,german_fires_nuremberg_locations__90566405cb91369037c6450c9a1d49c5
amrumer strasse,"Amrumer strasse in Nuremberg, Germany",49.4810178,11.0682652,1,,,,,,FTO,"Amrumer strasse in Nuremberg, Germany",,german_fires_nuremberg_locations,7daa78ac87bbb57713124eff3276cb58,german_fires_nuremberg_locations__7daa78ac87bbb57713124eff3276cb58
amselstrasse,"Amselstrasse in Nuremberg, Germany",49.4403436,11.0548904,1,,,,,,DiplomaticFacilities,"Amselstrasse in Nuremberg, Germany",,german_fires_nuremberg_locations,1343a2145f12f90b3084a50d4c503c75,german_fires_nuremberg_locations__1343a2145f12f90b3084a50d4c503c75
amtmannsbrucklein,"Amtmannsbrucklein in Nuremberg, Germany",49.418448,11.181862,1,,,,,,ForeignMinister,"Amtmannsbrucklein in Nuremberg, Germany",,german_fires_nuremberg_locations,1b0492bc8119688f61808cf09c7998ea,german_fires_nuremberg_locations__1b0492bc8119688f61808cf09c7998ea
amundsenstrasse,"Amundsenstrasse in Nuremberg, Germany",49.360272,11.0489089,1,,,,,,Media,"Amundsenstrasse in Nuremberg, Germany",,german_fires_nuremberg_locations,a99ceea171771917162700ce4ae672aa,german_fires_nuremberg_locations__a99ceea171771917162700ce4ae672aa
an den rampen,"An den Rampen in Nuremberg, Germany",49.4410964,11.064311,1,,,,,,Media,"An den Rampen in Nuremberg, Germany",,german_fires_nuremberg_locations,d6490d0be5cac3dbcc8e9acd7d61771d,german_fires_nuremberg_locations__d6490d0be5cac3dbcc8e9acd7d61771d
an den schwedenkreuzen,"An den Schwedenkreuzen in Nuremberg, Germany",49.3538406,11.0934993,1,,,,,,Consulates,"An den Schwedenkreuzen in Nuremberg, Germany",,german_fires_nuremberg_locations,6ca0cbf8f2375bd86708ee45427391ad,german_fires_nuremberg_locations__6ca0cbf8f2375bd86708ee45427391ad
an den weihern,"An den Weihern in Nuremberg, Germany",49.3737233,11.0635733,1,,,,,,LegislativeCommittee,"An den Weihern in Nuremberg, Germany",,german_fires_nuremberg_locations,41b231ddde2e55870de643924909a828,german_fires_nuremberg_locations__41b231ddde2e55870de643924909a828
an der bahnlinie,"An der Bahnlinie in Nuremberg, Germany",49.4154067,11.1709134,1,,,,,,Organization,"An der Bahnlinie in Nuremberg, Germany",,german_fires_nuremberg_locations,1df1119cc52022f441c68a3f61f0e5c1,german_fires_nuremberg_locations__1df1119cc52022f441c68a3f61f0e5c1
an der bergleite,"An der Bergleite in Nuremberg, Germany",49.3534875,11.0591725,1,,,,,,Shipping,"An der Bergleite in Nuremberg, Germany",,german_fires_nuremberg_locations,7f032837653697cc3b32b9e166f7b3ea,german_fires_nuremberg_locations__7f032837653697cc3b32b9e166f7b3ea
an der breiting,"An der Breiting in Nuremberg, Germany",49.3689452,11.0975198,1,,,,,,DiplomaticFacilities,"An der Breiting in Nuremberg, Germany",,german_fires_nuremberg_locations,626949034cb5e0f93495c947a5a6273a,german_fires_nuremberg_locations__626949034cb5e0f93495c947a5a6273a
an der fleischbrucke,"An der Fleischbrucke in Nuremberg, Germany",49.4528135,11.0767799,1,,,,,,CompanyKeyword,"An der Fleischbrucke in Nuremberg, Germany",,german_fires_nuremberg_locations,e474af6c32de198bc7c3c7d67b334aa0,german_fires_nuremberg_locations__e474af6c32de198bc7c3c7d67b334aa0
an der guggenlohe,"An der Guggenlohe in Nuremberg, Germany",49.4956711,11.0497995,1,,,,,,ForeignMinistry,"An der Guggenlohe in Nuremberg, Germany",,german_fires_nuremberg_locations,42f2e72f72c1fceb153686d201d84459,german_fires_nuremberg_locations__42f2e72f72c1fceb153686d201d84459
an der karlsbrucke,"An der Karlsbrucke in Nuremberg, Germany",49.4528203,11.0745599,1,,,,,,ForeignMinister,"An der Karlsbrucke in Nuremberg, Germany",,german_fires_nuremberg_locations,a1c99cb6a6caf3ada9dcd05d1ad5542b,german_fires_nuremberg_locations__a1c99cb6a6caf3ada9dcd05d1ad5542b
an der lehmgrube,"An der Lehmgrube in Nuremberg, Germany",49.5144717,11.030224,1,,,,,,space,"An der Lehmgrube in Nuremberg, Germany",,german_fires_nuremberg_locations,a9e92f0dbce66e4fd7b2632495b091f4,german_fires_nuremberg_locations__a9e92f0dbce66e4fd7b2632495b091f4
an der marterlach,"An der Marterlach in Nuremberg, Germany",49.4188511,11.058302,1,,,,,,DiplomaticFacilities,"An der Marterlach in Nuremberg, Germany",,german_fires_nuremberg_locations,7ae65b5b62d57a9de2a728e88307d63b,german_fires_nuremberg_locations__7ae65b5b62d57a9de2a728e88307d63b
an der radrunde,"An der Radrunde in Nuremberg, Germany",49.370505,11.0873008,1,,,,,,Refinery,"An der Radrunde in Nuremberg, Germany",,german_fires_nuremberg_locations,12a23bd2734116c25c318ae8d316c1e4,german_fires_nuremberg_locations__12a23bd2734116c25c318ae8d316c1e4
an der rosselwiese,"An der Rosselwiese in Nuremberg, Germany",49.5205971,11.0476548,1,,,,,,DiplomaticFacilities,"An der Rosselwiese in Nuremberg, Germany",,german_fires_nuremberg_locations,8e05e8eda2ecf7f19dbe39070255f2dd,german_fires_nuremberg_locations__8e05e8eda2ecf7f19dbe39070255f2dd
an der rundkapelle,"An der Rundkapelle in Nuremberg, Germany",49.4058127,11.1665703,1,,,,,,Organization,"An der Rundkapelle in Nuremberg, Germany",,german_fires_nuremberg_locations,c0c9616ac2df1469ba649580496c044f,german_fires_nuremberg_locations__c0c9616ac2df1469ba649580496c044f
an der schwarzlach,"An der Schwarzlach in Nuremberg, Germany",49.4098101,11.0810555,1,,,,,,Shipping,"An der Schwarzlach in Nuremberg, Germany",,german_fires_nuremberg_locations,0ba0b58a086a55ef35cfefc9f3d1d00c,german_fires_nuremberg_locations__0ba0b58a086a55ef35cfefc9f3d1d00c
an der schwedenschanze,"An der Schwedenschanze in Nuremberg, Germany",49.3745621,11.0695303,1,,,,,,ForeignMinister,"An der Schwedenschanze in Nuremberg, Germany",,german_fires_nuremberg_locations,5b92d35f7257967ed3d48bc223f7f03c,german_fires_nuremberg_locations__5b92d35f7257967ed3d48bc223f7f03c
an der steinmauer,"An der Steinmauer in Nuremberg, Germany",49.3730979,11.0861878,1,,,,,,News,"An der Steinmauer in Nuremberg, Germany",,german_fires_nuremberg_locations,6a5bebf9abc6f21a6743a38ea77fdbf2,german_fires_nuremberg_locations__6a5bebf9abc6f21a6743a38ea77fdbf2
an der wind,"An der Wind in Nuremberg, Germany",49.5191622,11.0488697,1,,,,,,Refinery,"An der Wind in Nuremberg, Germany",,german_fires_nuremberg_locations,37c53d03fea532550fd498fc34947fa9,german_fires_nuremberg_locations__37c53d03fea532550fd498fc34947fa9
andernacher strasse,"Andernacher strasse in Nuremberg, Germany",49.4898988,11.1008242,1,,,,,,Keyphrase,"Andernacher strasse in Nuremberg, Germany",,german_fires_nuremberg_locations,0d9d87cab84672c232d699734654f6bb,german_fires_nuremberg_locations__0d9d87cab84672c232d699734654f6bb
andersenstrasse,"Andersenstrasse in Nuremberg, Germany",49.4673278,11.1781731,1,,,,,,Media,"Andersenstrasse in Nuremberg, Germany",,german_fires_nuremberg_locations,6ae37ded0cb6c20fcc5bdd24933d0ab2,german_fires_nuremberg_locations__6ae37ded0cb6c20fcc5bdd24933d0ab2
andreas-hofer-strasse,"Andreas-Hofer-strasse in Nuremberg, Germany",49.4274034,11.0915329,1,,,,,,Media,"Andreas-Hofer-strasse in Nuremberg, Germany",,german_fires_nuremberg_locations,94ef6365a73d408da3e92d24781d8c86,german_fires_nuremberg_locations__94ef6365a73d408da3e92d24781d8c86
anemonenstrasse,"Anemonenstrasse in Nuremberg, Germany",49.3491376,11.0597455,1,,,,,,ForeignMinistry,"Anemonenstrasse in Nuremberg, Germany",,german_fires_nuremberg_locations,0e23bcb864d0f2a23e11fbd11ec10c9e,german_fires_nuremberg_locations__0e23bcb864d0f2a23e11fbd11ec10c9e
angerburger strasse,"Angerburger strasse in Nuremberg, Germany",49.4863102,11.1064101,1,,,,,,FTO,"Angerburger strasse in Nuremberg, Germany",,german_fires_nuremberg_locations,1f2fc775c1331fc22bbabf0e2a151f24,german_fires_nuremberg_locations__1f2fc775c1331fc22bbabf0e2a151f24
angerstrasse,"Angerstrasse in Nuremberg, Germany",49.4409878,11.0693865,1,,,,,,Consulates,"Angerstrasse in Nuremberg, Germany",,german_fires_nuremberg_locations,59f65bd2f3d3e066af16ca2cf0b72231,german_fires_nuremberg_locations__59f65bd2f3d3e066af16ca2cf0b72231
anne-frank-strasse,"Anne-Frank-strasse in Nuremberg, Germany",49.4386951,11.0873562,1,,,,,,LegislativeCommittee,"Anne-Frank-strasse in Nuremberg, Germany",,german_fires_nuremberg_locations,e5d89ff39f2a17a0a82c6e85edb3db6c,german_fires_nuremberg_locations__e5d89ff39f2a17a0a82c6e85edb3db6c
annette-kolb-strasse,"Annette-Kolb-strasse in Nuremberg, Germany",49.4124573,11.1310253,1,,,,,,News,"Annette-Kolb-strasse in Nuremberg, Germany",,german_fires_nuremberg_locations,d00329aa154c5390b8357ccb4847fa16,german_fires_nuremberg_locations__d00329aa154c5390b8357ccb4847fa16
annweilerstrasse,"Annweilerstrasse in Nuremberg, Germany",49.4045139,11.0947193,1,,,,,,LegislativeCommittee,"Annweilerstrasse in Nuremberg, Germany",,german_fires_nuremberg_locations,3ae2f0e2ea461dd39f77685ee00def68,german_fires_nuremberg_locations__3ae2f0e2ea461dd39f77685ee00def68
ansbacher strasse,"Ansbacher strasse in Nuremberg, Germany",49.4206264,11.0284748,1,,,,,,Exec,"Ansbacher strasse in Nuremberg, Germany",,german_fires_nuremberg_locations,3414bba75e65916b95f2e501feb8c8a5,german_fires_nuremberg_locations__3414bba75e65916b95f2e501feb8c8a5
ansgarstrasse,"Ansgarstrasse in Nuremberg, Germany",49.3951514,11.1758074,1,,,,,,CompanyKeyword,"Ansgarstrasse in Nuremberg, Germany",,german_fires_nuremberg_locations,cb8445fb4cf03bd768b4bd05bceb6def,german_fires_nuremberg_locations__cb8445fb4cf03bd768b4bd05bceb6def
antwerpener strasse,"Antwerpener strasse in Nuremberg, Germany",49.3897309,11.0603948,1,,,,,,Wells,"Antwerpener strasse in Nuremberg, Germany",,german_fires_nuremberg_locations,1764126421e80ee5c6c9cd92f4c341b2,german_fires_nuremberg_locations__1764126421e80ee5c6c9cd92f4c341b2
anwandener strasse,"Anwandener strasse in Nuremberg, Germany",49.4525883,11.0304402,1,,,,,,IndustryTerm,"Anwandener strasse in Nuremberg, Germany",,german_fires_nuremberg_locations,818fae43cf5bc426f70ff6096ff6bf7a,german_fires_nuremberg_locations__818fae43cf5bc426f70ff6096ff6bf7a
anzengruberstrasse,"Anzengruberstrasse in Nuremberg, Germany",49.4196026,11.1846785,1,,,,,,FTO,"Anzengruberstrasse in Nuremberg, Germany",,german_fires_nuremberg_locations,b33336e4a6688dfffb0dd21ad5258836,german_fires_nuremberg_locations__b33336e4a6688dfffb0dd21ad5258836
apenrader strasse,"Apenrader strasse in Nuremberg, Germany",49.4787523,11.0667714,1,,,,,,Organization,"Apenrader strasse in Nuremberg, Germany",,german_fires_nuremberg_locations,62584f846282eba011958c06428e3c3c,german_fires_nuremberg_locations__62584f846282eba011958c06428e3c3c
apinusstrasse,"Apinusstrasse in Nuremberg, Germany",49.4562153,11.113917,1,,,,,,Exec,"Apinusstrasse in Nuremberg, Germany",,german_fires_nuremberg_locations,e150835e718d9292959f0bea93f5f2df,german_fires_nuremberg_locations__e150835e718d9292959f0bea93f5f2df
appelstrasse,"Appelstrasse in Nuremberg, Germany",49.3677692,11.0482992,1,,,,,,ForeignMinistry,"Appelstrasse in Nuremberg, Germany",,german_fires_nuremberg_locations,9b178e78e31b08a30f7ae029551707b4,german_fires_nuremberg_locations__9b178e78e31b08a30f7ae029551707b4
appoldstrasse,"Appoldstrasse in Nuremberg, Germany",49.4198123,11.0173547,1,,,,,,DiplomaticFacilities,"Appoldstrasse in Nuremberg, Germany",,german_fires_nuremberg_locations,183eb7e4696a40bfe07272dc2692c265,german_fires_nuremberg_locations__183eb7e4696a40bfe07272dc2692c265
arendsstrasse,"Arendsstrasse in Nuremberg, Germany",49.4279522,11.0471762,1,,,,,,AAEntity,"Arendsstrasse in Nuremberg, Germany",,german_fires_nuremberg_locations,b937a3d13ca4cbf8fca33b5abae7b423,german_fires_nuremberg_locations__b937a3d13ca4cbf8fca33b5abae7b423
arminiusstrasse,"Arminiusstrasse in Nuremberg, Germany",49.450758,11.1083043,1,,,,,,News,"Arminiusstrasse in Nuremberg, Germany",,german_fires_nuremberg_locations,a33f9d4a18071a0223f90218f109654d,german_fires_nuremberg_locations__a33f9d4a18071a0223f90218f109654d
armin-knab-strasse,"Armin-Knab-strasse in Nuremberg, Germany",49.4107672,11.0794872,1,,,,,,space,"Armin-Knab-strasse in Nuremberg, Germany",,german_fires_nuremberg_locations,b0b04a1f818eaa1dd9584b0128869cb0,german_fires_nuremberg_locations__b0b04a1f818eaa1dd9584b0128869cb0
arndtstrasse,"Arndtstrasse in Nuremberg, Germany",49.460319,11.0724609,1,,,,,,ForeignMinistry,"Arndtstrasse in Nuremberg, Germany",,german_fires_nuremberg_locations,606ab9fce40fb7ba11ce8f9c44ad1571,german_fires_nuremberg_locations__606ab9fce40fb7ba11ce8f9c44ad1571
arnoldstrasse,"Arnoldstrasse in Nuremberg, Germany",49.445099,11.1132301,1,,,,,,Diplomat,"Arnoldstrasse in Nuremberg, Germany",,german_fires_nuremberg_locations,4ac94f338ba1db9fcd63ee403a2164e4,german_fires_nuremberg_locations__4ac94f338ba1db9fcd63ee403a2164e4
artelshofer strasse,"Artelshofer strasse in Nuremberg, Germany",49.4655861,11.1567148,1,,,,,,News,"Artelshofer strasse in Nuremberg, Germany",,german_fires_nuremberg_locations,e220f7070d5b6ac72d44472489f6dd8d,german_fires_nuremberg_locations__e220f7070d5b6ac72d44472489f6dd8d
arzbergweg,"Arzbergweg in Nuremberg, Germany",49.4650053,11.1608014,1,,,,,,Exec,"Arzbergweg in Nuremberg, Germany",,german_fires_nuremberg_locations,182ab5b243cd388bea3f618b76b5243c,german_fires_nuremberg_locations__182ab5b243cd388bea3f618b76b5243c
arzloher strasse,"Arzloher strasse in Nuremberg, Germany",49.4631212,11.1619637,1,,,,,,FTO,"Arzloher strasse in Nuremberg, Germany",,german_fires_nuremberg_locations,56bb3b22581fe44e13614cbaa0f66631,german_fires_nuremberg_locations__56bb3b22581fe44e13614cbaa0f66631
asbacher strasse,"Asbacher strasse in Nuremberg, Germany",49.4292273,11.0118392,1,,,,,,CompanyKeyword,"Asbacher strasse in Nuremberg, Germany",,german_fires_nuremberg_locations,555a915f78010744a1b1ad9bc2a9a7f6,german_fires_nuremberg_locations__555a915f78010744a1b1ad9bc2a9a7f6
aschaffenburger strasse,"Aschaffenburger strasse in Nuremberg, Germany",49.5266863,11.0062691,1,,,,,,Legislator,"Aschaffenburger strasse in Nuremberg, Germany",,german_fires_nuremberg_locations,f45ac5f2ce19373cc4bf0c3924f4f4af,german_fires_nuremberg_locations__f45ac5f2ce19373cc4bf0c3924f4f4af
asternstrasse,"Asternstrasse in Nuremberg, Germany",49.400247,11.0312023,1,,,,,,Legislator,"Asternstrasse in Nuremberg, Germany",,german_fires_nuremberg_locations,b64e39c7cb9ab70c8cc0b14a6ecb22ac,german_fires_nuremberg_locations__b64e39c7cb9ab70c8cc0b14a6ecb22ac
atlantastrasse,"Atlantastrasse in Nuremberg, Germany",49.4680182,11.0768707,1,,,,,,LegislativeCommittee,"Atlantastrasse in Nuremberg, Germany",,german_fires_nuremberg_locations,4119333231b4c95fff94e94ce2334baf,german_fires_nuremberg_locations__4119333231b4c95fff94e94ce2334baf
auerbacher strasse,"Auerbacher strasse in Nuremberg, Germany",49.4618024,11.1624171,1,,,,,,IndustryTerm,"Auerbacher strasse in Nuremberg, Germany",,german_fires_nuremberg_locations,78803e4d538de8932ed42f62bb080cc8,german_fires_nuremberg_locations__78803e4d538de8932ed42f62bb080cc8
auf der huth,"Auf der Huth in Nuremberg, Germany",49.3543098,11.0947182,1,,,,,,Diplomat,"Auf der Huth in Nuremberg, Germany",,german_fires_nuremberg_locations,ab881ed902ba7ba66290c697ec02bd39,german_fires_nuremberg_locations__ab881ed902ba7ba66290c697ec02bd39
auf der paint,"Auf der Paint in Nuremberg, Germany",49.3729436,11.0755569,1,,,,,,Consulates,"Auf der Paint in Nuremberg, Germany",,german_fires_nuremberg_locations,8b200d4d1ebbe46970ec20fc7372ac54,german_fires_nuremberg_locations__8b200d4d1ebbe46970ec20fc7372ac54
auf der schanz,"Auf der Schanz in Nuremberg, Germany",49.3749892,11.0226173,1,,,,,,News,"Auf der Schanz in Nuremberg, Germany",,german_fires_nuremberg_locations,bad8034878819d71730a1d8f625e2f0d,german_fires_nuremberg_locations__bad8034878819d71730a1d8f625e2f0d
aufsessplatz,"Aufsessplatz in Nuremberg, Germany",49.441725,11.0801723,1,,,,,,News,"Aufsessplatz in Nuremberg, Germany",,german_fires_nuremberg_locations,09da8f482da44fef6787afbe98648230,german_fires_nuremberg_locations__09da8f482da44fef6787afbe98648230
augraben,"Augraben in Nuremberg, Germany",49.4252472,11.1868509,1,,,,,,Pipeline,"Augraben in Nuremberg, Germany",,german_fires_nuremberg_locations,01fa6d2aed88e9334c28576aee545e3f,german_fires_nuremberg_locations__01fa6d2aed88e9334c28576aee545e3f
augsburger strasse,"Augsburger strasse in Nuremberg, Germany",49.456017,11.035386,1,,,,,,Keyphrase,"Augsburger strasse in Nuremberg, Germany",,german_fires_nuremberg_locations,781fe13b2ef1cff85380ac46a18ef444,german_fires_nuremberg_locations__781fe13b2ef1cff85380ac46a18ef444
augustenstrasse,"Augustenstrasse in Nuremberg, Germany",49.440237,11.0928182,1,,,,,,Refinery,"Augustenstrasse in Nuremberg, Germany",,german_fires_nuremberg_locations,f2007d38a1c1fdd31f1890a4acda7f2b,german_fires_nuremberg_locations__f2007d38a1c1fdd31f1890a4acda7f2b
august-euler-weg,"August-Euler-Weg in Nuremberg, Germany",49.485312,11.0983938,1,,,,,,Organization,"August-Euler-Weg in Nuremberg, Germany",,german_fires_nuremberg_locations,451dcb8c07745ccbdca3d8a1987d6f5e,german_fires_nuremberg_locations__451dcb8c07745ccbdca3d8a1987d6f5e
augustinerhof,"Augustinerhof in Nuremberg, Germany",49.4537715,11.0759059,1,,,,,,AAEntity,"Augustinerhof in Nuremberg, Germany",,german_fires_nuremberg_locations,900288835f8f940723fd39bb26eb9ea5,german_fires_nuremberg_locations__900288835f8f940723fd39bb26eb9ea5
augustinerstrasse,"Augustinerstrasse in Nuremberg, Germany",49.454107,11.0748585,1,,,,,,Shipping,"Augustinerstrasse in Nuremberg, Germany",,german_fires_nuremberg_locations,eafd4f5b9adfaa8db75183a1ea6367ee,german_fires_nuremberg_locations__eafd4f5b9adfaa8db75183a1ea6367ee
august-sieghardt-strasse,"August-Sieghardt-strasse in Nuremberg, Germany",49.4130442,11.1342916,1,,,,,,FTO,"August-Sieghardt-strasse in Nuremberg, Germany",,german_fires_nuremberg_locations,ebdd18f7c7123423d53fb9d4e85c29a8,german_fires_nuremberg_locations__ebdd18f7c7123423d53fb9d4e85c29a8
aurachweg,"Aurachweg in Nuremberg, Germany",49.4295566,11.0143659,1,,,,,,ForeignMinister,"Aurachweg in Nuremberg, Germany",,german_fires_nuremberg_locations,578213e8b0710d8688547b348864b74e,german_fires_nuremberg_locations__578213e8b0710d8688547b348864b74e
auricher strasse,"Auricher strasse in Nuremberg, Germany",49.4793317,11.0639939,1,,,,,,Pipeline,"Auricher strasse in Nuremberg, Germany",,german_fires_nuremberg_locations,a93884f2f92d7ac7b023e5513c840712,german_fires_nuremberg_locations__a93884f2f92d7ac7b023e5513c840712
aussenstrasse,"Aussenstrasse in Nuremberg, Germany",49.3782215,11.0385757,1,,,,,,AAEntity,"Aussenstrasse in Nuremberg, Germany",,german_fires_nuremberg_locations,a2a1623ac04d56d2300f4b39c0b9156c,german_fires_nuremberg_locations__a2a1623ac04d56d2300f4b39c0b9156c
aussere bucher strasse,"aussere Bucher strasse in Nuremberg, Germany",49.4739214,11.065872,1,,,,,,Person,"aussere Bucher strasse in Nuremberg, Germany",,german_fires_nuremberg_locations,eacd7f6e1eb39baa979cc7f7ac164db9,german_fires_nuremberg_locations__eacd7f6e1eb39baa979cc7f7ac164db9
aussere buttendorfer strasse,"aussere Buttendorfer strasse in Nuremberg, Germany",49.4422546,11.0069786,1,,,,,,IndustryTerm,"aussere Buttendorfer strasse in Nuremberg, Germany",,german_fires_nuremberg_locations,cd0afda2065fa214b4581e008a249cf0,german_fires_nuremberg_locations__cd0afda2065fa214b4581e008a249cf0
aussere grossweidenmuhlstrasse,"aussere Grossweidenmuhlstrasse in Nuremberg, Germany",49.458346,11.0555322,1,,,,,,Exec,"aussere Grossweidenmuhlstrasse in Nuremberg, Germany",,german_fires_nuremberg_locations,193ab9648ddbe566867e7702bc0627e8,german_fires_nuremberg_locations__193ab9648ddbe566867e7702bc0627e8
aussere laufer gasse,"aussere Laufer Gasse in Nuremberg, Germany",49.4567988,11.0853969,1,,,,,,IndustryTerm,"aussere Laufer Gasse in Nuremberg, Germany",,german_fires_nuremberg_locations,4bb86e115d53bf3e955cbe4dae77ad1f,german_fires_nuremberg_locations__4bb86e115d53bf3e955cbe4dae77ad1f
aussere sulzbacher strasse,"aussere Sulzbacher strasse in Nuremberg, Germany",49.4626358,11.1146429,1,,,,,,Wells,"aussere Sulzbacher strasse in Nuremberg, Germany",,german_fires_nuremberg_locations,83bb5e187fabdd5df83415b4aa95e992,german_fires_nuremberg_locations__83bb5e187fabdd5df83415b4aa95e992
ausserer laufer platz,"ausserer Laufer Platz in Nuremberg, Germany",49.4573807,11.0872787,1,,,,,,DiplomaticFacilities,"ausserer Laufer Platz in Nuremberg, Germany",,german_fires_nuremberg_locations,5260997e79f3e2079b8b9a30ebb7ac20,german_fires_nuremberg_locations__5260997e79f3e2079b8b9a30ebb7ac20
aussiger platz,"Aussiger Platz in Nuremberg, Germany",49.4439515,11.1233805,1,,,,,,ForeignMinistry,"Aussiger Platz in Nuremberg, Germany",,german_fires_nuremberg_locations,1ee566828cd6737232d4072e6bc3fb82,german_fires_nuremberg_locations__1ee566828cd6737232d4072e6bc3fb82
austrasse,"Austrasse in Nuremberg, Germany",49.449534,11.0504664,1,,,,,,Wells,"Austrasse in Nuremberg, Germany",,german_fires_nuremberg_locations,358c24b859fcfb1d8385273432054d2b,german_fires_nuremberg_locations__358c24b859fcfb1d8385273432054d2b
avenariusstrasse,"Avenariusstrasse in Nuremberg, Germany",49.4685398,11.0851809,1,,,,,,space,"Avenariusstrasse in Nuremberg, Germany",,german_fires_nuremberg_locations,dab4ce43e7aa45809efac550f7534de1,german_fires_nuremberg_locations__dab4ce43e7aa45809efac550f7534de1
ayrerstrasse,"Ayrerstrasse in Nuremberg, Germany",49.439246,11.1256146,1,,,,,,IndustryTerm,"Ayrerstrasse in Nuremberg, Germany",,german_fires_nuremberg_locations,8621d59242ae3cb5e1dd6d83d5c48669,german_fires_nuremberg_locations__8621d59242ae3cb5e1dd6d83d5c48669
azaleenweg,"Azaleenweg in Nuremberg, Germany",49.4566896,11.1367797,1,,,,,,Media,"Azaleenweg in Nuremberg, Germany",,german_fires_nuremberg_locations,45caf308a74ed3c9aaa7d8a4f2d4db19,german_fires_nuremberg_locations__45caf308a74ed3c9aaa7d8a4f2d4db19
baaderstrasse,"Baaderstrasse in Nuremberg, Germany",49.4404063,11.1016832,1,,,,,,DiplomaticFacilities,"Baaderstrasse in Nuremberg, Germany",,german_fires_nuremberg_locations,26732737d91f4cbd5283fc1acf6d58e1,german_fires_nuremberg_locations__26732737d91f4cbd5283fc1acf6d58e1
bad bernecker strasse,"Bad Bernecker strasse in Nuremberg, Germany",49.4687657,11.1174419,1,,,,,,News,"Bad Bernecker strasse in Nuremberg, Germany",,german_fires_nuremberg_locations,ee90dd2cd0283c8d820d00a12d15f519,german_fires_nuremberg_locations__ee90dd2cd0283c8d820d00a12d15f519
bad bruckenauer strasse,"Bad Bruckenauer strasse in Nuremberg, Germany",49.5326066,11.0186664,1,,,,,,Consulates,"Bad Bruckenauer strasse in Nuremberg, Germany",,german_fires_nuremberg_locations,2b40be383fdacf37f06850bdf72a6f55,german_fires_nuremberg_locations__2b40be383fdacf37f06850bdf72a6f55
bad kissinger strasse,"Bad Kissinger strasse in Nuremberg, Germany",49.5304488,11.019576,1,,,,,,Exec,"Bad Kissinger strasse in Nuremberg, Germany",,german_fires_nuremberg_locations,8509d269260f2b22f8f31eeb5c956cc8,german_fires_nuremberg_locations__8509d269260f2b22f8f31eeb5c956cc8
bad worishofener strasse,"Bad Worishofener strasse in Nuremberg, Germany",49.3690035,11.0698728,1,,,,,,FTO,"Bad Worishofener strasse in Nuremberg, Germany",,german_fires_nuremberg_locations,7a657ca3479e365d4ac5bcee36689978,german_fires_nuremberg_locations__7a657ca3479e365d4ac5bcee36689978
baden-powell-strasse,"Baden-Powell-strasse in Nuremberg, Germany",49.358129,11.058372,1,,,,,,Organization,"Baden-Powell-strasse in Nuremberg, Germany",,german_fires_nuremberg_locations,7f0ab353767805c3c733222f12302f45,german_fires_nuremberg_locations__7f0ab353767805c3c733222f12302f45
badstrasse,"Badstrasse in Nuremberg, Germany",49.4489812,11.0870638,1,,,,,,IndustryTerm,"Badstrasse in Nuremberg, Germany",,german_fires_nuremberg_locations,7a5fafdc47f13d3000901b9a8a273f0b,german_fires_nuremberg_locations__7a5fafdc47f13d3000901b9a8a273f0b
bahnhofsplatz,"Bahnhofsplatz in Nuremberg, Germany",49.4468542,11.0819038,1,,,,,,DiplomaticFacilities,"Bahnhofsplatz in Nuremberg, Germany",,german_fires_nuremberg_locations,0c282df86a7986662838ad1ef0f799ca,german_fires_nuremberg_locations__0c282df86a7986662838ad1ef0f799ca
baierlacherstrasse,"Baierlacherstrasse in Nuremberg, Germany",49.4053165,11.032503,1,,,,,,Diplomat,"Baierlacherstrasse in Nuremberg, Germany",,german_fires_nuremberg_locations,06dc0b68db7588d88cb1d05762b68da4,german_fires_nuremberg_locations__06dc0b68db7588d88cb1d05762b68da4
baiersdorfer strasse,"Baiersdorfer strasse in Nuremberg, Germany",49.504177,11.1060061,1,,,,,,ForeignMinister,"Baiersdorfer strasse in Nuremberg, Germany",,german_fires_nuremberg_locations,4373b477af1409a5b997e367e2befb4c,german_fires_nuremberg_locations__4373b477af1409a5b997e367e2befb4c
baldurstrasse,"Baldurstrasse in Nuremberg, Germany",49.4378295,11.0977983,1,,,,,,DiplomaticFacilities,"Baldurstrasse in Nuremberg, Germany",,german_fires_nuremberg_locations,3c01680c50e9aec22c16cd9876d02851,german_fires_nuremberg_locations__3c01680c50e9aec22c16cd9876d02851
balthasar-neumann-strasse,"Balthasar-Neumann-strasse in Nuremberg, Germany",49.4581304,11.138182,1,,,,,,CompanyKeyword,"Balthasar-Neumann-strasse in Nuremberg, Germany",,german_fires_nuremberg_locations,0c66ea5535d7f1847f2db06ddd9357ea,german_fires_nuremberg_locations__0c66ea5535d7f1847f2db06ddd9357ea
baltrumer strasse,"Baltrumer strasse in Nuremberg, Germany",49.4790904,11.0625779,1,,,,,,CompanyKeyword,"Baltrumer strasse in Nuremberg, Germany",,german_fires_nuremberg_locations,88fc4a9d93c22e36b572cbf25e8ad628,german_fires_nuremberg_locations__88fc4a9d93c22e36b572cbf25e8ad628
bamberger strasse,"Bamberger strasse in Nuremberg, Germany",49.4821235,11.0478295,1,,,,,,IndustryTerm,"Bamberger strasse in Nuremberg, Germany",,german_fires_nuremberg_locations,5b57bbbc4559235ed25b369857e5849b,german_fires_nuremberg_locations__5b57bbbc4559235ed25b369857e5849b
barbiergasse,"Barbiergasse in Nuremberg, Germany",49.4465141,11.0658024,1,,,,,,FTO,"Barbiergasse in Nuremberg, Germany",,german_fires_nuremberg_locations,414beb07852a2434a3ad6e0288c32cae,german_fires_nuremberg_locations__414beb07852a2434a3ad6e0288c32cae
barenbuhlgraben,"Barenbuhlgraben in Nuremberg, Germany",49.4261702,11.1858642,1,,,,,,Refinery,"Barenbuhlgraben in Nuremberg, Germany",,german_fires_nuremberg_locations,da87e36c5c198199418bc27039c657fd,german_fires_nuremberg_locations__da87e36c5c198199418bc27039c657fd
barenschanzstrasse,"Barenschanzstrasse in Nuremberg, Germany",49.45223,11.0549367,1,,,,,,Wells,"Barenschanzstrasse in Nuremberg, Germany",,german_fires_nuremberg_locations,d2f56beda65971d1da9874d32964edd5,german_fires_nuremberg_locations__d2f56beda65971d1da9874d32964edd5
barlachstrasse,"Barlachstrasse in Nuremberg, Germany",49.3749588,11.0810162,1,,,,,,FTO,"Barlachstrasse in Nuremberg, Germany",,german_fires_nuremberg_locations,998dadc3632c1a1b20abf91a06f90055,german_fires_nuremberg_locations__998dadc3632c1a1b20abf91a06f90055
bartholomausstrasse,"Bartholomausstrasse in Nuremberg, Germany",49.4568309,11.1017179,1,,,,,,Keyphrase,"Bartholomausstrasse in Nuremberg, Germany",,german_fires_nuremberg_locations,bfdd52e1aa90ab05957f70d0eb53492a,german_fires_nuremberg_locations__bfdd52e1aa90ab05957f70d0eb53492a
bartokstrasse,"Bartokstrasse in Nuremberg, Germany",49.3501073,11.0624611,1,,,,,,LegislativeCommittee,"Bartokstrasse in Nuremberg, Germany",,german_fires_nuremberg_locations,6975ff595a0f3293d11d66ef78fff84b,german_fires_nuremberg_locations__6975ff595a0f3293d11d66ef78fff84b
baststrasse,"Baststrasse in Nuremberg, Germany",49.4992477,11.0461861,1,,,,,,ForeignMinistry,"Baststrasse in Nuremberg, Germany",,german_fires_nuremberg_locations,fbb233154760f7d44534db8902c395fa,german_fires_nuremberg_locations__fbb233154760f7d44534db8902c395fa
bauernfeindstrasse,"Bauernfeindstrasse in Nuremberg, Germany",49.4147548,11.1035884,1,,,,,,Media,"Bauernfeindstrasse in Nuremberg, Germany",,german_fires_nuremberg_locations,65b2da916c0d71b30b7df6f8bfc40023,german_fires_nuremberg_locations__65b2da916c0d71b30b7df6f8bfc40023
bauernfeldstrasse,"Bauernfeldstrasse in Nuremberg, Germany",49.4228198,11.1912941,1,,,,,,Shipping,"Bauernfeldstrasse in Nuremberg, Germany",,german_fires_nuremberg_locations,fed5d8439a40e3028c36f7a08ec39270,german_fires_nuremberg_locations__fed5d8439a40e3028c36f7a08ec39270
bauerngasse,"Bauerngasse in Nuremberg, Germany",49.4456241,11.0608801,1,,,,,,LegislativeCommittee,"Bauerngasse in Nuremberg, Germany",,german_fires_nuremberg_locations,748f9144d86e2e9507061d1730eac9b4,german_fires_nuremberg_locations__748f9144d86e2e9507061d1730eac9b4
bauhof,"Bauhof in Nuremberg, Germany",49.4493341,11.0818189,1,,,,,,LegislativeCommittee,"Bauhof in Nuremberg, Germany",,german_fires_nuremberg_locations,d9c9414e3d730f4c8ba8146fbebec3ba,german_fires_nuremberg_locations__d9c9414e3d730f4c8ba8146fbebec3ba
bauhuttenstrasse,"Bauhuttenstrasse in Nuremberg, Germany",49.4328535,11.0597866,1,,,,,,Legislator,"Bauhuttenstrasse in Nuremberg, Germany",,german_fires_nuremberg_locations,4f035cb2815790fd78daa5974dab6ac4,german_fires_nuremberg_locations__4f035cb2815790fd78daa5974dab6ac4
bauvereinstrasse,"Bauvereinstrasse in Nuremberg, Germany",49.4565233,11.0979593,1,,,,,,CompanyKeyword,"Bauvereinstrasse in Nuremberg, Germany",,german_fires_nuremberg_locations,1d819581339ccc4ab0e7873dbfb4b525,german_fires_nuremberg_locations__1d819581339ccc4ab0e7873dbfb4b525
bayernstrasse,"Bayernstrasse in Nuremberg, Germany",49.4337313,11.1103632,1,,,,,,Consulates,"Bayernstrasse in Nuremberg, Germany",,german_fires_nuremberg_locations,076ff1dd4489ca7cf58556ff78280333,german_fires_nuremberg_locations__076ff1dd4489ca7cf58556ff78280333
bebelstrasse,"Bebelstrasse in Nuremberg, Germany",49.3629896,11.0481813,1,,,,,,FTO,"Bebelstrasse in Nuremberg, Germany",,german_fires_nuremberg_locations,e05f7b832245f942bc4ecedda6e7acaa,german_fires_nuremberg_locations__e05f7b832245f942bc4ecedda6e7acaa
bechhofer strasse,"Bechhofer strasse in Nuremberg, Germany",49.3768212,11.0212901,1,,,,,,News,"Bechhofer strasse in Nuremberg, Germany",,german_fires_nuremberg_locations,976f4b96e80cefbb1bafa26d9d20b0e3,german_fires_nuremberg_locations__976f4b96e80cefbb1bafa26d9d20b0e3
beckmannstrasse,"Beckmannstrasse in Nuremberg, Germany",49.371909,11.0857172,1,,,,,,CompanyKeyword,"Beckmannstrasse in Nuremberg, Germany",,german_fires_nuremberg_locations,25a612c53779ac288d3e800acde0800e,german_fires_nuremberg_locations__25a612c53779ac288d3e800acde0800e
beckschlagergasse,"Beckschlagergasse in Nuremberg, Germany",49.4556533,11.0853701,1,,,,,,Legislator,"Beckschlagergasse in Nuremberg, Germany",,german_fires_nuremberg_locations,e7d7bc17889b1e0c6fabebc9bbe1ff12,german_fires_nuremberg_locations__e7d7bc17889b1e0c6fabebc9bbe1ff12
beckstrasse,"Beckstrasse in Nuremberg, Germany",49.4542467,11.0427835,1,,,,,,space,"Beckstrasse in Nuremberg, Germany",,german_fires_nuremberg_locations,d3be64de80c74793e4755ba42823ff48,german_fires_nuremberg_locations__d3be64de80c74793e4755ba42823ff48
beerbacher weg,"Beerbacher Weg in Nuremberg, Germany",49.4654464,11.149792,1,,,,,,Media,"Beerbacher Weg in Nuremberg, Germany",,german_fires_nuremberg_locations,7c19b001e9e557469ade01a3e8351177,german_fires_nuremberg_locations__7c19b001e9e557469ade01a3e8351177
beethovenstrasse,"Beethovenstrasse in Nuremberg, Germany",49.4698816,11.1231209,1,,,,,,Pipeline,"Beethovenstrasse in Nuremberg, Germany",,german_fires_nuremberg_locations,7ea809fe6cacf544413e7de2400fa472,german_fires_nuremberg_locations__7ea809fe6cacf544413e7de2400fa472
bei der gerasmuhle,"Bei der Gerasmuhle in Nuremberg, Germany",49.3937243,11.0250328,1,,,,,,Person,"Bei der Gerasmuhle in Nuremberg, Germany",,german_fires_nuremberg_locations,bbb9ca6529dfced89bcace31392766d5,german_fires_nuremberg_locations__bbb9ca6529dfced89bcace31392766d5
beilngrieser strasse,"Beilngrieser strasse in Nuremberg, Germany",49.3837382,11.0381471,1,,,,,,Consulates,"Beilngrieser strasse in Nuremberg, Germany",,german_fires_nuremberg_locations,348384c73e914823b9e50a4c912a5e8a,german_fires_nuremberg_locations__348384c73e914823b9e50a4c912a5e8a
beim eibisch,"Beim Eibisch in Nuremberg, Germany",49.4100657,11.0268126,1,,,,,,Shipping,"Beim Eibisch in Nuremberg, Germany",,german_fires_nuremberg_locations,828a820a6a08e5ea88363bb189ac9cf0,german_fires_nuremberg_locations__828a820a6a08e5ea88363bb189ac9cf0
beim galgensee,"Beim Galgensee in Nuremberg, Germany",49.5333544,11.0271749,1,,,,,,Pipeline,"Beim Galgensee in Nuremberg, Germany",,german_fires_nuremberg_locations,cec7455e4b8bd0704e575c1d33e49657,german_fires_nuremberg_locations__cec7455e4b8bd0704e575c1d33e49657
beim gronacker,"Beim Gronacker in Nuremberg, Germany",49.4470068,11.1248307,1,,,,,,News,"Beim Gronacker in Nuremberg, Germany",,german_fires_nuremberg_locations,3b74dc60152b55af28fb11ee5e24583a,german_fires_nuremberg_locations__3b74dc60152b55af28fb11ee5e24583a
beim hammerwerk,"Beim Hammerwerk in Nuremberg, Germany",49.46946,11.1674325,1,,,,,,Media,"Beim Hammerwerk in Nuremberg, Germany",,german_fires_nuremberg_locations,c1054340368af349769b86eac8ee33e7,german_fires_nuremberg_locations__c1054340368af349769b86eac8ee33e7
beim rochuskirchhof,"Beim Rochuskirchhof in Nuremberg, Germany",49.4480215,11.0606161,1,,,,,,FTO,"Beim Rochuskirchhof in Nuremberg, Germany",,german_fires_nuremberg_locations,28b80ea91ee4d046816dbc4d95d8596d,german_fires_nuremberg_locations__28b80ea91ee4d046816dbc4d95d8596d
beim tiergartnertor,"Beim Tiergartnertor in Nuremberg, Germany",49.4573645,11.0743073,1,,,,,,Consulates,"Beim Tiergartnertor in Nuremberg, Germany",,german_fires_nuremberg_locations,dc3fa0eaf1ef2cef07a42ac4dccd5791,german_fires_nuremberg_locations__dc3fa0eaf1ef2cef07a42ac4dccd5791
beim wahlbaum,"Beim Wahlbaum in Nuremberg, Germany",49.3809363,11.0326631,1,,,,,,Diplomat,"Beim Wahlbaum in Nuremberg, Germany",,german_fires_nuremberg_locations,7d1845a3454cc098b69c4cbd1cd69391,german_fires_nuremberg_locations__7d1845a3454cc098b69c4cbd1cd69391
belgarder strasse,"Belgarder strasse in Nuremberg, Germany",49.4131136,11.0351295,1,,,,,,Diplomat,"Belgarder strasse in Nuremberg, Germany",,german_fires_nuremberg_locations,7b336c2ac65342773aa3daafad9d7917,german_fires_nuremberg_locations__7b336c2ac65342773aa3daafad9d7917
belznerweg,"Belznerweg in Nuremberg, Germany",49.4783011,11.1029909,1,,,,,,ForeignMinistry,"Belznerweg in Nuremberg, Germany",,german_fires_nuremberg_locations,676fa1aa68fac9c9344f125707393245,german_fires_nuremberg_locations__676fa1aa68fac9c9344f125707393245
benekestrasse,"Benekestrasse in Nuremberg, Germany",49.4667351,11.0847232,1,,,,,,Media,"Benekestrasse in Nuremberg, Germany",,german_fires_nuremberg_locations,27b02ad0de4c6dfb2f0a89821bcf4893,german_fires_nuremberg_locations__27b02ad0de4c6dfb2f0a89821bcf4893
bennostrasse,"Bennostrasse in Nuremberg, Germany",49.4783028,11.1172187,1,,,,,,CompanyKeyword,"Bennostrasse in Nuremberg, Germany",,german_fires_nuremberg_locations,8ddf10e528c9da406fc40e8ba6c0d269,german_fires_nuremberg_locations__8ddf10e528c9da406fc40e8ba6c0d269
berchinger strasse,"Berchinger strasse in Nuremberg, Germany",49.4087064,11.0452029,1,,,,,,Refinery,"Berchinger strasse in Nuremberg, Germany",,german_fires_nuremberg_locations,5ab201c5f5028a1d29ee3a4069f6a777,german_fires_nuremberg_locations__5ab201c5f5028a1d29ee3a4069f6a777
berckhauserstrasse,"Berckhauserstrasse in Nuremberg, Germany",49.4644006,11.088297,1,,,,,,ForeignMinister,"Berckhauserstrasse in Nuremberg, Germany",,german_fires_nuremberg_locations,5e75185e1a50a2be14fda9b48bd1ad65,german_fires_nuremberg_locations__5e75185e1a50a2be14fda9b48bd1ad65
bergackerstrasse,"Bergackerstrasse in Nuremberg, Germany",49.4323818,11.1125338,1,,,,,,Pipeline,"Bergackerstrasse in Nuremberg, Germany",,german_fires_nuremberg_locations,df6ecdc9e3ab19116ec17c860a824a4a,german_fires_nuremberg_locations__df6ecdc9e3ab19116ec17c860a824a4a
bergstrasse,"Bergstrasse in Nuremberg, Germany",49.4569208,11.0751897,1,,,,,,ForeignMinistry,"Bergstrasse in Nuremberg, Germany",,german_fires_nuremberg_locations,8a569e00feec3c131f91a5de346141ea,german_fires_nuremberg_locations__8a569e00feec3c131f91a5de346141ea
berliner platz,"Berliner Platz in Nuremberg, Germany",49.4633638,11.095835,1,,,,,,Media,"Berliner Platz in Nuremberg, Germany",,german_fires_nuremberg_locations,a00af35766a13da867fdcb47a8af4f42,german_fires_nuremberg_locations__a00af35766a13da867fdcb47a8af4f42
bernadottestrasse,"Bernadottestrasse in Nuremberg, Germany",49.4428421,11.0385128,1,,,,,,News,"Bernadottestrasse in Nuremberg, Germany",,german_fires_nuremberg_locations,13f4b7f687f2db53e905475fc0c78954,german_fires_nuremberg_locations__13f4b7f687f2db53e905475fc0c78954
bernhardstrasse,"Bernhardstrasse in Nuremberg, Germany",49.45539,11.0116941,1,,,,,,FTO,"Bernhardstrasse in Nuremberg, Germany",,german_fires_nuremberg_locations,e73a52f6facf758320fcd00d478f3576,german_fires_nuremberg_locations__e73a52f6facf758320fcd00d478f3576
bernstadter strasse,"Bernstadter strasse in Nuremberg, Germany",49.3986326,11.1365958,1,,,,,,DiplomaticFacilities,"Bernstadter strasse in Nuremberg, Germany",,german_fires_nuremberg_locations,5a6cfb1b22e0896e4ba2a6927a3629ed,german_fires_nuremberg_locations__5a6cfb1b22e0896e4ba2a6927a3629ed
berolzheimer strasse,"Berolzheimer strasse in Nuremberg, Germany",49.4193898,11.0354332,1,,,,,,Keyphrase,"Berolzheimer strasse in Nuremberg, Germany",,german_fires_nuremberg_locations,34d4d3b84d3ca0509d66dc1fd97453e5,german_fires_nuremberg_locations__34d4d3b84d3ca0509d66dc1fd97453e5
bertastrasse,"Bertastrasse in Nuremberg, Germany",49.4450264,11.1137431,1,,,,,,AAEntity,"Bertastrasse in Nuremberg, Germany",,german_fires_nuremberg_locations,8fc3d020efb2aa39ecb260f7bc2716df,german_fires_nuremberg_locations__8fc3d020efb2aa39ecb260f7bc2716df
bertha-von-suttner-strasse,"Bertha-von-Suttner-strasse in Nuremberg, Germany",49.4445804,11.0454809,1,,,,,,FTO,"Bertha-von-Suttner-strasse in Nuremberg, Germany",,german_fires_nuremberg_locations,8da38549d1d9819d06915a910a0ba75e,german_fires_nuremberg_locations__8da38549d1d9819d06915a910a0ba75e
bertolt-brecht-strasse,"Bertolt-Brecht-strasse in Nuremberg, Germany",49.4151718,11.1232345,1,,,,,,CompanyKeyword,"Bertolt-Brecht-strasse in Nuremberg, Germany",,german_fires_nuremberg_locations,08daec160b98a13efa98e8b87648b364,german_fires_nuremberg_locations__08daec160b98a13efa98e8b87648b364
beslerstrasse,"Beslerstrasse in Nuremberg, Germany",49.4098672,11.0328244,1,,,,,,Keyphrase,"Beslerstrasse in Nuremberg, Germany",,german_fires_nuremberg_locations,b6a935b93746e202239584496b7d7284,german_fires_nuremberg_locations__b6a935b93746e202239584496b7d7284
bessemerstrasse,"Bessemerstrasse in Nuremberg, Germany",49.4757834,11.1065107,1,,,,,,DiplomaticFacilities,"Bessemerstrasse in Nuremberg, Germany",,german_fires_nuremberg_locations,9588633d6bfaa87c8cf2777ce6631ce5,german_fires_nuremberg_locations__9588633d6bfaa87c8cf2777ce6631ce5
bestelmeyerstrasse,"Bestelmeyerstrasse in Nuremberg, Germany",49.4440738,11.1079701,1,,,,,,Legislator,"Bestelmeyerstrasse in Nuremberg, Germany",,german_fires_nuremberg_locations,6506e37f3f78431a7e8481c02b97a26c,german_fires_nuremberg_locations__6506e37f3f78431a7e8481c02b97a26c
betzengasschen,"Betzengasschen in Nuremberg, Germany",49.450718,11.068205,1,,,,,,Organization,"Betzengasschen in Nuremberg, Germany",,german_fires_nuremberg_locations,fb716c12b1b23a326f34a42c97bb7a64,german_fires_nuremberg_locations__fb716c12b1b23a326f34a42c97bb7a64
betzensteiner strasse,"Betzensteiner strasse in Nuremberg, Germany",49.4832437,11.1166649,1,,,,,,Legislator,"Betzensteiner strasse in Nuremberg, Germany",,german_fires_nuremberg_locations,dd21271b16af35e419b07d9f362261f2,german_fires_nuremberg_locations__dd21271b16af35e419b07d9f362261f2
bibertstrasse,"Bibertstrasse in Nuremberg, Germany",49.4309655,11.0053867,1,,,,,,ForeignMinister,"Bibertstrasse in Nuremberg, Germany",,german_fires_nuremberg_locations,bd45d65f293b1ed23e7380564db3ffee,german_fires_nuremberg_locations__bd45d65f293b1ed23e7380564db3ffee
bibraweg,"Bibraweg in Nuremberg, Germany",49.407072,11.0331362,1,,,,,,Refinery,"Bibraweg in Nuremberg, Germany",,german_fires_nuremberg_locations,bdb89afe38afe02d25a571ebd1871c31,german_fires_nuremberg_locations__bdb89afe38afe02d25a571ebd1871c31
bielefelder strasse,"Bielefelder strasse in Nuremberg, Germany",49.4670602,11.0502297,1,,,,,,Wells,"Bielefelder strasse in Nuremberg, Germany",,german_fires_nuremberg_locations,956b45b116588d055bd9f3345eeb6227,german_fires_nuremberg_locations__956b45b116588d055bd9f3345eeb6227
bielingplatz,"Bielingplatz in Nuremberg, Germany",49.4643373,11.062851,1,,,,,,Media,"Bielingplatz in Nuremberg, Germany",,german_fires_nuremberg_locations,0ce993291cc88529568af9ca38fd8ad1,german_fires_nuremberg_locations__0ce993291cc88529568af9ca38fd8ad1
bielingstrasse,"Bielingstrasse in Nuremberg, Germany",49.4619342,11.0668157,1,,,,,,Legislator,"Bielingstrasse in Nuremberg, Germany",,german_fires_nuremberg_locations,eac11ad83ae6cb878fee8975e4d01d7e,german_fires_nuremberg_locations__eac11ad83ae6cb878fee8975e4d01d7e
bienweg,"Bienweg in Nuremberg, Germany",49.4666437,11.0451118,1,,,,,,ForeignMinistry,"Bienweg in Nuremberg, Germany",,german_fires_nuremberg_locations,d30f4ffd3c463f76ebd51e23cf99f38a,german_fires_nuremberg_locations__d30f4ffd3c463f76ebd51e23cf99f38a
bierleite,"Bierleite in Nuremberg, Germany",49.3591583,11.058776,1,,,,,,DiplomaticFacilities,"Bierleite in Nuremberg, Germany",,german_fires_nuremberg_locations,21b5bcfe07120e4cf0900fe9e73eed73,german_fires_nuremberg_locations__21b5bcfe07120e4cf0900fe9e73eed73
bierweg,"Bierweg in Nuremberg, Germany",49.4881796,11.1143685,1,,,,,,Legislator,"Bierweg in Nuremberg, Germany",,german_fires_nuremberg_locations,8c65a5a05086cd2e8cc13e72ceddaf16,german_fires_nuremberg_locations__8c65a5a05086cd2e8cc13e72ceddaf16
billrothstrasse,"Billrothstrasse in Nuremberg, Germany",49.4635954,11.1394541,1,,,,,,FTO,"Billrothstrasse in Nuremberg, Germany",,german_fires_nuremberg_locations,01f5658b92f8e4f228506e4a96fead1e,german_fires_nuremberg_locations__01f5658b92f8e4f228506e4a96fead1e
bindergasse,"Bindergasse in Nuremberg, Germany",49.4554185,11.0791974,1,,,,,,Diplomat,"Bindergasse in Nuremberg, Germany",,german_fires_nuremberg_locations,467b875b0ee1f208b062270648ac6175,german_fires_nuremberg_locations__467b875b0ee1f208b062270648ac6175
bingstrasse,"Bingstrasse in Nuremberg, Germany",49.4461667,11.1331786,1,,,,,,Wells,"Bingstrasse in Nuremberg, Germany",,german_fires_nuremberg_locations,8ae061469b50cd7ed2f9c13fe65a955b,german_fires_nuremberg_locations__8ae061469b50cd7ed2f9c13fe65a955b
binzenweg,"Binzenweg in Nuremberg, Germany",49.5185588,11.0482263,1,,,,,,FTO,"Binzenweg in Nuremberg, Germany",,german_fires_nuremberg_locations,2847b38976cc3ec65d26f20df913da86,german_fires_nuremberg_locations__2847b38976cc3ec65d26f20df913da86
birkacher strasse,"Birkacher strasse in Nuremberg, Germany",49.3719966,11.0377809,1,,,,,,FTO,"Birkacher strasse in Nuremberg, Germany",,german_fires_nuremberg_locations,64fdc6e4d7f59d7a9ee8ede177a9cf7b,german_fires_nuremberg_locations__64fdc6e4d7f59d7a9ee8ede177a9cf7b
birkenhof,"Birkenhof in Nuremberg, Germany",49.4397211,11.1099576,1,,,,,,CompanyKeyword,"Birkenhof in Nuremberg, Germany",,german_fires_nuremberg_locations,68af9a71adb8f108143a23b278bdea09,german_fires_nuremberg_locations__68af9a71adb8f108143a23b278bdea09
birkenstrasse,"Birkenstrasse in Nuremberg, Germany",49.4421975,11.0734329,1,,,,,,News,"Birkenstrasse in Nuremberg, Germany",,german_fires_nuremberg_locations,a5cd53a4e9fb54912df9e7f2b2d3a608,german_fires_nuremberg_locations__a5cd53a4e9fb54912df9e7f2b2d3a608
birkhahnweg,"Birkhahnweg in Nuremberg, Germany",49.3774234,11.0703588,1,,,,,,Keyphrase,"Birkhahnweg in Nuremberg, Germany",,german_fires_nuremberg_locations,8e52ee9f69844a847b08d69388628166,german_fires_nuremberg_locations__8e52ee9f69844a847b08d69388628166
birnthon,"Birnthon in Nuremberg, Germany",49.414249,11.2609739,1,,,,,,IndustryTerm,"Birnthon in Nuremberg, Germany",,german_fires_nuremberg_locations,d6ed092bc10c5925aee96d42a12631b7,german_fires_nuremberg_locations__d6ed092bc10c5925aee96d42a12631b7
bismarckstrasse,"Bismarckstrasse in Nuremberg, Germany",49.4652735,11.1090138,1,,,,,,ForeignMinister,"Bismarckstrasse in Nuremberg, Germany",,german_fires_nuremberg_locations,0fab5824120546cda3aee2fc04e5d206,german_fires_nuremberg_locations__0fab5824120546cda3aee2fc04e5d206
bleichstrasse,"Bleichstrasse in Nuremberg, Germany",49.451443,11.0628172,1,,,,,,FTO,"Bleichstrasse in Nuremberg, Germany",,german_fires_nuremberg_locations,a6957f37c1b90369473ea34d5a131285,german_fires_nuremberg_locations__a6957f37c1b90369473ea34d5a131285
bliesstrasse,"Bliesstrasse in Nuremberg, Germany",49.3984643,11.0873753,1,,,,,,Person,"Bliesstrasse in Nuremberg, Germany",,german_fires_nuremberg_locations,a5cb869341ef7ebda46fd725baca0837,german_fires_nuremberg_locations__a5cb869341ef7ebda46fd725baca0837
blucherstrasse,"Blucherstrasse in Nuremberg, Germany",49.4382391,11.0442078,1,,,,,,FTO,"Blucherstrasse in Nuremberg, Germany",,german_fires_nuremberg_locations,c33eb5ce3c1399ad0e5379e43cc402c1,german_fires_nuremberg_locations__c33eb5ce3c1399ad0e5379e43cc402c1
blumenstrasse,"Blumenstrasse in Nuremberg, Germany",49.4501945,11.0858626,1,,,,,,space,"Blumenstrasse in Nuremberg, Germany",,german_fires_nuremberg_locations,f00fef3d3bf7dc2fd50a3f0fa2b37add,german_fires_nuremberg_locations__f00fef3d3bf7dc2fd50a3f0fa2b37add
blumenthalstrasse,"Blumenthalstrasse in Nuremberg, Germany",49.4542719,11.0603625,1,,,,,,Media,"Blumenthalstrasse in Nuremberg, Germany",,german_fires_nuremberg_locations,d001573ea5b14836f353ca6cc0223f73,german_fires_nuremberg_locations__d001573ea5b14836f353ca6cc0223f73
blumroderstrasse,"Blumroderstrasse in Nuremberg, Germany",49.4673193,11.1354081,1,,,,,,CompanyKeyword,"Blumroderstrasse in Nuremberg, Germany",,german_fires_nuremberg_locations,dcfcab5587ee584ce398495451055107,german_fires_nuremberg_locations__dcfcab5587ee584ce398495451055107
blutenstrasse,"Blutenstrasse in Nuremberg, Germany",49.4578574,11.1306104,1,,,,,,Person,"Blutenstrasse in Nuremberg, Germany",,german_fires_nuremberg_locations,ed206e6a3875f4d76284726a85808c16,german_fires_nuremberg_locations__ed206e6a3875f4d76284726a85808c16
bochumer strasse,"Bochumer strasse in Nuremberg, Germany",49.3951981,11.0489121,1,,,,,,Consulates,"Bochumer strasse in Nuremberg, Germany",,german_fires_nuremberg_locations,34ffd0198f89ac8c2f425bba56039ff6,german_fires_nuremberg_locations__34ffd0198f89ac8c2f425bba56039ff6
bodelschwinghstrasse,"Bodelschwinghstrasse in Nuremberg, Germany",49.4094348,11.1655401,1,,,,,,ForeignMinistry,"Bodelschwinghstrasse in Nuremberg, Germany",,german_fires_nuremberg_locations,af596fc5e59b92dfd4ae07b9f3c9327d,german_fires_nuremberg_locations__af596fc5e59b92dfd4ae07b9f3c9327d
boelckestrasse,"Boelckestrasse in Nuremberg, Germany",49.4397211,11.1099576,1,,,,,,Keyphrase,"Boelckestrasse in Nuremberg, Germany",,german_fires_nuremberg_locations,cfbaca780a0f8aeab2a402b2286df8b7,german_fires_nuremberg_locations__cfbaca780a0f8aeab2a402b2286df8b7
bogenstrasse,"Bogenstrasse in Nuremberg, Germany",49.4427734,11.0786623,1,,,,,,Legislator,"Bogenstrasse in Nuremberg, Germany",,german_fires_nuremberg_locations,bdeffad89bfe366bbf901b1fdb9420ea,german_fires_nuremberg_locations__bdeffad89bfe366bbf901b1fdb9420ea
bolscheweg,"Bolscheweg in Nuremberg, Germany",49.4072731,11.0322548,1,,,,,,Pipeline,"Bolscheweg in Nuremberg, Germany",,german_fires_nuremberg_locations,8f2bde6d99e1c727ed8a93bf327977be,german_fires_nuremberg_locations__8f2bde6d99e1c727ed8a93bf327977be
bonerstrasse,"Bonerstrasse in Nuremberg, Germany",49.4391077,11.0777571,1,,,,,,Person,"Bonerstrasse in Nuremberg, Germany",,german_fires_nuremberg_locations,3dd336821856f4c8ce630d0c53933c34,german_fires_nuremberg_locations__3dd336821856f4c8ce630d0c53933c34
bonhoefferstrasse,"Bonhoefferstrasse in Nuremberg, Germany",49.3956874,11.1384591,1,,,,,,CompanyKeyword,"Bonhoefferstrasse in Nuremberg, Germany",,german_fires_nuremberg_locations,137789f4175a3cd340fe106c413f7fe2,german_fires_nuremberg_locations__137789f4175a3cd340fe106c413f7fe2
bonifatiusstrasse,"Bonifatiusstrasse in Nuremberg, Germany",49.3964715,11.1751981,1,,,,,,ForeignMinistry,"Bonifatiusstrasse in Nuremberg, Germany",,german_fires_nuremberg_locations,fb8160e03a84b20e1faf71dd46423229,german_fires_nuremberg_locations__fb8160e03a84b20e1faf71dd46423229
bopfinger strasse,"Bopfinger strasse in Nuremberg, Germany",49.4233508,11.0390458,1,,,,,,Consulates,"Bopfinger strasse in Nuremberg, Germany",,german_fires_nuremberg_locations,1b50605ffb142d82f14b4d4f383b58af,german_fires_nuremberg_locations__1b50605ffb142d82f14b4d4f383b58af
borchertstrasse,"Borchertstrasse in Nuremberg, Germany",49.3532952,11.0956588,1,,,,,,Exec,"Borchertstrasse in Nuremberg, Germany",,german_fires_nuremberg_locations,881fe359225b51b8f8a9588f2108f359,german_fires_nuremberg_locations__881fe359225b51b8f8a9588f2108f359
borkumer strasse,"Borkumer strasse in Nuremberg, Germany",49.4779939,11.0636215,1,,,,,,AAEntity,"Borkumer strasse in Nuremberg, Germany",,german_fires_nuremberg_locations,cc9b218366a5dce4d63eb51868e17ed8,german_fires_nuremberg_locations__cc9b218366a5dce4d63eb51868e17ed8
bornestrasse,"Bornestrasse in Nuremberg, Germany",49.4227529,11.1935109,1,,,,,,LegislativeCommittee,"Bornestrasse in Nuremberg, Germany",,german_fires_nuremberg_locations,93dd4d8c1c1a4f4326e51005c862e66f,german_fires_nuremberg_locations__93dd4d8c1c1a4f4326e51005c862e66f
borsigstrasse,"Borsigstrasse in Nuremberg, Germany",49.4466859,11.1061489,1,,,,,,Pipeline,"Borsigstrasse in Nuremberg, Germany",,german_fires_nuremberg_locations,83357a26981eeb508dceacb5e8d1866b,german_fires_nuremberg_locations__83357a26981eeb508dceacb5e8d1866b
bothmerstrasse,"Bothmerstrasse in Nuremberg, Germany",49.4582102,11.1355294,1,,,,,,Exec,"Bothmerstrasse in Nuremberg, Germany",,german_fires_nuremberg_locations,25f80de44bf8861761f1c86661a24693,german_fires_nuremberg_locations__25f80de44bf8861761f1c86661a24693
bothostrasse,"Bothostrasse in Nuremberg, Germany",49.4309588,11.0922033,1,,,,,,Shipping,"Bothostrasse in Nuremberg, Germany",,german_fires_nuremberg_locations,53a5488b8d7bbc02c9fce4ced7027130,german_fires_nuremberg_locations__53a5488b8d7bbc02c9fce4ced7027130
boxdorfer hauptstrasse,"Boxdorfer Hauptstrasse in Nuremberg, Germany",49.5156045,11.0297684,1,,,,,,Exec,"Boxdorfer Hauptstrasse in Nuremberg, Germany",,german_fires_nuremberg_locations,921049d99a52fa93a02b8b1a3771b334,german_fires_nuremberg_locations__921049d99a52fa93a02b8b1a3771b334
bozener strasse,"Bozener strasse in Nuremberg, Germany",49.4276237,11.0899399,1,,,,,,Organization,"Bozener strasse in Nuremberg, Germany",,german_fires_nuremberg_locations,19e4fc67aa13612a40433598264f7ad2,german_fires_nuremberg_locations__19e4fc67aa13612a40433598264f7ad2
braillestrasse,"Braillestrasse in Nuremberg, Germany",49.4769634,11.0886511,1,,,,,,ForeignMinister,"Braillestrasse in Nuremberg, Germany",,german_fires_nuremberg_locations,d126b417be7bacbbb0f4ad8c913199b8,german_fires_nuremberg_locations__d126b417be7bacbbb0f4ad8c913199b8
brandenburger strasse,"Brandenburger strasse in Nuremberg, Germany",49.4066166,11.0285822,1,,,,,,News,"Brandenburger strasse in Nuremberg, Germany",,german_fires_nuremberg_locations,ea456cea5b23ec2959caabe85e3a7cd6,german_fires_nuremberg_locations__ea456cea5b23ec2959caabe85e3a7cd6
brandstrasse,"Brandstrasse in Nuremberg, Germany",49.4663361,11.1628732,1,,,,,,Person,"Brandstrasse in Nuremberg, Germany",,german_fires_nuremberg_locations,68f8357f3d8d4286ebb1fcb1c46125e0,german_fires_nuremberg_locations__68f8357f3d8d4286ebb1fcb1c46125e0
brauhausstrasse,"Brauhausstrasse in Nuremberg, Germany",49.4656504,11.0857088,1,,,,,,News,"Brauhausstrasse in Nuremberg, Germany",,german_fires_nuremberg_locations,40ed0dcde7167b23eaec73e17541a035,german_fires_nuremberg_locations__40ed0dcde7167b23eaec73e17541a035
brauneckweg,"Brauneckweg in Nuremberg, Germany",49.4075108,11.1214491,1,,,,,,Consulates,"Brauneckweg in Nuremberg, Germany",,german_fires_nuremberg_locations,ed9d157b22061477eabaefa9fdb849c8,german_fires_nuremberg_locations__ed9d157b22061477eabaefa9fdb849c8
