german_text,caption_text,lat,lon,ranking,default location,default_lat,default_lon,.1,.2,.3,.4,ENTITY_LABEL,name,description,source,source_identifier,global_identifier
aachener strasse,"Aachener Strasse in Berlin, Germany",52.4814493,13.3189377,1,"Berlin, Germany",52.52096863,13.4034395,,,,,Consulates,"Aachener Strasse in Berlin, Germany",,german_fires_berlin_locations,b5667a10785573f8d2f3e14dabee931e,german_fires_berlin_locations__b5667a10785573f8d2f3e14dabee931e
aalemannufer,"Aalemannufer in Berlin, Germany",52.5731282,13.2186147,1,,,,,,,ss,Person,"Aalemannufer in Berlin, Germany",,german_fires_berlin_locations,1a136abcb197755694699a2381ea9474,german_fires_berlin_locations__1a136abcb197755694699a2381ea9474
aalesunder strasse,"Aalesunder Strasse in Berlin, Germany",52.5554941,13.4077031,1,,,,,,,u,space,"Aalesunder Strasse in Berlin, Germany",,german_fires_berlin_locations,6a0e9aa32f6f89927b93478ff36ed6f2,german_fires_berlin_locations__6a0e9aa32f6f89927b93478ff36ed6f2
aalstieg,"Aalstieg in Berlin, Germany",52.4353359,13.6908451,1,,,,,,,a,FTO,"Aalstieg in Berlin, Germany",,german_fires_berlin_locations,e1689c1e8eddf67e06e0229b2cdf6c11,german_fires_berlin_locations__e1689c1e8eddf67e06e0229b2cdf6c11
aarauer strasse,"Aarauer Strasse in Berlin, Germany",52.4258362,13.2903645,1,,,,,,,o,Media,"Aarauer Strasse in Berlin, Germany",,german_fires_berlin_locations,68876ffe8b0a240445610e0c768ad8b0,german_fires_berlin_locations__68876ffe8b0a240445610e0c768ad8b0
aarberger strasse,"Aarberger Strasse in Berlin, Germany",52.4254044,13.3008282,1,,,,,,,,AAEntity,"Aarberger Strasse in Berlin, Germany",,german_fires_berlin_locations,3de773051edd3d2316b3edde06d9bbff,german_fires_berlin_locations__3de773051edd3d2316b3edde06d9bbff
aaron-bernstein-platz,"Aaron-Bernstein-Platz in Berlin, Germany",52.5096488,13.3759441,1,,,,,,,,ForeignMinistry,"Aaron-Bernstein-Platz in Berlin, Germany",,german_fires_berlin_locations,dc6ed8716fef255d10a37e7ffe64aa86,german_fires_berlin_locations__dc6ed8716fef255d10a37e7ffe64aa86
abajstrasse,"Abajstrasse in Berlin, Germany",52.5903316,13.3918658,1,,,,,,,,Legislator,"Abajstrasse in Berlin, Germany",,german_fires_berlin_locations,9a6e98cb307527e0f80478feecb6acc5,german_fires_berlin_locations__9a6e98cb307527e0f80478feecb6acc5
abbé-lemire-weg,"Abbé-Lemire-Weg in Berlin, Germany",52.5200066,13.404954,1,,,,,,,,News,"Abbé-Lemire-Weg in Berlin, Germany",,german_fires_berlin_locations,f8ff8196be3805c7d80c57e801ded512,german_fires_berlin_locations__f8ff8196be3805c7d80c57e801ded512
abbestrasse,"Abbestrasse in Berlin, Germany",52.5167095,13.321157,1,,,,,,,,AAEntity,"Abbestrasse in Berlin, Germany",,german_fires_berlin_locations,bba8813066789f1a8c914d111e5a346e,german_fires_berlin_locations__bba8813066789f1a8c914d111e5a346e
abendfrieden,"Abendfrieden in Berlin, Germany",52.9281698,12.7820479,1,,,,,,,,News,"Abendfrieden in Berlin, Germany",,german_fires_berlin_locations,76f36074a86f35fbf9439a755503cd67,german_fires_berlin_locations__76f36074a86f35fbf9439a755503cd67
abendrotweg,"Abendrotweg in Berlin, Germany",52.3924538,13.39032,1,,,,,,,,AAEntity,"Abendrotweg in Berlin, Germany",,german_fires_berlin_locations,d6ba3f44244bf85607c6a2d2032da047,german_fires_berlin_locations__d6ba3f44244bf85607c6a2d2032da047
abendseglersteig,"Abendseglersteig in Berlin, Germany",52.5200066,13.404954,1,,,,,,,,AAEntity,"Abendseglersteig in Berlin, Germany",,german_fires_berlin_locations,2658bdbe9ee3dad6c12eb3f47b532cb2,german_fires_berlin_locations__2658bdbe9ee3dad6c12eb3f47b532cb2
abram-joffe-strasse,"Abram-Joffe-Strasse in Berlin, Germany",52.4331505,13.5290213,1,,,,,,,,CompanyKeyword,"Abram-Joffe-Strasse in Berlin, Germany",,german_fires_berlin_locations,42cd175fb495be2785d2647cc6f0e003,german_fires_berlin_locations__42cd175fb495be2785d2647cc6f0e003
abramowitschallee,"Abramowitschallee in Berlin, Germany",52.5096488,13.3759441,1,,,,,,,,ForeignMinistry,"Abramowitschallee in Berlin, Germany",,german_fires_berlin_locations,e9224e21ed8757a24c1dae6d2d5da4ae,german_fires_berlin_locations__e9224e21ed8757a24c1dae6d2d5da4ae
abteibrucke,"Abteibrucke in Berlin, Germany",52.486361,13.4806779,1,,,,,,,,Refinery,"Abteibrucke in Berlin, Germany",,german_fires_berlin_locations,1f3d5e42fc1eaa229aa9a92ddf27f5cd,german_fires_berlin_locations__1f3d5e42fc1eaa229aa9a92ddf27f5cd
abtstrasse,"Abtstrasse in Berlin, Germany",52.4350348,13.5425835,1,,,,,,,,Person,"Abtstrasse in Berlin, Germany",,german_fires_berlin_locations,f77a12789a5e3b4506305fdae01eccef,german_fires_berlin_locations__f77a12789a5e3b4506305fdae01eccef
abtweilerstrasse,"Abtweilerstrasse in Berlin, Germany",52.4131229,13.6758848,1,,,,,,,,Organization,"Abtweilerstrasse in Berlin, Germany",,german_fires_berlin_locations,4c0240622bc2ee2cf46271d213d6a1f4,german_fires_berlin_locations__4c0240622bc2ee2cf46271d213d6a1f4
achardstrasse,"Achardstrasse in Berlin, Germany",52.4993975,13.5827589,1,,,,,,,,LegislativeCommittee,"Achardstrasse in Berlin, Germany",,german_fires_berlin_locations,c3543551708a56dbfa9819f2cc7a5468,german_fires_berlin_locations__c3543551708a56dbfa9819f2cc7a5468
achenbachstrasse,"Achenbachstrasse in Berlin, Germany",52.5418269,13.2029079,1,,,,,,,,IndustryTerm,"Achenbachstrasse in Berlin, Germany",,german_fires_berlin_locations,0781b3c883fd2ece357a2659a01b5ea5,german_fires_berlin_locations__0781b3c883fd2ece357a2659a01b5ea5
achenseeweg,"Achenseeweg in Berlin, Germany",52.4129806,13.3341069,1,,,,,,,,Media,"Achenseeweg in Berlin, Germany",,german_fires_berlin_locations,673193eff0a7883d8e498777dd49695c,german_fires_berlin_locations__673193eff0a7883d8e498777dd49695c
achillesstrasse,"Achillesstrasse in Berlin, Germany",52.6175948,13.488975,1,,,,,,,,Consulates,"Achillesstrasse in Berlin, Germany",,german_fires_berlin_locations,f48d39e313bd67bfe7f469d2edb80f3a,german_fires_berlin_locations__f48d39e313bd67bfe7f469d2edb80f3a
achtermannstrasse,"Achtermannstrasse in Berlin, Germany",52.5774418,13.4219117,1,,,,,,,,LegislativeCommittee,"Achtermannstrasse in Berlin, Germany",,german_fires_berlin_locations,4c301bcc91685f0dde931cfb51bb9021,german_fires_berlin_locations__4c301bcc91685f0dde931cfb51bb9021
achtrutenberg,"Achtrutenberg in Berlin, Germany",52.6203226,13.4815155,1,,,,,,,,space,"Achtrutenberg in Berlin, Germany",,german_fires_berlin_locations,b5cea5b5e4ce4f4498ed39e73ee8df50,german_fires_berlin_locations__b5cea5b5e4ce4f4498ed39e73ee8df50
ackerplanweg,"Ackerplanweg in Berlin, Germany",52.5968211,13.2999959,1,,,,,,,,Wells,"Ackerplanweg in Berlin, Germany",,german_fires_berlin_locations,f602aba2f1aa44774801485d249ab55c,german_fires_berlin_locations__f602aba2f1aa44774801485d249ab55c
ackerstrasse,"Ackerstrasse in Berlin, Germany",52.5354643,13.3901136,1,,,,,,,,ForeignMinistry,"Ackerstrasse in Berlin, Germany",,german_fires_berlin_locations,987d1debcaf91fce063906a97575964d,german_fires_berlin_locations__987d1debcaf91fce063906a97575964d
adalbertstrasse,"Adalbertstrasse in Berlin, Germany",52.5040693,13.4212471,1,,,,,,,,CompanyKeyword,"Adalbertstrasse in Berlin, Germany",,german_fires_berlin_locations,7f49f971a4b277ba7d62bd4fa8b772ec,german_fires_berlin_locations__7f49f971a4b277ba7d62bd4fa8b772ec
adam-kuckhoff-platz,"Adam-Kuckhoff-Platz in Berlin, Germany",52.4725707,13.3205448,1,,,,,,,,Pipeline,"Adam-Kuckhoff-Platz in Berlin, Germany",,german_fires_berlin_locations,4d9e5e7b58d52a0694bd91bf9a9b6e16,german_fires_berlin_locations__4d9e5e7b58d52a0694bd91bf9a9b6e16
adam-von-trott-strasse,"Adam-von-Trott-Strasse in Berlin, Germany",52.5456531,13.3089277,1,,,,,,,,Keyphrase,"Adam-von-Trott-Strasse in Berlin, Germany",,german_fires_berlin_locations,cb359e8fc0329e086dcb5c915dad085c,german_fires_berlin_locations__cb359e8fc0329e086dcb5c915dad085c
adamstrasse,"Adamstrasse in Berlin, Germany",52.5210192,13.1932895,1,,,,,,,,Keyphrase,"Adamstrasse in Berlin, Germany",,german_fires_berlin_locations,05eceb0958e0d9e0e59d92e8cc57584d,german_fires_berlin_locations__05eceb0958e0d9e0e59d92e8cc57584d
adele-sandrock-strasse,"Adele-Sandrock-Strasse in Berlin, Germany",52.5342817,13.6192866,1,,,,,,,,AAEntity,"Adele-Sandrock-Strasse in Berlin, Germany",,german_fires_berlin_locations,fe26017a20bdd38c230cc5da60c60d1b,german_fires_berlin_locations__fe26017a20bdd38c230cc5da60c60d1b
adele-schreiber-krieger-strasse,"Adele-Schreiber-Krieger-Strasse in Berlin, Germany",52.5209161,13.3778891,1,,,,,,,,IndustryTerm,"Adele-Schreiber-Krieger-Strasse in Berlin, Germany",,german_fires_berlin_locations,fac89af06e373b750dc7e7bd8fe4a53d,german_fires_berlin_locations__fac89af06e373b750dc7e7bd8fe4a53d
adelheid-poninska-strasse,"Adelheid-Poninska-Strasse in Berlin, Germany",52.5273406,13.1419893,1,,,,,,,,Diplomat,"Adelheid-Poninska-Strasse in Berlin, Germany",,german_fires_berlin_locations,3ef705176460b6ea91ec720182b6f353,german_fires_berlin_locations__3ef705176460b6ea91ec720182b6f353
adelheidallee,"Adelheidallee in Berlin, Germany",52.5934234,13.2761185,1,,,,,,,,Exec,"Adelheidallee in Berlin, Germany",,german_fires_berlin_locations,27247591e16a05c2e78021d5ff2604f8,german_fires_berlin_locations__27247591e16a05c2e78021d5ff2604f8
adenauerplatz,"Adenauerplatz in Berlin, Germany",52.5007126,13.3073082,1,,,,,,,,ForeignMinister,"Adenauerplatz in Berlin, Germany",,german_fires_berlin_locations,ba95718d694c9bb2d41c9820fa65aeec,german_fires_berlin_locations__ba95718d694c9bb2d41c9820fa65aeec
adersleber weg,"Adersleber Weg in Berlin, Germany",52.5361397,13.5598086,1,,,,,,,,Wells,"Adersleber Weg in Berlin, Germany",,german_fires_berlin_locations,635a542094699c8305a311dd5b32f646,german_fires_berlin_locations__635a542094699c8305a311dd5b32f646
adickesstrasse,"Adickesstrasse in Berlin, Germany",52.5485973,13.2304206,1,,,,,,,,Refinery,"Adickesstrasse in Berlin, Germany",,german_fires_berlin_locations,0bdbc80acfbc997634583f65f9829441,german_fires_berlin_locations__0bdbc80acfbc997634583f65f9829441
adlergestell,"Adlergestell in Berlin, Germany",52.4093497,13.5801626,1,,,,,,,,Diplomat,"Adlergestell in Berlin, Germany",,german_fires_berlin_locations,ecf8f733871dfe38804d9e872e4e38ee,german_fires_berlin_locations__ecf8f733871dfe38804d9e872e4e38ee
adlerhorst,"Adlerhorst in Berlin, Germany",52.3849032,13.6407992,1,,,,,,,,Keyphrase,"Adlerhorst in Berlin, Germany",,german_fires_berlin_locations,7fe0982106190fe6ecde5b13cbdfe17e,german_fires_berlin_locations__7fe0982106190fe6ecde5b13cbdfe17e
adlerplatz,"Adlerplatz in Berlin, Germany",52.5201225,13.2426607,1,,,,,,,,Pipeline,"Adlerplatz in Berlin, Germany",,german_fires_berlin_locations,d6ac70165bdcee989b44576c39472ef9,german_fires_berlin_locations__d6ac70165bdcee989b44576c39472ef9
adlershofer brucke,"Adlershofer Brucke in Berlin, Germany",52.4260417,13.5552367,1,,,,,,,,Consulates,"Adlershofer Brucke in Berlin, Germany",,german_fires_berlin_locations,a3cfbc549b61207885828d3a7ac371a9,german_fires_berlin_locations__a3cfbc549b61207885828d3a7ac371a9
adlershofer strasse,"Adlershofer Strasse in Berlin, Germany",52.4422773,13.5670452,1,,,,,,,,FTO,"Adlershofer Strasse in Berlin, Germany",,german_fires_berlin_locations,95f071ed95f7d439265249b419ddf45f,german_fires_berlin_locations__95f071ed95f7d439265249b419ddf45f
adlerstrasse,"Adlerstrasse in Berlin, Germany",52.398618,13.577398,1,,,,,,,,space,"Adlerstrasse in Berlin, Germany",,german_fires_berlin_locations,cf76927017a37ed8744198a59cbd9258,german_fires_berlin_locations__cf76927017a37ed8744198a59cbd9258
adlerweg,"Adlerweg in Berlin, Germany",52.5528189,13.2632635,1,,,,,,,,Organization,"Adlerweg in Berlin, Germany",,german_fires_berlin_locations,d820c7f4d4c577293a2c2baaefbe0f71,german_fires_berlin_locations__d820c7f4d4c577293a2c2baaefbe0f71
admiralbrucke,"Admiralbrucke in Berlin, Germany",52.4952683,13.4151036,1,,,,,,,,FTO,"Admiralbrucke in Berlin, Germany",,german_fires_berlin_locations,9494a263e44977d6b4e5ba3c7f3353c7,german_fires_berlin_locations__9494a263e44977d6b4e5ba3c7f3353c7
admiralstrasse,"Admiralstrasse in Berlin, Germany",52.4968491,13.4161464,1,,,,,,,,Refinery,"Admiralstrasse in Berlin, Germany",,german_fires_berlin_locations,74588f7b783273dfb636666326de93d2,german_fires_berlin_locations__74588f7b783273dfb636666326de93d2
adolf-heyden-strasse,"Adolf-Heyden-Strasse in Berlin, Germany",52.4505211,13.5640194,1,,,,,,,,Exec,"Adolf-Heyden-Strasse in Berlin, Germany",,german_fires_berlin_locations,b032ba6d9b0a3dd2605626461f9dd071,german_fires_berlin_locations__b032ba6d9b0a3dd2605626461f9dd071
adolf-kiepert-steg,"Adolf-Kiepert-Steg in Berlin, Germany",52.3995245,13.3748425,1,,,,,,,,Shipping,"Adolf-Kiepert-Steg in Berlin, Germany",,german_fires_berlin_locations,8b60e6613d3e0acbc00aea13a5e32dfb,german_fires_berlin_locations__8b60e6613d3e0acbc00aea13a5e32dfb
adolf-martens-strasse,"Adolf-Martens-Strasse in Berlin, Germany",52.4432506,13.291368,1,,,,,,,,IndustryTerm,"Adolf-Martens-Strasse in Berlin, Germany",,german_fires_berlin_locations,8843e36eaa36738ed085db270c7a8e44,german_fires_berlin_locations__8843e36eaa36738ed085db270c7a8e44
adolf-menzel-strasse,"Adolf-Menzel-Strasse in Berlin, Germany",52.4946638,13.5753958,1,,,,,,,,Exec,"Adolf-Menzel-Strasse in Berlin, Germany",,german_fires_berlin_locations,b6fb79c29f65750aeabef1506fdf20cc,german_fires_berlin_locations__b6fb79c29f65750aeabef1506fdf20cc
adolf-scheidt-platz,"Adolf-Scheidt-Platz in Berlin, Germany",52.4781371,13.3790742,1,,,,,,,,Organization,"Adolf-Scheidt-Platz in Berlin, Germany",,german_fires_berlin_locations,79c95f255c8781f543a6ec5c52846143,german_fires_berlin_locations__79c95f255c8781f543a6ec5c52846143
adolf-wermuth-allee,"Adolf-Wermuth-Allee in Berlin, Germany",52.5200066,13.404954,1,,,,,,,,Legislator,"Adolf-Wermuth-Allee in Berlin, Germany",,german_fires_berlin_locations,53e4e852bf4c7d3161bd50285edb2eab,german_fires_berlin_locations__53e4e852bf4c7d3161bd50285edb2eab
adolfstrasse,"Adolfstrasse in Berlin, Germany",52.5465642,13.3669061,1,,,,,,,,Refinery,"Adolfstrasse in Berlin, Germany",,german_fires_berlin_locations,fc977a8f3787338b274ab818784e6be2,german_fires_berlin_locations__fc977a8f3787338b274ab818784e6be2
adorfer strasse,"Adorfer Strasse in Berlin, Germany",52.5322209,13.6073643,1,,,,,,,,Diplomat,"Adorfer Strasse in Berlin, Germany",,german_fires_berlin_locations,1854756ef30d9efd0e43999869694d5a,german_fires_berlin_locations__1854756ef30d9efd0e43999869694d5a
advokatensteig,"Advokatensteig in Berlin, Germany",52.4082982,13.574522,1,,,,,,,,Media,"Advokatensteig in Berlin, Germany",,german_fires_berlin_locations,50a3169770893eeee34d4c943c6cd2d2,german_fires_berlin_locations__50a3169770893eeee34d4c943c6cd2d2
aeg-siedlung heimat,"AEG-Siedlung Heimat in Berlin, Germany",52.6116192,13.3433996,1,,,,,,,,Shipping,"AEG-Siedlung Heimat in Berlin, Germany",,german_fires_berlin_locations,f150fee2b4e5c2fa3e20c7e346123803,german_fires_berlin_locations__f150fee2b4e5c2fa3e20c7e346123803
aeg-strasse,"AEG-Strasse in Berlin, Germany",52.6116192,13.3433996,1,,,,,,,,IndustryTerm,"AEG-Strasse in Berlin, Germany",,german_fires_berlin_locations,10fb45350d70bbbcb3e9e32f22819322,german_fires_berlin_locations__10fb45350d70bbbcb3e9e32f22819322
aegirstrasse,"Aegirstrasse in Berlin, Germany",52.5617696,13.3738992,1,,,,,,,,Consulates,"Aegirstrasse in Berlin, Germany",,german_fires_berlin_locations,7a74b3666c34981403fa557ccf3777f9,german_fires_berlin_locations__7a74b3666c34981403fa557ccf3777f9
affensteinweg,"Affensteinweg in Berlin, Germany",52.5960836,13.3940051,1,,,,,,,,CompanyKeyword,"Affensteinweg in Berlin, Germany",,german_fires_berlin_locations,38e41bda1a6f943fdfed1d965fa6e786,german_fires_berlin_locations__38e41bda1a6f943fdfed1d965fa6e786
afrikanische strasse,"Afrikanische Strasse in Berlin, Germany",52.553207,13.3364788,1,,,,,,,,Legislator,"Afrikanische Strasse in Berlin, Germany",,german_fires_berlin_locations,68bb85db7b2c20f27b1915786fe31847,german_fires_berlin_locations__68bb85db7b2c20f27b1915786fe31847
agathe-lasch-platz,"Agathe-Lasch-Platz in Berlin, Germany",52.4979581,13.2970035,1,,,,,,,,AAEntity,"Agathe-Lasch-Platz in Berlin, Germany",,german_fires_berlin_locations,1e793c8f110dbe33072d6603191c1027,german_fires_berlin_locations__1e793c8f110dbe33072d6603191c1027
agathenweg,"Agathenweg in Berlin, Germany",52.5998092,13.2951775,1,,,,,,,,CompanyKeyword,"Agathenweg in Berlin, Germany",,german_fires_berlin_locations,27a37128c2db33098bb54ed61040de9f,german_fires_berlin_locations__27a37128c2db33098bb54ed61040de9f
agavensteig,"Agavensteig in Berlin, Germany",52.4473443,13.4818522,1,,,,,,,,Exec,"Agavensteig in Berlin, Germany",,german_fires_berlin_locations,b05dcce252421fefc8afefadb0e7be0c,german_fires_berlin_locations__b05dcce252421fefc8afefadb0e7be0c
agnes-hacker-strasse,"Agnes-Hacker-Strasse in Berlin, Germany",52.4071484,13.5407209,1,,,,,,,,Legislator,"Agnes-Hacker-Strasse in Berlin, Germany",,german_fires_berlin_locations,f1de6b0858999aae4076af172917c8a4,german_fires_berlin_locations__f1de6b0858999aae4076af172917c8a4
agnes-straub-weg,"Agnes-Straub-Weg in Berlin, Germany",52.4248282,13.4822904,1,,,,,,,,Shipping,"Agnes-Straub-Weg in Berlin, Germany",,german_fires_berlin_locations,9c83df720282c6445695f18d44108de3,german_fires_berlin_locations__9c83df720282c6445695f18d44108de3
agnes-wabnitz-strasse,"Agnes-Wabnitz-Strasse in Berlin, Germany",52.5255301,13.4557581,1,,,,,,,,Person,"Agnes-Wabnitz-Strasse in Berlin, Germany",,german_fires_berlin_locations,fc0c4358af68736b10d0355f2771f459,german_fires_berlin_locations__fc0c4358af68736b10d0355f2771f459
agnes-zahn-harnack-strasse,"Agnes-Zahn-Harnack-Strasse in Berlin, Germany",52.5242503,13.3672384,1,,,,,,,,Pipeline,"Agnes-Zahn-Harnack-Strasse in Berlin, Germany",,german_fires_berlin_locations,7d726ef8bc3e802a0a1f18df4e3e96dc,german_fires_berlin_locations__7d726ef8bc3e802a0a1f18df4e3e96dc
agnethaweg,"Agnethaweg in Berlin, Germany",52.5412548,13.506092,1,,,,,,,,News,"Agnethaweg in Berlin, Germany",,german_fires_berlin_locations,f2ca4cee838ca11af841aa1aec4e0f48,german_fires_berlin_locations__f2ca4cee838ca11af841aa1aec4e0f48
agricolastrasse,"Agricolastrasse in Berlin, Germany",52.520494,13.3328214,1,,,,,,,,Organization,"Agricolastrasse in Berlin, Germany",,german_fires_berlin_locations,db38effa45175ba9d9cdef0beb3ad1c1,german_fires_berlin_locations__db38effa45175ba9d9cdef0beb3ad1c1
ahlbecker strasse,"Ahlbecker Strasse in Berlin, Germany",52.5445331,13.4249643,1,,,,,,,,AAEntity,"Ahlbecker Strasse in Berlin, Germany",,german_fires_berlin_locations,70f17948222eeb55eb1bc00a72c3b827,german_fires_berlin_locations__70f17948222eeb55eb1bc00a72c3b827
ahlbeerensteig,"Ahlbeerensteig in Berlin, Germany",52.5387939,13.1407353,1,,,,,,,,Keyphrase,"Ahlbeerensteig in Berlin, Germany",,german_fires_berlin_locations,fa001d5db6099bd9456a600f84fbe116,german_fires_berlin_locations__fa001d5db6099bd9456a600f84fbe116
ahlener weg,"Ahlener Weg in Berlin, Germany",52.4093041,13.3045506,1,,,,,,,,Consulates,"Ahlener Weg in Berlin, Germany",,german_fires_berlin_locations,420e7884665ae2fd6104b47cd0dceef9,german_fires_berlin_locations__420e7884665ae2fd6104b47cd0dceef9
ahornallee,"Ahornallee in Berlin, Germany",52.514308,13.2760835,1,,,,,,,,AAEntity,"Ahornallee in Berlin, Germany",,german_fires_berlin_locations,17f3cd6068b3178f87776505b059c4e6,german_fires_berlin_locations__17f3cd6068b3178f87776505b059c4e6
ahornsteig,"Ahornsteig in Berlin, Germany",52.5126358,13.3705725,1,,,,,,,,DiplomaticFacilities,"Ahornsteig in Berlin, Germany",,german_fires_berlin_locations,b3196535bdafca0ed981511b003df1a6,german_fires_berlin_locations__b3196535bdafca0ed981511b003df1a6
ahornstrasse,"Ahornstrasse in Berlin, Germany",52.4611556,13.3213371,1,,,,,,,,ForeignMinistry,"Ahornstrasse in Berlin, Germany",,german_fires_berlin_locations,149d5bd0c94e32261fc036b4f156f6f2,german_fires_berlin_locations__149d5bd0c94e32261fc036b4f156f6f2
ahornweg,"Ahornweg in Berlin, Germany",52.5776303,13.5323855,1,,,,,,,,LegislativeCommittee,"Ahornweg in Berlin, Germany",,german_fires_berlin_locations,2af492d6c1c30eb5c8e343f8fceaf0cd,german_fires_berlin_locations__2af492d6c1c30eb5c8e343f8fceaf0cd
ahrensdorfer strasse,"Ahrensdorfer Strasse in Berlin, Germany",52.4087453,13.3572316,1,,,,,,,,CompanyKeyword,"Ahrensdorfer Strasse in Berlin, Germany",,german_fires_berlin_locations,8867e2a73ca230f62f466f0ec02c0216,german_fires_berlin_locations__8867e2a73ca230f62f466f0ec02c0216
ahrensfelder chaussee,"Ahrensfelder Chaussee in Berlin, Germany",52.570373,13.5563498,1,,,,,,,,AAEntity,"Ahrensfelder Chaussee in Berlin, Germany",,german_fires_berlin_locations,0b1f430da62a28367bbc571b7f28ee9e,german_fires_berlin_locations__0b1f430da62a28367bbc571b7f28ee9e
ahrensfelder platz,"Ahrensfelder Platz in Berlin, Germany",52.5702079,13.5659175,1,,,,,,,,Pipeline,"Ahrensfelder Platz in Berlin, Germany",,german_fires_berlin_locations,10d2efa57932712e47dfed9fa717d92a,german_fires_berlin_locations__10d2efa57932712e47dfed9fa717d92a
ahrenshooper strasse,"Ahrenshooper Strasse in Berlin, Germany",52.5683246,13.5024691,1,,,,,,,,Media,"Ahrenshooper Strasse in Berlin, Germany",,german_fires_berlin_locations,4eec093250cca899f2d51ae19c14f76b,german_fires_berlin_locations__4eec093250cca899f2d51ae19c14f76b
ahrenshooper zeile,"Ahrenshooper Zeile in Berlin, Germany",52.4365505,13.2228409,1,,,,,,,,FTO,"Ahrenshooper Zeile in Berlin, Germany",,german_fires_berlin_locations,3ccd4802acb87e81cde201fefd708fad,german_fires_berlin_locations__3ccd4802acb87e81cde201fefd708fad
ahrenweg,"ahrenweg in Berlin, Germany",52.5151545,13.5618865,1,,,,,,,,Diplomat,"ahrenweg in Berlin, Germany",,german_fires_berlin_locations,037bb12ef524b64dd059f5d7dd9a4718,german_fires_berlin_locations__037bb12ef524b64dd059f5d7dd9a4718
ahrweilerstrasse,"Ahrweilerstrasse in Berlin, Germany",52.4717553,13.3169608,1,,,,,,,,AAEntity,"Ahrweilerstrasse in Berlin, Germany",,german_fires_berlin_locations,3c1c786c946b5664c0c2f57e0e1ba735,german_fires_berlin_locations__3c1c786c946b5664c0c2f57e0e1ba735
aiblinger weg,"Aiblinger Weg in Berlin, Germany",52.4573446,13.1350368,1,,,,,,,,ForeignMinistry,"Aiblinger Weg in Berlin, Germany",,german_fires_berlin_locations,0cb2ab9ac208f7e6de7fba5c450b4d05,german_fires_berlin_locations__0cb2ab9ac208f7e6de7fba5c450b4d05
aidastrasse,"Aidastrasse in Berlin, Germany",52.5665626,13.436383,1,,,,,,,,LegislativeCommittee,"Aidastrasse in Berlin, Germany",,german_fires_berlin_locations,225767f7f0926d585dd8f408688fbcb8,german_fires_berlin_locations__225767f7f0926d585dd8f408688fbcb8
akademieplatz,"Akademieplatz in Berlin, Germany",52.5162746,13.3777041,1,,,,,,,,Person,"Akademieplatz in Berlin, Germany",,german_fires_berlin_locations,7dbd7ada268bb05916bd07692673dc86,german_fires_berlin_locations__7dbd7ada268bb05916bd07692673dc86
akazienallee,"Akazienallee in Berlin, Germany",52.5192249,13.2693158,1,,,,,,,,Diplomat,"Akazienallee in Berlin, Germany",,german_fires_berlin_locations,238c149e8fbf9fbe1322a0848a2994f6,german_fires_berlin_locations__238c149e8fbf9fbe1322a0848a2994f6
akazienhof,"Akazienhof in Berlin, Germany",52.4116129,13.5684715,1,,,,,,,,ForeignMinister,"Akazienhof in Berlin, Germany",,german_fires_berlin_locations,d4538f2ba6d593191f43c15b7599d877,german_fires_berlin_locations__d4538f2ba6d593191f43c15b7599d877
akazienstrasse,"Akazienstrasse in Berlin, Germany",52.4880854,13.3541995,1,,,,,,,,LegislativeCommittee,"Akazienstrasse in Berlin, Germany",,german_fires_berlin_locations,80c50cfb0802b3886879f3f5051e2e39,german_fires_berlin_locations__80c50cfb0802b3886879f3f5051e2e39
akazienweg,"Akazienweg in Berlin, Germany",52.5694672,13.2067046,1,,,,,,,,ForeignMinistry,"Akazienweg in Berlin, Germany",,german_fires_berlin_locations,c67245ab9bee6a13c7ac554c0baa9f92,german_fires_berlin_locations__c67245ab9bee6a13c7ac554c0baa9f92
akeleiweg,"Akeleiweg in Berlin, Germany",52.4333387,13.5077768,1,,,,,,,,LegislativeCommittee,"Akeleiweg in Berlin, Germany",,german_fires_berlin_locations,a2f95c61dfd8326f493469a2a7be3652,german_fires_berlin_locations__a2f95c61dfd8326f493469a2a7be3652
akkordeonweg,"Akkordeonweg in Berlin, Germany",52.5916996,13.4264352,1,,,,,,,,Organization,"Akkordeonweg in Berlin, Germany",,german_fires_berlin_locations,74517f256dbf3a4a604e671017d1a289,german_fires_berlin_locations__74517f256dbf3a4a604e671017d1a289
aladinweg,"Aladinweg in Berlin, Germany",52.5219814,13.413306,1,,,,,,,,Organization,"Aladinweg in Berlin, Germany",,german_fires_berlin_locations,db289f5326e7a48b5593fcc4145a19fc,german_fires_berlin_locations__db289f5326e7a48b5593fcc4145a19fc
alarichplatz,"Alarichplatz in Berlin, Germany",52.4535548,13.3762241,1,,,,,,,,space,"Alarichplatz in Berlin, Germany",,german_fires_berlin_locations,b437429e90476f74ca761a106d20fcaf,german_fires_berlin_locations__b437429e90476f74ca761a106d20fcaf
alarichstrasse,"Alarichstrasse in Berlin, Germany",52.4542636,13.3766331,1,,,,,,,,space,"Alarichstrasse in Berlin, Germany",,german_fires_berlin_locations,73c3d130e8f7d47b9a0f8afa121edca5,german_fires_berlin_locations__73c3d130e8f7d47b9a0f8afa121edca5
albanstrasse,"Albanstrasse in Berlin, Germany",52.415463,13.3786526,1,,,,,,,,News,"Albanstrasse in Berlin, Germany",,german_fires_berlin_locations,ce092e6adce08ba8780b360172f7f3cf,german_fires_berlin_locations__ce092e6adce08ba8780b360172f7f3cf
alberichstrasse,"Alberichstrasse in Berlin, Germany",52.4850635,13.5580198,1,,,,,,,,News,"Alberichstrasse in Berlin, Germany",,german_fires_berlin_locations,7578783a94e442f4f4c145496d51e620,german_fires_berlin_locations__7578783a94e442f4f4c145496d51e620
albersweilerweg,"Albersweilerweg in Berlin, Germany",52.4226124,13.4226822,1,,,,,,,,FTO,"Albersweilerweg in Berlin, Germany",,german_fires_berlin_locations,0275dd40f8ba2d26158f5b0aad888c09,german_fires_berlin_locations__0275dd40f8ba2d26158f5b0aad888c09
albert-einstein-strasse,"Albert-Einstein-Strasse in Berlin, Germany",52.4293813,13.5336419,1,,,,,,,,Media,"Albert-Einstein-Strasse in Berlin, Germany",,german_fires_berlin_locations,6b10509941cb425bff689dd8959b7f46,german_fires_berlin_locations__6b10509941cb425bff689dd8959b7f46
albert-hossler-strasse,"Albert-Hossler-Strasse in Berlin, Germany",52.5097444,13.4877271,1,,,,,,,,Shipping,"Albert-Hossler-Strasse in Berlin, Germany",,german_fires_berlin_locations,7b043d7b27a204c5f727945fc9a5f7c5,german_fires_berlin_locations__7b043d7b27a204c5f727945fc9a5f7c5
albert-kuntz-strasse,"Albert-Kuntz-Strasse in Berlin, Germany",52.5370641,13.6174504,1,,,,,,,,space,"Albert-Kuntz-Strasse in Berlin, Germany",,german_fires_berlin_locations,cc7e7551b858c13e3ef0e5fb677532dd,german_fires_berlin_locations__cc7e7551b858c13e3ef0e5fb677532dd
albert-schweitzer-platz,"Albert-Schweitzer-Platz in Berlin, Germany",52.4851362,13.4263969,1,,,,,,,,Organization,"Albert-Schweitzer-Platz in Berlin, Germany",,german_fires_berlin_locations,1a6ca5729bde122649b2ca96ee4a369e,german_fires_berlin_locations__1a6ca5729bde122649b2ca96ee4a369e
albert-schweitzer-strasse,"Albert-Schweitzer-Strasse in Berlin, Germany",52.4540538,13.6226259,1,,,,,,,,Refinery,"Albert-Schweitzer-Strasse in Berlin, Germany",,german_fires_berlin_locations,edafb10ffd65d54c20042d1d2a8ac2a9,german_fires_berlin_locations__edafb10ffd65d54c20042d1d2a8ac2a9
albertinenstrasse,"Albertinenstrasse in Berlin, Germany",52.5519854,13.4595215,1,,,,,,,,Pipeline,"Albertinenstrasse in Berlin, Germany",,german_fires_berlin_locations,06f779cf6f531ada5758b7176568db9f,german_fires_berlin_locations__06f779cf6f531ada5758b7176568db9f
albertstrasse,"Albertstrasse in Berlin, Germany",52.4836025,13.3540406,1,,,,,,,,Media,"Albertstrasse in Berlin, Germany",,german_fires_berlin_locations,0345b6288f1e8e2691dd4ae7402bbf01,german_fires_berlin_locations__0345b6288f1e8e2691dd4ae7402bbf01
albestrasse,"Albestrasse in Berlin, Germany",52.4734639,13.3327053,1,,,,,,,,DiplomaticFacilities,"Albestrasse in Berlin, Germany",,german_fires_berlin_locations,f31b4947379d4e66692b123b77dcc824,german_fires_berlin_locations__f31b4947379d4e66692b123b77dcc824
albiger weg,"Albiger Weg in Berlin, Germany",52.4283784,13.2056576,1,,,,,,,,Consulates,"Albiger Weg in Berlin, Germany",,german_fires_berlin_locations,9452da605b3f6a4b2dbd9c49eefe684d,german_fires_berlin_locations__9452da605b3f6a4b2dbd9c49eefe684d
albineaplatz,"Albineaplatz in Berlin, Germany",52.4449721,13.5045203,1,,,,,,,,Refinery,"Albineaplatz in Berlin, Germany",,german_fires_berlin_locations,7d1ecb29157018c3652f2e9d79eaa12d,german_fires_berlin_locations__7d1ecb29157018c3652f2e9d79eaa12d
alboinplatz,"Alboinplatz in Berlin, Germany",52.4593743,13.3708584,1,,,,,,,,DiplomaticFacilities,"Alboinplatz in Berlin, Germany",,german_fires_berlin_locations,5cf1524199f37baae793dbb4f3bb977b,german_fires_berlin_locations__5cf1524199f37baae793dbb4f3bb977b
alboinstrasse,"Alboinstrasse in Berlin, Germany",52.462967,13.3699612,1,,,,,,,,AAEntity,"Alboinstrasse in Berlin, Germany",,german_fires_berlin_locations,ef328fdbe38938d1625caa39380b74d5,german_fires_berlin_locations__ef328fdbe38938d1625caa39380b74d5
albrecht-achilles-strasse,"Albrecht-Achilles-Strasse in Berlin, Germany",52.4966156,13.3034698,1,,,,,,,,Wells,"Albrecht-Achilles-Strasse in Berlin, Germany",,german_fires_berlin_locations,a59d01ea0ddd398ebdb45ed2e2193a6a,german_fires_berlin_locations__a59d01ea0ddd398ebdb45ed2e2193a6a
albrecht-berblinger-strasse,"Albrecht-Berblinger-Strasse in Berlin, Germany",52.4745935,13.1313563,1,,,,,,,,space,"Albrecht-Berblinger-Strasse in Berlin, Germany",,german_fires_berlin_locations,66f0210d4cf5d701a7199459c0af30d6,german_fires_berlin_locations__66f0210d4cf5d701a7199459c0af30d6
albrecht-durer-strasse,"Albrecht-Durer-Strasse in Berlin, Germany",52.5208273,13.6278912,1,,,,,,,,Consulates,"Albrecht-Durer-Strasse in Berlin, Germany",,german_fires_berlin_locations,64b3e5e80324ea5c5a9f1f217f63488f,german_fires_berlin_locations__64b3e5e80324ea5c5a9f1f217f63488f
albrecht-thaer-weg,"Albrecht-Thaer-Weg in Berlin, Germany",52.466793,13.299571,1,,,,,,,,Exec,"Albrecht-Thaer-Weg in Berlin, Germany",,german_fires_berlin_locations,57d47c268abfc9ed85db074c39886caf,german_fires_berlin_locations__57d47c268abfc9ed85db074c39886caf
albrechts teerofen,"Albrechts Teerofen in Berlin, Germany",52.3959695,13.1656309,1,,,,,,,,AAEntity,"Albrechts Teerofen in Berlin, Germany",,german_fires_berlin_locations,b20e18686ce4fb2203a04ff630954361,german_fires_berlin_locations__b20e18686ce4fb2203a04ff630954361
albrechtshofer weg,"Albrechtshofer Weg in Berlin, Germany",52.5512641,13.13771,1,,,,,,,,LegislativeCommittee,"Albrechtshofer Weg in Berlin, Germany",,german_fires_berlin_locations,9fd724235508f15a1c1e9ab3029cc5f1,german_fires_berlin_locations__9fd724235508f15a1c1e9ab3029cc5f1
albrechtstrasse,"Albrechtstrasse in Berlin, Germany",52.5222786,13.3844267,1,,,,,,,,Shipping,"Albrechtstrasse in Berlin, Germany",,german_fires_berlin_locations,d2f2a589227e5013f876130053520856,german_fires_berlin_locations__d2f2a589227e5013f876130053520856
albtalweg,"Albtalweg in Berlin, Germany",52.611171,13.3329509,1,,,,,,,,Diplomat,"Albtalweg in Berlin, Germany",,german_fires_berlin_locations,7c07d513a88bc9ff88b6385db94b6f8a,german_fires_berlin_locations__7c07d513a88bc9ff88b6385db94b6f8a
albulaweg,"Albulaweg in Berlin, Germany",52.4233263,13.4002206,1,,,,,,,,Person,"Albulaweg in Berlin, Germany",,german_fires_berlin_locations,98a12e644f21c1ec706141a99981edd2,german_fires_berlin_locations__98a12e644f21c1ec706141a99981edd2
alemannenallee,"Alemannenallee in Berlin, Germany",52.5082508,13.266592,1,,,,,,,,Legislator,"Alemannenallee in Berlin, Germany",,german_fires_berlin_locations,a9f3ec0c53a92dc40b246776e7eb3ab1,german_fires_berlin_locations__a9f3ec0c53a92dc40b246776e7eb3ab1
alemannenbrucke,"Alemannenbrucke in Berlin, Germany",52.5176509,13.3985147,1,,,,,,,,ForeignMinistry,"Alemannenbrucke in Berlin, Germany",,german_fires_berlin_locations,74de4e3e3896434f0714c50743bfeda5,german_fires_berlin_locations__74de4e3e3896434f0714c50743bfeda5
alemannenstrasse,"Alemannenstrasse in Berlin, Germany",52.6333889,13.2809483,1,,,,,,,,LegislativeCommittee,"Alemannenstrasse in Berlin, Germany",,german_fires_berlin_locations,c383895d79fc247025e7ab5566c72a77,german_fires_berlin_locations__c383895d79fc247025e7ab5566c72a77
alex-wedding-strasse,"Alex-Wedding-Strasse in Berlin, Germany",52.5246371,13.414562,1,,,,,,,,Diplomat,"Alex-Wedding-Strasse in Berlin, Germany",,german_fires_berlin_locations,8b13a31b3323326497b0dc3d93e2a2a0,german_fires_berlin_locations__8b13a31b3323326497b0dc3d93e2a2a0
alexander-meissner-strasse,"Alexander-Meissner-Strasse in Berlin, Germany",52.3935205,13.5445996,1,,,,,,,,AAEntity,"Alexander-Meissner-Strasse in Berlin, Germany",,german_fires_berlin_locations,65ecc0bbbcb8b62b9f4ce807bd723c9a,german_fires_berlin_locations__65ecc0bbbcb8b62b9f4ce807bd723c9a
alexander-von-humboldt-weg,"Alexander-von-Humboldt-Weg in Berlin, Germany",52.433776,13.5262443,1,,,,,,,,Media,"Alexander-von-Humboldt-Weg in Berlin, Germany",,german_fires_berlin_locations,ff150f10634c23bd5842649e3fbecb9a,german_fires_berlin_locations__ff150f10634c23bd5842649e3fbecb9a
alexanderplatz,"Alexanderplatz in Berlin, Germany",52.5219814,13.413306,1,,,,,,,,CompanyKeyword,"Alexanderplatz in Berlin, Germany",,german_fires_berlin_locations,79fab57f7ff47bef859c846c7f3797f4,german_fires_berlin_locations__79fab57f7ff47bef859c846c7f3797f4
alexanderstrasse,"Alexanderstrasse in Berlin, Germany",52.5196286,13.4165365,1,,,,,,,,Consulates,"Alexanderstrasse in Berlin, Germany",,german_fires_berlin_locations,fef40bae7f3ec696c536402d8961cf2f,german_fires_berlin_locations__fef40bae7f3ec696c536402d8961cf2f
alexanderufer,"Alexanderufer in Berlin, Germany",52.5257741,13.3737609,1,,,,,,,,CompanyKeyword,"Alexanderufer in Berlin, Germany",,german_fires_berlin_locations,c78a22c7acb06bc9a42be408e2a2d363,german_fires_berlin_locations__c78a22c7acb06bc9a42be408e2a2d363
alexandrinenstrasse,"Alexandrinenstrasse in Berlin, Germany",52.5026468,13.4030546,1,,,,,,,,Shipping,"Alexandrinenstrasse in Berlin, Germany",,german_fires_berlin_locations,ac1ae33f93b306fede52d660aae4c822,german_fires_berlin_locations__ac1ae33f93b306fede52d660aae4c822
alfelder strasse,"Alfelder Strasse in Berlin, Germany",52.4926477,13.5573263,1,,,,,,,,LegislativeCommittee,"Alfelder Strasse in Berlin, Germany",,german_fires_berlin_locations,e2bbff31d3fef94667425f562429e124,german_fires_berlin_locations__e2bbff31d3fef94667425f562429e124
alfons-loewe-strasse,"Alfons-Loewe-Strasse in Berlin, Germany",52.5503844,13.1343267,1,,,,,,,,Person,"Alfons-Loewe-Strasse in Berlin, Germany",,german_fires_berlin_locations,1d52dedd98e1a78a7971502d23212e21,german_fires_berlin_locations__1d52dedd98e1a78a7971502d23212e21
alfonsstrasse,"Alfonsstrasse in Berlin, Germany",52.416305,13.5276432,1,,,,,,,,Legislator,"Alfonsstrasse in Berlin, Germany",,german_fires_berlin_locations,4ca276f23f7cddd0e339e2d9b32f447f,german_fires_berlin_locations__4ca276f23f7cddd0e339e2d9b32f447f
alfred-balen-weg,"Alfred-Balen-Weg in Berlin, Germany",52.5193209,13.1885584,1,,,,,,,,IndustryTerm,"Alfred-Balen-Weg in Berlin, Germany",,german_fires_berlin_locations,ed04b86618a86b8073075bb33b890c0a,german_fires_berlin_locations__ed04b86618a86b8073075bb33b890c0a
alfred-doblin-platz,"Alfred-Doblin-Platz in Berlin, Germany",52.5041858,13.4145918,1,,,,,,,,CompanyKeyword,"Alfred-Doblin-Platz in Berlin, Germany",,german_fires_berlin_locations,3a70151c080c4a0088892fb3c6bcd05a,german_fires_berlin_locations__3a70151c080c4a0088892fb3c6bcd05a
alfred-doblin-strasse,"Alfred-Doblin-Strasse in Berlin, Germany",52.5517687,13.5517643,1,,,,,,,,ForeignMinister,"Alfred-Doblin-Strasse in Berlin, Germany",,german_fires_berlin_locations,a516413e7890c85e0f2614b2efe35a45,german_fires_berlin_locations__a516413e7890c85e0f2614b2efe35a45
alfred-grenander-platz,"Alfred-Grenander-Platz in Berlin, Germany",52.4426907,13.2403336,1,,,,,,,,LegislativeCommittee,"Alfred-Grenander-Platz in Berlin, Germany",,german_fires_berlin_locations,9c949776b8168165854e16439a48d444,german_fires_berlin_locations__9c949776b8168165854e16439a48d444
alfred-jung-strasse,"Alfred-Jung-Strasse in Berlin, Germany",52.5222541,13.4772333,1,,,,,,,,ForeignMinister,"Alfred-Jung-Strasse in Berlin, Germany",,german_fires_berlin_locations,0e75a251cb2d8b294c4496821428f0a1,german_fires_berlin_locations__0e75a251cb2d8b294c4496821428f0a1
alfred-kowalke-strasse,"Alfred-Kowalke-Strasse in Berlin, Germany",52.5058723,13.5187087,1,,,,,,,,IndustryTerm,"Alfred-Kowalke-Strasse in Berlin, Germany",,german_fires_berlin_locations,7858a076455439f96c04854a3eecf749,german_fires_berlin_locations__7858a076455439f96c04854a3eecf749
alfred-lion-steg,"Alfred-Lion-Steg in Berlin, Germany",52.4809292,13.3675345,1,,,,,,,,Organization,"Alfred-Lion-Steg in Berlin, Germany",,german_fires_berlin_locations,d9367155a36b3a0bba3c18647379aba7,german_fires_berlin_locations__d9367155a36b3a0bba3c18647379aba7
alfred-randt-strasse,"Alfred-Randt-Strasse in Berlin, Germany",52.4397839,13.6018061,1,,,,,,,,Legislator,"Alfred-Randt-Strasse in Berlin, Germany",,german_fires_berlin_locations,ca84b82eab5d9a2ecb40be72e81a90f5,german_fires_berlin_locations__ca84b82eab5d9a2ecb40be72e81a90f5
alfred-rojek-weg,"Alfred-Rojek-Weg in Berlin, Germany",52.4211409,13.5087361,1,,,,,,,,LegislativeCommittee,"Alfred-Rojek-Weg in Berlin, Germany",,german_fires_berlin_locations,e224e4ce2a2bef750004d7d25c221557,german_fires_berlin_locations__e224e4ce2a2bef750004d7d25c221557
alfred-scholz-platz,"Alfred-Scholz-Platz in Berlin, Germany",52.4793239,13.4374919,1,,,,,,,,Diplomat,"Alfred-Scholz-Platz in Berlin, Germany",,german_fires_berlin_locations,5e640a352e3a74ef2f38198848265a31,german_fires_berlin_locations__5e640a352e3a74ef2f38198848265a31
alfred-siggel-weg,"Alfred-Siggel-Weg in Berlin, Germany",52.4745149,13.5369138,1,,,,,,,,DiplomaticFacilities,"Alfred-Siggel-Weg in Berlin, Germany",,german_fires_berlin_locations,13efaa53ffe8cd54a6645f4c4fd6b33f,german_fires_berlin_locations__13efaa53ffe8cd54a6645f4c4fd6b33f
alfredstrasse,"Alfredstrasse in Berlin, Germany",52.5135009,13.4900171,1,,,,,,,,FTO,"Alfredstrasse in Berlin, Germany",,german_fires_berlin_locations,0474e08f851a7e8f66b17038426f33e3,german_fires_berlin_locations__0474e08f851a7e8f66b17038426f33e3
alice-archenhold-weg,"Alice-Archenhold-Weg in Berlin, Germany",52.4533466,13.5387982,1,,,,,,,,Diplomat,"Alice-Archenhold-Weg in Berlin, Germany",,german_fires_berlin_locations,6bbdecd4c855e0ab7caeb251f38667e9,german_fires_berlin_locations__6bbdecd4c855e0ab7caeb251f38667e9
alice-berend-strasse,"Alice-Berend-Strasse in Berlin, Germany",52.5201803,13.3585194,1,,,,,,,,LegislativeCommittee,"Alice-Berend-Strasse in Berlin, Germany",,german_fires_berlin_locations,5d181af7aef833ac76a0243c5c1f8b0f,german_fires_berlin_locations__5d181af7aef833ac76a0243c5c1f8b0f
alice-herz-platz,"Alice-Herz-Platz in Berlin, Germany",52.5140559,13.6074915,1,,,,,,,,Keyphrase,"Alice-Herz-Platz in Berlin, Germany",,german_fires_berlin_locations,ac94678664573b8c27ba7fc29bad63cd,german_fires_berlin_locations__ac94678664573b8c27ba7fc29bad63cd
alice-salomon-platz,"Alice-Salomon-Platz in Berlin, Germany",52.5368921,13.6037299,1,,,,,,,,ForeignMinistry,"Alice-Salomon-Platz in Berlin, Germany",,german_fires_berlin_locations,8753169a95e009d9bba373631523e504,german_fires_berlin_locations__8753169a95e009d9bba373631523e504
alice-und-hella-hirsch-ring,"Alice-und-Hella-Hirsch-Ring in Berlin, Germany",52.4966673,13.482199,1,,,,,,,,Shipping,"Alice-und-Hella-Hirsch-Ring in Berlin, Germany",,german_fires_berlin_locations,423ae8e78afd3e4d3e71834cb7689bc1,german_fires_berlin_locations__423ae8e78afd3e4d3e71834cb7689bc1
alkenweg,"Alkenweg in Berlin, Germany",52.4254695,13.5709671,1,,,,,,,,Diplomat,"Alkenweg in Berlin, Germany",,german_fires_berlin_locations,6ab0124fd16da38bae10d33b7d71a614,german_fires_berlin_locations__6ab0124fd16da38bae10d33b7d71a614
allee der kosmonauten,"Allee der Kosmonauten in Berlin, Germany",52.5312225,13.5472907,1,,,,,,,,space,"Allee der Kosmonauten in Berlin, Germany",,german_fires_berlin_locations,0f0c4ae8eecb4979e800cd810db3c4f7,german_fires_berlin_locations__0f0c4ae8eecb4979e800cd810db3c4f7
allee du stade,"Allee du Stade in Berlin, Germany",52.5521871,13.3085568,1,,,,,,,,News,"Allee du Stade in Berlin, Germany",,german_fires_berlin_locations,cc71369bd045b3f6b6bd9f9303aabe36,german_fires_berlin_locations__cc71369bd045b3f6b6bd9f9303aabe36
allee marie curie,"Allee Marie Curie in Berlin, Germany",52.5050779,13.5004291,1,,,,,,,,CompanyKeyword,"Allee Marie Curie in Berlin, Germany",,german_fires_berlin_locations,18ae5c98e71f1b8312a61a9477c036b4,german_fires_berlin_locations__18ae5c98e71f1b8312a61a9477c036b4
allee pierre de coubertin,"Allee Pierre de Coubertin in Berlin, Germany",45.5834625,-73.6114605,1,,,,,,,,DiplomaticFacilities,"Allee Pierre de Coubertin in Berlin, Germany",,german_fires_berlin_locations,7478138642c75961860133da776559a8,german_fires_berlin_locations__7478138642c75961860133da776559a8
allee st. exupéry,"Allee St. Exupéry in Berlin, Germany",52.569515,13.2975298,1,,,,,,,,Pipeline,"Allee St. Exupéry in Berlin, Germany",,german_fires_berlin_locations,50e779681d117d5032807b5e7a1e7654,german_fires_berlin_locations__50e779681d117d5032807b5e7a1e7654
allendeweg,"Allendeweg in Berlin, Germany",52.4436948,13.5865545,1,,,,,,,,ForeignMinister,"Allendeweg in Berlin, Germany",,german_fires_berlin_locations,f1aca24b6b61e160818165eb1d985aa0,german_fires_berlin_locations__f1aca24b6b61e160818165eb1d985aa0
allendorfer weg,"Allendorfer Weg in Berlin, Germany",52.5366718,13.5171174,1,,,,,,,,AAEntity,"Allendorfer Weg in Berlin, Germany",,german_fires_berlin_locations,634538397620e5140adbb6dff039f201,german_fires_berlin_locations__634538397620e5140adbb6dff039f201
allerstrasse,"Allerstrasse in Berlin, Germany",52.4747168,13.4230288,1,,,,,,,,Legislator,"Allerstrasse in Berlin, Germany",,german_fires_berlin_locations,175cdc3a522088e131fbcf4074061b7c,german_fires_berlin_locations__175cdc3a522088e131fbcf4074061b7c
allgauer weg,"Allgauer Weg in Berlin, Germany",52.4369335,13.4004476,1,,,,,,,,Person,"Allgauer Weg in Berlin, Germany",,german_fires_berlin_locations,a82c17b04fd6009598ea27b06fd989cc,german_fires_berlin_locations__a82c17b04fd6009598ea27b06fd989cc
allmendeweg,"Allmendeweg in Berlin, Germany",52.602989,13.2992858,1,,,,,,,,IndustryTerm,"Allmendeweg in Berlin, Germany",,german_fires_berlin_locations,cd63f38ed7b0853292738bcf972f7b6d,german_fires_berlin_locations__cd63f38ed7b0853292738bcf972f7b6d
allmersweg,"Allmersweg in Berlin, Germany",52.4514504,13.5110616,1,,,,,,,,ForeignMinistry,"Allmersweg in Berlin, Germany",,german_fires_berlin_locations,568e62b6735412ac90af815cf14e4bbc,german_fires_berlin_locations__568e62b6735412ac90af815cf14e4bbc
almazeile,"Almazeile in Berlin, Germany",52.5701062,13.2302182,1,,,,,,,,ForeignMinister,"Almazeile in Berlin, Germany",,german_fires_berlin_locations,719bd1ba66d07d2175310a55ca25e00a,german_fires_berlin_locations__719bd1ba66d07d2175310a55ca25e00a
almstadtstrasse,"Almstadtstrasse in Berlin, Germany",52.5263261,13.4097004,1,,,,,,,,Organization,"Almstadtstrasse in Berlin, Germany",,german_fires_berlin_locations,69c9491d1f8fc7053ab3567589daac76,german_fires_berlin_locations__69c9491d1f8fc7053ab3567589daac76
almutstrasse,"Almutstrasse in Berlin, Germany",52.614941,13.3181982,1,,,,,,,,Refinery,"Almutstrasse in Berlin, Germany",,german_fires_berlin_locations,a6d5f969145f162001400a6517c738ef,german_fires_berlin_locations__a6d5f969145f162001400a6517c738ef
almweg,"Almweg in Berlin, Germany",52.4305737,13.4033488,1,,,,,,,,DiplomaticFacilities,"Almweg in Berlin, Germany",,german_fires_berlin_locations,44bd3dfc92577db2751fbe46636c4f11,german_fires_berlin_locations__44bd3dfc92577db2751fbe46636c4f11
aloisiusweg,"Aloisiusweg in Berlin, Germany",52.5096488,13.3759441,1,,,,,,,,ForeignMinistry,"Aloisiusweg in Berlin, Germany",,german_fires_berlin_locations,75686e313a2f39d4902d830dec7ff41d,german_fires_berlin_locations__75686e313a2f39d4902d830dec7ff41d
alpenberger strasse,"Alpenberger Strasse in Berlin, Germany",52.6365086,13.5191889,1,,,,,,,,Pipeline,"Alpenberger Strasse in Berlin, Germany",,german_fires_berlin_locations,2e0bd28cb6b7dc2b6812da48458a69b8,german_fires_berlin_locations__2e0bd28cb6b7dc2b6812da48458a69b8
alpenrosenweg,"Alpenrosenweg in Berlin, Germany",52.4511316,13.4835688,1,,,,,,,,ForeignMinister,"Alpenrosenweg in Berlin, Germany",,german_fires_berlin_locations,b50c7385825bac47cc25cdfda978707a,german_fires_berlin_locations__b50c7385825bac47cc25cdfda978707a
alpenveilchenweg,"Alpenveilchenweg in Berlin, Germany",52.5025777,13.5748503,1,,,,,,,,AAEntity,"Alpenveilchenweg in Berlin, Germany",,german_fires_berlin_locations,adae27d974f802e4b28505ee6b02f824,german_fires_berlin_locations__adae27d974f802e4b28505ee6b02f824
alpnacher weg,"Alpnacher Weg in Berlin, Germany",52.5689945,13.4489824,1,,,,,,,,Shipping,"Alpnacher Weg in Berlin, Germany",,german_fires_berlin_locations,bbb42c4885b9b6c35a66793aa101d6ca,german_fires_berlin_locations__bbb42c4885b9b6c35a66793aa101d6ca
alsaceweg,"Alsaceweg in Berlin, Germany",52.6032973,13.4058741,1,,,,,,,,CompanyKeyword,"Alsaceweg in Berlin, Germany",,german_fires_berlin_locations,b3366c03e5ac1e8a63ffcfc66ae14f78,german_fires_berlin_locations__b3366c03e5ac1e8a63ffcfc66ae14f78
alsbacher weg,"Alsbacher Weg in Berlin, Germany",52.4488441,13.2365744,1,,,,,,,,Shipping,"Alsbacher Weg in Berlin, Germany",,german_fires_berlin_locations,9c028e35bdeb2424c880acf6c5bc464a,german_fires_berlin_locations__9c028e35bdeb2424c880acf6c5bc464a
alsenbrucke,"Alsenbrucke in Berlin, Germany",52.4963434,13.4637391,1,,,,,,,,Shipping,"Alsenbrucke in Berlin, Germany",,german_fires_berlin_locations,b3a9ff984629215ae569af82686bc9fd,german_fires_berlin_locations__b3a9ff984629215ae569af82686bc9fd
alsenstrasse,"Alsenstrasse in Berlin, Germany",52.414133,13.148384,1,,,,,,,,ForeignMinister,"Alsenstrasse in Berlin, Germany",,german_fires_berlin_locations,113c29c83c396243944d57a9daa63596,german_fires_berlin_locations__113c29c83c396243944d57a9daa63596
alsenzer weg,"Alsenzer Weg in Berlin, Germany",52.4108267,13.6564471,1,,,,,,,,LegislativeCommittee,"Alsenzer Weg in Berlin, Germany",,german_fires_berlin_locations,d73d28e63d8cb1e28976605cc3e18558,german_fires_berlin_locations__d73d28e63d8cb1e28976605cc3e18558
alsheimer strasse,"Alsheimer Strasse in Berlin, Germany",52.4412065,13.3467768,1,,,,,,,,Diplomat,"Alsheimer Strasse in Berlin, Germany",,german_fires_berlin_locations,01678c182f05cbcba6c957d55f6e12e7,german_fires_berlin_locations__01678c182f05cbcba6c957d55f6e12e7
alsterweg,"Alsterweg in Berlin, Germany",52.4158082,13.2746454,1,,,,,,,,Diplomat,"Alsterweg in Berlin, Germany",,german_fires_berlin_locations,65d2bb193c20b81ecc6188b896ad9966,german_fires_berlin_locations__65d2bb193c20b81ecc6188b896ad9966
alt-biesdorf,"Alt-Biesdorf in Berlin, Germany",52.5086954,13.5587874,1,,,,,,,,AAEntity,"Alt-Biesdorf in Berlin, Germany",,german_fires_berlin_locations,7b4c23c84333ae08a29fe5c1f49e2eb3,german_fires_berlin_locations__7b4c23c84333ae08a29fe5c1f49e2eb3
alt-blankenburg,"Alt-Blankenburg in Berlin, Germany",52.5930231,13.4557654,1,,,,,,,,Refinery,"Alt-Blankenburg in Berlin, Germany",,german_fires_berlin_locations,b4bbeaefb8bd7deaf932e81cd1783b19,german_fires_berlin_locations__b4bbeaefb8bd7deaf932e81cd1783b19
alt-britz,"Alt-Britz in Berlin, Germany",52.4482982,13.4388444,1,,,,,,,,Consulates,"Alt-Britz in Berlin, Germany",,german_fires_berlin_locations,a22c64bb65c2ef2ece143696d6b9bf42,german_fires_berlin_locations__a22c64bb65c2ef2ece143696d6b9bf42
alt-buch,"Alt-Buch in Berlin, Germany",52.6357183,13.50106,1,,,,,,,,Pipeline,"Alt-Buch in Berlin, Germany",,german_fires_berlin_locations,b38350a04d1284c7e3143b7d0d99e779,german_fires_berlin_locations__b38350a04d1284c7e3143b7d0d99e779
alt-buckow,"Alt-Buckow in Berlin, Germany",52.4220231,13.4322626,1,,,,,,,,Exec,"Alt-Buckow in Berlin, Germany",,german_fires_berlin_locations,298b94467d72cb0000a690ce0e754779,german_fires_berlin_locations__298b94467d72cb0000a690ce0e754779
alt-friedrichsfelde,"Alt-Friedrichsfelde in Berlin, Germany",52.5104022,13.5231717,1,,,,,,,,Exec,"Alt-Friedrichsfelde in Berlin, Germany",,german_fires_berlin_locations,f6cbc621a0f5a92c134cc6bbc74a609d,german_fires_berlin_locations__f6cbc621a0f5a92c134cc6bbc74a609d
alt-gatow,"Alt-Gatow in Berlin, Germany",52.4863301,13.1825186,1,,,,,,,,Media,"Alt-Gatow in Berlin, Germany",,german_fires_berlin_locations,d5986bbaffb62e3c3aaa5804b56e9a62,german_fires_berlin_locations__d5986bbaffb62e3c3aaa5804b56e9a62
alt-heiligensee,"Alt-Heiligensee in Berlin, Germany",52.6070625,13.2128539,1,,,,,,,,CompanyKeyword,"Alt-Heiligensee in Berlin, Germany",,german_fires_berlin_locations,df2414acbe3fa481be2fa24006755457,german_fires_berlin_locations__df2414acbe3fa481be2fa24006755457
alt-hellersdorf,"Alt-Hellersdorf in Berlin, Germany",52.5389434,13.5949884,1,,,,,,,,Shipping,"Alt-Hellersdorf in Berlin, Germany",,german_fires_berlin_locations,c15ab9ad9f6edefa5506f3e60702ef61,german_fires_berlin_locations__c15ab9ad9f6edefa5506f3e60702ef61
alt-hermsdorf,"Alt-Hermsdorf in Berlin, Germany",52.6148921,13.3197185,1,,,,,,,,space,"Alt-Hermsdorf in Berlin, Germany",,german_fires_berlin_locations,319f9855fcf0bab11e4c85583530bd82,german_fires_berlin_locations__319f9855fcf0bab11e4c85583530bd82
alt-karow,"Alt-Karow in Berlin, Germany",52.6123995,13.4833804,1,,,,,,,,Consulates,"Alt-Karow in Berlin, Germany",,german_fires_berlin_locations,dc4754788db6284a06eadc4552681b14,german_fires_berlin_locations__dc4754788db6284a06eadc4552681b14
alt-kaulsdorf,"Alt-Kaulsdorf in Berlin, Germany",52.5050993,13.589665,1,,,,,,,,DiplomaticFacilities,"Alt-Kaulsdorf in Berlin, Germany",,german_fires_berlin_locations,669a275aa1288287e1b5af1a631143d4,german_fires_berlin_locations__669a275aa1288287e1b5af1a631143d4
alt-kladow,"Alt-Kladow in Berlin, Germany",52.452457,13.1459571,1,,,,,,,,Pipeline,"Alt-Kladow in Berlin, Germany",,german_fires_berlin_locations,a31ff131ec896a140c1dbf477290a8d5,german_fires_berlin_locations__a31ff131ec896a140c1dbf477290a8d5
alt-kopenick,"Alt-Kopenick in Berlin, Germany",52.4458909,13.5746686,1,,,,,,,,IndustryTerm,"Alt-Kopenick in Berlin, Germany",,german_fires_berlin_locations,cc3aacb051650c41a403546d4c9238d4,german_fires_berlin_locations__cc3aacb051650c41a403546d4c9238d4
alt-lankwitz,"Alt-Lankwitz in Berlin, Germany",52.437225,13.3587208,1,,,,,,,,ForeignMinister,"Alt-Lankwitz in Berlin, Germany",,german_fires_berlin_locations,00171d83a5f1334af7ce9f96306f2112,german_fires_berlin_locations__00171d83a5f1334af7ce9f96306f2112
alt-lichtenrade,"Alt-Lichtenrade in Berlin, Germany",52.3965016,13.4108772,1,,,,,,,,Exec,"Alt-Lichtenrade in Berlin, Germany",,german_fires_berlin_locations,02f3fc3a142b873d8525d22c7b99e103,german_fires_berlin_locations__02f3fc3a142b873d8525d22c7b99e103
alt-lietzow,"Alt-Lietzow in Berlin, Germany",52.5181476,13.3105429,1,,,,,,,,Exec,"Alt-Lietzow in Berlin, Germany",,german_fires_berlin_locations,d1e1b1b390d477f1ab88bcfbc5440e11,german_fires_berlin_locations__d1e1b1b390d477f1ab88bcfbc5440e11
alt-lubars,"Alt-Lubars in Berlin, Germany",52.6204157,13.3567075,1,,,,,,,,Person,"Alt-Lubars in Berlin, Germany",,german_fires_berlin_locations,8da4b124a0e744b1f86a872f73c0d415,german_fires_berlin_locations__8da4b124a0e744b1f86a872f73c0d415
alt-mahlsdorf,"Alt-Mahlsdorf in Berlin, Germany",52.5047822,13.6134247,1,,,,,,,,DiplomaticFacilities,"Alt-Mahlsdorf in Berlin, Germany",,german_fires_berlin_locations,c0382d1f66c05b3d363946c74cedf880,german_fires_berlin_locations__c0382d1f66c05b3d363946c74cedf880
alt-mariendorf,"Alt-Mariendorf in Berlin, Germany",52.4403433,13.3883012,1,,,,,,,,Diplomat,"Alt-Mariendorf in Berlin, Germany",,german_fires_berlin_locations,d8d3ed2c3c1936663b0e3595a98d9632,german_fires_berlin_locations__d8d3ed2c3c1936663b0e3595a98d9632
alt-marienfelde,"Alt-Marienfelde in Berlin, Germany",52.4123041,13.3683372,1,,,,,,,,Refinery,"Alt-Marienfelde in Berlin, Germany",,german_fires_berlin_locations,1e2eb74d4dd217ea5b3438f8c2a63e50,german_fires_berlin_locations__1e2eb74d4dd217ea5b3438f8c2a63e50
alt-marzahn,"Alt-Marzahn in Berlin, Germany",52.5432979,13.5599285,1,,,,,,,,Consulates,"Alt-Marzahn in Berlin, Germany",,german_fires_berlin_locations,73ac5810401a41c82892635ad96db099,german_fires_berlin_locations__73ac5810401a41c82892635ad96db099
alt-moabit,"Alt-Moabit in Berlin, Germany",52.5247264,13.3482444,1,,,,,,,,DiplomaticFacilities,"Alt-Moabit in Berlin, Germany",,german_fires_berlin_locations,4a7621fd7d02ecdcc259394e1c79f677,german_fires_berlin_locations__4a7621fd7d02ecdcc259394e1c79f677
alt-muggelheim,"Alt-Muggelheim in Berlin, Germany",52.4119776,13.6628956,1,,,,,,,,Refinery,"Alt-Muggelheim in Berlin, Germany",,german_fires_berlin_locations,63b231b7f73df0c42f1da345775d31d4,german_fires_berlin_locations__63b231b7f73df0c42f1da345775d31d4
alt-pichelsdorf,"Alt-Pichelsdorf in Berlin, Germany",52.511585,13.1990942,1,,,,,,,,DiplomaticFacilities,"Alt-Pichelsdorf in Berlin, Germany",,german_fires_berlin_locations,1c13ecf1738aac7c7cf3a4f6f0b9b646,german_fires_berlin_locations__1c13ecf1738aac7c7cf3a4f6f0b9b646
alt-reinickendorf,"Alt-Reinickendorf in Berlin, Germany",52.5750592,13.3531295,1,,,,,,,,IndustryTerm,"Alt-Reinickendorf in Berlin, Germany",,german_fires_berlin_locations,07435ce903c7b907d1acb31d25ea9ba7,german_fires_berlin_locations__07435ce903c7b907d1acb31d25ea9ba7
alt-rudow,"Alt-Rudow in Berlin, Germany",52.4195739,13.4931495,1,,,,,,,,Diplomat,"Alt-Rudow in Berlin, Germany",,german_fires_berlin_locations,3115793570df85cb5e2c963bb30d47d1,german_fires_berlin_locations__3115793570df85cb5e2c963bb30d47d1
alt-schmockwitz,"Alt-Schmockwitz in Berlin, Germany",52.3749316,13.6502986,1,,,,,,,,CompanyKeyword,"Alt-Schmockwitz in Berlin, Germany",,german_fires_berlin_locations,fd4cf32ac676cc9351d06532a183ba87,german_fires_berlin_locations__fd4cf32ac676cc9351d06532a183ba87
alt-schonow,"Alt-Schonow in Berlin, Germany",52.4067856,13.2656288,1,,,,,,,,LegislativeCommittee,"Alt-Schonow in Berlin, Germany",,german_fires_berlin_locations,8c6a2c204c120c85ea80e891ab528b28,german_fires_berlin_locations__8c6a2c204c120c85ea80e891ab528b28
alt-stralau,"Alt-Stralau in Berlin, Germany",52.494191,13.4706139,1,,,,,,,,Consulates,"Alt-Stralau in Berlin, Germany",,german_fires_berlin_locations,87d71000c111be3f5941a9372e5b5aad,german_fires_berlin_locations__87d71000c111be3f5941a9372e5b5aad
alt-tegel,"Alt-Tegel in Berlin, Germany",52.5885431,13.278692,1,,,,,,,,News,"Alt-Tegel in Berlin, Germany",,german_fires_berlin_locations,1debbfc6516515981c1fef221e3ddc3f,german_fires_berlin_locations__1debbfc6516515981c1fef221e3ddc3f
alt-tempelhof,"Alt-Tempelhof in Berlin, Germany",52.465978,13.3831372,1,,,,,,,,Media,"Alt-Tempelhof in Berlin, Germany",,german_fires_berlin_locations,4db9b08aeec14fbe45888ba86f3f0f0a,german_fires_berlin_locations__4db9b08aeec14fbe45888ba86f3f0f0a
alt-treptow,"Alt-Treptow in Berlin, Germany",52.4917223,13.4577383,1,,,,,,,,Organization,"Alt-Treptow in Berlin, Germany",,german_fires_berlin_locations,af9d82071aa6f3d0ff4da277e5afe3ad,german_fires_berlin_locations__af9d82071aa6f3d0ff4da277e5afe3ad
alt-wittenau,"Alt-Wittenau in Berlin, Germany",52.5913932,13.3284266,1,,,,,,,,IndustryTerm,"Alt-Wittenau in Berlin, Germany",,german_fires_berlin_locations,e416a64c0a9b63edd1fdb9926cb497d2,german_fires_berlin_locations__e416a64c0a9b63edd1fdb9926cb497d2
altarsteinweg,"Altarsteinweg in Berlin, Germany",52.5968453,13.3923154,1,,,,,,,,Exec,"Altarsteinweg in Berlin, Germany",,german_fires_berlin_locations,b9cdfd7707cd5cc6f30faec7b9af0e2c,german_fires_berlin_locations__b9cdfd7707cd5cc6f30faec7b9af0e2c
altdammer weg,"Altdammer Weg in Berlin, Germany",52.6249734,13.2416677,1,,,,,,,,FTO,"Altdammer Weg in Berlin, Germany",,german_fires_berlin_locations,32f200847654428ab787e27a717cc1cb,german_fires_berlin_locations__32f200847654428ab787e27a717cc1cb
altdorfer strasse,"Altdorfer Strasse in Berlin, Germany",52.4291953,13.2980945,1,,,,,,,,Shipping,"Altdorfer Strasse in Berlin, Germany",,german_fires_berlin_locations,ee1715adee6b0374bafaf479f3a7fa39,german_fires_berlin_locations__ee1715adee6b0374bafaf479f3a7fa39
alte allee,"Alte Allee in Berlin, Germany",52.4927626,13.261555,1,,,,,,,,ForeignMinistry,"Alte Allee in Berlin, Germany",,german_fires_berlin_locations,dba7acd714ce232cae3e0267c16bff0a,german_fires_berlin_locations__dba7acd714ce232cae3e0267c16bff0a
alte brauerei,"Alte Brauerei in Berlin, Germany",52.4859469,13.3800542,1,,,,,,,,DiplomaticFacilities,"Alte Brauerei in Berlin, Germany",,german_fires_berlin_locations,bfe2771e2fd75cdac83a3f82b22e48d5,german_fires_berlin_locations__bfe2771e2fd75cdac83a3f82b22e48d5
alte fasanerie,"Alte Fasanerie in Berlin, Germany",52.6077925,13.365978,1,,,,,,,,Organization,"Alte Fasanerie in Berlin, Germany",,german_fires_berlin_locations,5ed2726535d23b439099baeca97d11f4,german_fires_berlin_locations__5ed2726535d23b439099baeca97d11f4
alte hellersdorfer strasse,"Alte Hellersdorfer Strasse in Berlin, Germany",52.5408733,13.590879,1,,,,,,,,Wells,"Alte Hellersdorfer Strasse in Berlin, Germany",,german_fires_berlin_locations,b2ebc2044e6ab9789fda38a6240f8840,german_fires_berlin_locations__b2ebc2044e6ab9789fda38a6240f8840
alte jakobstrasse,"Alte Jakobstrasse in Berlin, Germany",52.5058105,13.4010993,1,,,,,,,,Exec,"Alte Jakobstrasse in Berlin, Germany",,german_fires_berlin_locations,561837a1790c23599698430c3d12539f,german_fires_berlin_locations__561837a1790c23599698430c3d12539f
alte kaulsdorfer strasse,"Alte Kaulsdorfer Strasse in Berlin, Germany",52.4603712,13.5780634,1,,,,,,,,ForeignMinistry,"Alte Kaulsdorfer Strasse in Berlin, Germany",,german_fires_berlin_locations,c7739128748a59a843ac10f0ce39c74c,german_fires_berlin_locations__c7739128748a59a843ac10f0ce39c74c
alte leipziger strasse,"Alte Leipziger Strasse in Berlin, Germany",52.5129241,13.4000374,1,,,,,,,,ForeignMinistry,"Alte Leipziger Strasse in Berlin, Germany",,german_fires_berlin_locations,fd16467b3354b15ee2dee120b2c80e11,german_fires_berlin_locations__fd16467b3354b15ee2dee120b2c80e11
alte poststrasse,"Alte Poststrasse in Berlin, Germany",52.4655552,13.2508974,1,,,,,,,,AAEntity,"Alte Poststrasse in Berlin, Germany",,german_fires_berlin_locations,687074b3b0d1090982cb3746416bba0f,german_fires_berlin_locations__687074b3b0d1090982cb3746416bba0f
alte potsdamer strasse,"Alte Potsdamer Strasse in Berlin, Germany",52.5084001,13.374251,1,,,,,,,,Organization,"Alte Potsdamer Strasse in Berlin, Germany",,german_fires_berlin_locations,575efb6b892fc840188336a1222bc922,german_fires_berlin_locations__575efb6b892fc840188336a1222bc922
alte rhinstrasse,"Alte Rhinstrasse in Berlin, Germany",52.5340226,13.5197993,1,,,,,,,,Pipeline,"Alte Rhinstrasse in Berlin, Germany",,german_fires_berlin_locations,d13e582ec6bc9130890f7d7e8f9ca728,german_fires_berlin_locations__d13e582ec6bc9130890f7d7e8f9ca728
alte schonhauser strasse,"Alte Schonhauser Strasse in Berlin, Germany",52.5269628,13.4080072,1,,,,,,,,Media,"Alte Schonhauser Strasse in Berlin, Germany",,german_fires_berlin_locations,5d0053981a9c24981594f2ea44b30947,german_fires_berlin_locations__5d0053981a9c24981594f2ea44b30947
alte spandauer poststrasse,"Alte Spandauer Poststrasse in Berlin, Germany",52.4964137,13.2275925,1,,,,,,,,Keyphrase,"Alte Spandauer Poststrasse in Berlin, Germany",,german_fires_berlin_locations,f2505a751108fbe1c135e55da08b081f,german_fires_berlin_locations__f2505a751108fbe1c135e55da08b081f
altenauer weg,"Altenauer Weg in Berlin, Germany",52.4195235,13.3265022,1,,,,,,,,IndustryTerm,"Altenauer Weg in Berlin, Germany",,german_fires_berlin_locations,65d19bd149019e9663bd12e5210e34a5,german_fires_berlin_locations__65d19bd149019e9663bd12e5210e34a5
altenberger weg,"Altenberger Weg in Berlin, Germany",52.5883469,13.3990913,1,,,,,,,,Wells,"Altenberger Weg in Berlin, Germany",,german_fires_berlin_locations,8932087611245e9aba7f23d9322e0642,german_fires_berlin_locations__8932087611245e9aba7f23d9322e0642
altenbraker strasse,"Altenbraker Strasse in Berlin, Germany",52.4701479,13.4324133,1,,,,,,,,LegislativeCommittee,"Altenbraker Strasse in Berlin, Germany",,german_fires_berlin_locations,971090318011ef955594c98749beb355,german_fires_berlin_locations__971090318011ef955594c98749beb355
altenburger allee,"Altenburger Allee in Berlin, Germany",52.5189286,13.2599529,1,,,,,,,,space,"Altenburger Allee in Berlin, Germany",,german_fires_berlin_locations,9e688cbeb049c21fc1a3a48d611e654f,german_fires_berlin_locations__9e688cbeb049c21fc1a3a48d611e654f
altenburger strasse,"Altenburger Strasse in Berlin, Germany",52.4171609,13.3459408,1,,,,,,,,News,"Altenburger Strasse in Berlin, Germany",,german_fires_berlin_locations,e501945ba93630f912f788ad33915935,german_fires_berlin_locations__e501945ba93630f912f788ad33915935
altenescher weg,"Altenescher Weg in Berlin, Germany",52.5396134,13.4557746,1,,,,,,,,News,"Altenescher Weg in Berlin, Germany",,german_fires_berlin_locations,7f7f2c890eb64cc42fa770c69501d2d7,german_fires_berlin_locations__7f7f2c890eb64cc42fa770c69501d2d7
altenhofer strasse,"Altenhofer Strasse in Berlin, Germany",52.5352941,13.4804808,1,,,,,,,,AAEntity,"Altenhofer Strasse in Berlin, Germany",,german_fires_berlin_locations,0896a2256a04b0dcf761f7db24c5dfc5,german_fires_berlin_locations__0896a2256a04b0dcf761f7db24c5dfc5
altenhofer weg,"Altenhofer Weg in Berlin, Germany",52.5875714,13.2959584,1,,,,,,,,Consulates,"Altenhofer Weg in Berlin, Germany",,german_fires_berlin_locations,c2cff4a3e3b1b8681c371d288ad20189,german_fires_berlin_locations__c2cff4a3e3b1b8681c371d288ad20189
altensteinstrasse,"Altensteinstrasse in Berlin, Germany",52.4522248,13.2970499,1,,,,,,,,CompanyKeyword,"Altensteinstrasse in Berlin, Germany",,german_fires_berlin_locations,52ef4ad39112b4a6e1ab743522ad9a44,german_fires_berlin_locations__52ef4ad39112b4a6e1ab743522ad9a44
altentreptower strasse,"Altentreptower Strasse in Berlin, Germany",52.513571,13.5708724,1,,,,,,,,Legislator,"Altentreptower Strasse in Berlin, Germany",,german_fires_berlin_locations,93e7477c063e4423513306b88a54cd46,german_fires_berlin_locations__93e7477c063e4423513306b88a54cd46
alter bernauer heerweg,"Alter Bernauer Heerweg in Berlin, Germany",52.613606,13.36471,1,,,,,,,,Refinery,"Alter Bernauer Heerweg in Berlin, Germany",,german_fires_berlin_locations,f3831fb3944522affdfd448bd2ba005c,german_fires_berlin_locations__f3831fb3944522affdfd448bd2ba005c
alter fischerweg,"Alter Fischerweg in Berlin, Germany",52.4579921,13.6933074,1,,,,,,,,ForeignMinister,"Alter Fischerweg in Berlin, Germany",,german_fires_berlin_locations,8883bf6bad0a615ebc1c2cd03dca4d8d,german_fires_berlin_locations__8883bf6bad0a615ebc1c2cd03dca4d8d
alter hegemeisterweg,"Alter Hegemeisterweg in Berlin, Germany",52.4463094,13.6879995,1,,,,,,,,ForeignMinistry,"Alter Hegemeisterweg in Berlin, Germany",,german_fires_berlin_locations,f5a65cc6493161bac96b986a3f6237cd,german_fires_berlin_locations__f5a65cc6493161bac96b986a3f6237cd
alter markt,"Alter Markt in Berlin, Germany",52.4452727,13.578829,1,,,,,,,,Person,"Alter Markt in Berlin, Germany",,german_fires_berlin_locations,52725b1bc1ca595c2efde142045021c7,german_fires_berlin_locations__52725b1bc1ca595c2efde142045021c7
alter radelander weg,"Alter Radelander Weg in Berlin, Germany",52.3919739,13.6034994,1,,,,,,,,Legislator,"Alter Radelander Weg in Berlin, Germany",,german_fires_berlin_locations,17e4a888690972b00e44312fd1a76ad6,german_fires_berlin_locations__17e4a888690972b00e44312fd1a76ad6
alter schonefelder weg,"Alter Schonefelder Weg in Berlin, Germany",52.4193873,13.5370263,1,,,,,,,,Consulates,"Alter Schonefelder Weg in Berlin, Germany",,german_fires_berlin_locations,ee1b78bb512ab9b52fa121e2efa8248a,german_fires_berlin_locations__ee1b78bb512ab9b52fa121e2efa8248a
alter segelfliegerdamm,"Alter Segelfliegerdamm in Berlin, Germany",52.4383349,13.5070467,1,,,,,,,,space,"Alter Segelfliegerdamm in Berlin, Germany",,german_fires_berlin_locations,051ab3ad8cfd257b6f8f683a8e32ea2d,german_fires_berlin_locations__051ab3ad8cfd257b6f8f683a8e32ea2d
alter wiesenweg,"Alter Wiesenweg in Berlin, Germany",52.5519697,13.2751611,1,,,,,,,,Media,"Alter Wiesenweg in Berlin, Germany",,german_fires_berlin_locations,569f2310586d71dbb40f8d53bc014b4f,german_fires_berlin_locations__569f2310586d71dbb40f8d53bc014b4f
altes gaswerk mariendorf,"Altes Gaswerk Mariendorf in Berlin, Germany",52.4399483,13.3718393,1,,,,,,,,Person,"Altes Gaswerk Mariendorf in Berlin, Germany",,german_fires_berlin_locations,00e4f63aff74ac2889376ee50deb1ac8,german_fires_berlin_locations__00e4f63aff74ac2889376ee50deb1ac8
altglienicker brucke,"Altglienicker Brucke in Berlin, Germany",52.424295,13.5435102,1,,,,,,,,LegislativeCommittee,"Altglienicker Brucke in Berlin, Germany",,german_fires_berlin_locations,db1421e4e1b6b6f118297e66de34eaf8,german_fires_berlin_locations__db1421e4e1b6b6f118297e66de34eaf8
altglienicker grund,"Altglienicker Grund in Berlin, Germany",52.4080356,13.5293603,1,,,,,,,,IndustryTerm,"Altglienicker Grund in Berlin, Germany",,german_fires_berlin_locations,ab387887db965efd9c1c38d28cdce144,german_fires_berlin_locations__ab387887db965efd9c1c38d28cdce144
altgrabauer strasse,"Altgrabauer Strasse in Berlin, Germany",52.4696004,13.5714184,1,,,,,,,,Organization,"Altgrabauer Strasse in Berlin, Germany",,german_fires_berlin_locations,983bdd97fe1a898fd5ffd00062e1aa17,german_fires_berlin_locations__983bdd97fe1a898fd5ffd00062e1aa17
althansweg,"Althansweg in Berlin, Germany",52.5365143,13.5583715,1,,,,,,,,Diplomat,"Althansweg in Berlin, Germany",,german_fires_berlin_locations,83a751603536b4bdbead7e111d1b1817,german_fires_berlin_locations__83a751603536b4bdbead7e111d1b1817
altheider strasse,"Altheider Strasse in Berlin, Germany",52.4377016,13.5431241,1,,,,,,,,LegislativeCommittee,"Altheider Strasse in Berlin, Germany",,german_fires_berlin_locations,ee3f4613685ba251b9065ebd90da56fd,german_fires_berlin_locations__ee3f4613685ba251b9065ebd90da56fd
althoffplatz,"Althoffplatz in Berlin, Germany",52.4571514,13.3314288,1,,,,,,,,AAEntity,"Althoffplatz in Berlin, Germany",,german_fires_berlin_locations,c8b4a37ee33bdcbbb6d5dd0cf3983af5,german_fires_berlin_locations__c8b4a37ee33bdcbbb6d5dd0cf3983af5
althoffstrasse,"Althoffstrasse in Berlin, Germany",52.4572364,13.3286514,1,,,,,,,,AAEntity,"Althoffstrasse in Berlin, Germany",,german_fires_berlin_locations,6f4bd1608769efa8d1be89223942a38e,german_fires_berlin_locations__6f4bd1608769efa8d1be89223942a38e
altkanzlerstrasse,"Altkanzlerstrasse in Berlin, Germany",52.4460794,13.2456659,1,,,,,,,,IndustryTerm,"Altkanzlerstrasse in Berlin, Germany",,german_fires_berlin_locations,03c744913f0afa034dcf512af15522fb,german_fires_berlin_locations__03c744913f0afa034dcf512af15522fb
altkanzlerstrassenbrucke,"Altkanzlerstrassenbrucke in Berlin, Germany",52.5192991,13.3973103,1,,,,,,,,Legislator,"Altkanzlerstrassenbrucke in Berlin, Germany",,german_fires_berlin_locations,673301a59dbb52fd6ac96d731a5d4f71,german_fires_berlin_locations__673301a59dbb52fd6ac96d731a5d4f71
altkircher strasse,"Altkircher Strasse in Berlin, Germany",52.4433833,13.2821627,1,,,,,,,,ForeignMinister,"Altkircher Strasse in Berlin, Germany",,german_fires_berlin_locations,4d495bbf66493f63b391eaeb27bffcf5,german_fires_berlin_locations__4d495bbf66493f63b391eaeb27bffcf5
altlandsberger platz,"Altlandsberger Platz in Berlin, Germany",52.5427432,13.5734325,1,,,,,,,,Diplomat,"Altlandsberger Platz in Berlin, Germany",,german_fires_berlin_locations,edfca3502b6c5da23db28b3cf87a3a9d,german_fires_berlin_locations__edfca3502b6c5da23db28b3cf87a3a9d
altmarkstrasse,"Altmarkstrasse in Berlin, Germany",52.4606697,13.3422413,1,,,,,,,,Wells,"Altmarkstrasse in Berlin, Germany",,german_fires_berlin_locations,6a9b26bc574af6eea8acc40b41a092eb,german_fires_berlin_locations__6a9b26bc574af6eea8acc40b41a092eb
altonaer strasse,"Altonaer Strasse in Berlin, Germany",52.5172456,13.3438522,1,,,,,,,,Media,"Altonaer Strasse in Berlin, Germany",,german_fires_berlin_locations,27474328dd0f303fe23e436a52692abd,german_fires_berlin_locations__27474328dd0f303fe23e436a52692abd
altrader weg,"Altrader Weg in Berlin, Germany",52.4040852,13.5124103,1,,,,,,,,Media,"Altrader Weg in Berlin, Germany",,german_fires_berlin_locations,f99d9978bb0c7d3b1c45f7cc68ace86f,german_fires_berlin_locations__f99d9978bb0c7d3b1c45f7cc68ace86f
altstadter ring,"Altstadter Ring in Berlin, Germany",52.5375402,13.2005121,1,,,,,,,,Wells,"Altstadter Ring in Berlin, Germany",,german_fires_berlin_locations,6a555aba0298ec2a0f8edb2e2b549c9b,german_fires_berlin_locations__6a555aba0298ec2a0f8edb2e2b549c9b
altvaterstrasse,"Altvaterstrasse in Berlin, Germany",52.437783,13.2068497,1,,,,,,,,Consulates,"Altvaterstrasse in Berlin, Germany",,german_fires_berlin_locations,7d2befb123356619d8091926fb0625b7,german_fires_berlin_locations__7d2befb123356619d8091926fb0625b7
alvenslebenplatz,"Alvenslebenplatz in Berlin, Germany",52.3833542,13.4058713,1,,,,,,,,Exec,"Alvenslebenplatz in Berlin, Germany",,german_fires_berlin_locations,9751205a3576c1eadd4f056453a8ccfd,german_fires_berlin_locations__9751205a3576c1eadd4f056453a8ccfd
alvenslebenstrasse,"Alvenslebenstrasse in Berlin, Germany",52.4956068,13.3633875,1,,,,,,,,Shipping,"Alvenslebenstrasse in Berlin, Germany",,german_fires_berlin_locations,0ec645902cd26a0d959157f170d89360,german_fires_berlin_locations__0ec645902cd26a0d959157f170d89360
alwineweg,"Alwineweg in Berlin, Germany",52.5339035,13.569961,1,,,,,,,,IndustryTerm,"Alwineweg in Berlin, Germany",,german_fires_berlin_locations,50bb9d8a4d3d6f5a225170f014e6925c,german_fires_berlin_locations__50bb9d8a4d3d6f5a225170f014e6925c
alzeyweg,"Alzeyweg in Berlin, Germany",52.515856,13.5066746,1,,,,,,,,space,"Alzeyweg in Berlin, Germany",,german_fires_berlin_locations,5a5286728ca529dfe3ba9c6ff0a7e750,german_fires_berlin_locations__5a5286728ca529dfe3ba9c6ff0a7e750
am adlergestell,"Am Adlergestell in Berlin, Germany",52.4383347,13.5392053,1,,,,,,,,CompanyKeyword,"Am Adlergestell in Berlin, Germany",,german_fires_berlin_locations,6ee6fc172f70972698958aa7775c9a70,german_fires_berlin_locations__6ee6fc172f70972698958aa7775c9a70
am ahornweg,"Am Ahornweg in Berlin, Germany",52.5776303,13.5323855,1,,,,,,,,Media,"Am Ahornweg in Berlin, Germany",,german_fires_berlin_locations,806c55428058438558d42c638c6e93c7,german_fires_berlin_locations__806c55428058438558d42c638c6e93c7
am akazienweg,"Am Akazienweg in Berlin, Germany",52.5694672,13.2067046,1,,,,,,,,Pipeline,"Am Akazienweg in Berlin, Germany",,german_fires_berlin_locations,1a1b227614d9ce393131413a460de763,german_fires_berlin_locations__1a1b227614d9ce393131413a460de763
am alten fenn,"Am Alten Fenn in Berlin, Germany",52.4505753,13.5044443,1,,,,,,,,AAEntity,"Am Alten Fenn in Berlin, Germany",,german_fires_berlin_locations,f0e53e85a1260cf6c1af33bfe13f8cd2,german_fires_berlin_locations__f0e53e85a1260cf6c1af33bfe13f8cd2
am alten flugplatz,"Am alten Flugplatz in Berlin, Germany",52.4839836,13.5420623,1,,,,,,,,Refinery,"Am alten Flugplatz in Berlin, Germany",,german_fires_berlin_locations,188095f581d5d3e6aa721e680364ad79,german_fires_berlin_locations__188095f581d5d3e6aa721e680364ad79
am alten friedhof,"Am Alten Friedhof in Berlin, Germany",52.4203705,13.5287772,1,,,,,,,,LegislativeCommittee,"Am Alten Friedhof in Berlin, Germany",,german_fires_berlin_locations,3131a458741937a097dcd5941454bc42,german_fires_berlin_locations__3131a458741937a097dcd5941454bc42
am alten gaswerk,"Am alten Gaswerk in Berlin, Germany",52.5373387,13.13016,1,,,,,,,,Shipping,"Am alten Gaswerk in Berlin, Germany",,german_fires_berlin_locations,fea4a28ea705b2b6067db7adcdda3a56,german_fires_berlin_locations__fea4a28ea705b2b6067db7adcdda3a56
am alten lokschuppen,"Am Alten Lokschuppen in Berlin, Germany",52.504917,13.4825106,1,,,,,,,,ForeignMinistry,"Am Alten Lokschuppen in Berlin, Germany",,german_fires_berlin_locations,475eab4714c1ff275665e2b0f2ded332,german_fires_berlin_locations__475eab4714c1ff275665e2b0f2ded332
am alten malchower graben,"Am alten Malchower Graben in Berlin, Germany",52.5738221,13.4886957,1,,,,,,,,Shipping,"Am alten Malchower Graben in Berlin, Germany",,german_fires_berlin_locations,d4aecdc03c2aebf4787037c92ae89885,german_fires_berlin_locations__d4aecdc03c2aebf4787037c92ae89885
am amtsgraben,"Am Amtsgraben in Berlin, Germany",52.4430984,13.5854892,1,,,,,,,,AAEntity,"Am Amtsgraben in Berlin, Germany",,german_fires_berlin_locations,16387eea4709d8e5fd701c9ec9dc3518,german_fires_berlin_locations__16387eea4709d8e5fd701c9ec9dc3518
am anger,"Am Anger in Berlin, Germany",52.4535805,13.2840884,1,,,,,,,,ForeignMinister,"Am Anger in Berlin, Germany",,german_fires_berlin_locations,f5ccf3056052a49bcadbb2db10732cd3,german_fires_berlin_locations__f5ccf3056052a49bcadbb2db10732cd3
am ansitz,"Am Ansitz in Berlin, Germany",52.6047992,13.3112682,1,,,,,,,,Legislator,"Am Ansitz in Berlin, Germany",,german_fires_berlin_locations,1ebb3cf831ae90ff089eb5e59ae7998d,german_fires_berlin_locations__1ebb3cf831ae90ff089eb5e59ae7998d
am appelhorst,"Am Appelhorst in Berlin, Germany",52.4208083,13.4526343,1,,,,,,,,Diplomat,"Am Appelhorst in Berlin, Germany",,german_fires_berlin_locations,ce8bf9929a82190072c19a9c46afd560,german_fires_berlin_locations__ce8bf9929a82190072c19a9c46afd560
am ausblick,"Am Ausblick in Berlin, Germany",52.6320661,13.2729025,1,,,,,,,,Legislator,"Am Ausblick in Berlin, Germany",,german_fires_berlin_locations,c7e1007e98fe697780453b0753beae6d,german_fires_berlin_locations__c7e1007e98fe697780453b0753beae6d
am bachrain,"Am Bachrain in Berlin, Germany",52.5185907,13.5988461,1,,,,,,,,IndustryTerm,"Am Bachrain in Berlin, Germany",,german_fires_berlin_locations,2ff15a3ef91ed181f7b117cd7a1a1fba,german_fires_berlin_locations__2ff15a3ef91ed181f7b117cd7a1a1fba
am bahndamm,"Am Bahndamm in Berlin, Germany",52.4276289,13.5511314,1,,,,,,,,Shipping,"Am Bahndamm in Berlin, Germany",,german_fires_berlin_locations,6de87dfecf9cff16f5792572f74d47ac,german_fires_berlin_locations__6de87dfecf9cff16f5792572f74d47ac
am bahnhof grunewald,"Am Bahnhof Grunewald in Berlin, Germany",52.4875345,13.2633597,1,,,,,,,,Exec,"Am Bahnhof Grunewald in Berlin, Germany",,german_fires_berlin_locations,3d07e40f6d71b77451628793f6687163,german_fires_berlin_locations__3d07e40f6d71b77451628793f6687163
am bahnhof jungfernheide,"Am Bahnhof Jungfernheide in Berlin, Germany",52.530705,13.3004976,1,,,,,,,,ForeignMinistry,"Am Bahnhof Jungfernheide in Berlin, Germany",,german_fires_berlin_locations,f6438541aa1def0b8106ef34ecc9c1b0,german_fires_berlin_locations__f6438541aa1def0b8106ef34ecc9c1b0
am bahnhof spandau,"Am Bahnhof Spandau in Berlin, Germany",52.5344729,13.1948503,1,,,,,,,,IndustryTerm,"Am Bahnhof Spandau in Berlin, Germany",,german_fires_berlin_locations,876e8cbd326f111be74c80ac41e8c748,german_fires_berlin_locations__876e8cbd326f111be74c80ac41e8c748
am bahnhof westend,"Am Bahnhof Westend in Berlin, Germany",52.5178707,13.2854497,1,,,,,,,,CompanyKeyword,"Am Bahnhof Westend in Berlin, Germany",,german_fires_berlin_locations,3640468e350035c91dd48a7c100b86cf,german_fires_berlin_locations__3640468e350035c91dd48a7c100b86cf
am bahnhof wuhlheide,"Am Bahnhof Wuhlheide in Berlin, Germany",52.4687599,13.5515714,1,,,,,,,,Consulates,"Am Bahnhof Wuhlheide in Berlin, Germany",,german_fires_berlin_locations,f8d402b10272cccd0e4ab968cef948d5,german_fires_berlin_locations__f8d402b10272cccd0e4ab968cef948d5
am bakequell,"Am Bakequell in Berlin, Germany",52.4531534,13.3167962,1,,,,,,,,Exec,"Am Bakequell in Berlin, Germany",,german_fires_berlin_locations,6ab4c3ffd6a282b916f98c1566dc2646,german_fires_berlin_locations__6ab4c3ffd6a282b916f98c1566dc2646
am baltenring,"Am Baltenring in Berlin, Germany",52.5242429,13.5996167,1,,,,,,,,Person,"Am Baltenring in Berlin, Germany",,german_fires_berlin_locations,bb68b8b901ecff210c418ba93c39166d,german_fires_berlin_locations__bb68b8b901ecff210c418ba93c39166d
am barensprung,"Am Barensprung in Berlin, Germany",52.6102428,13.2449232,1,,,,,,,,AAEntity,"Am Barensprung in Berlin, Germany",,german_fires_berlin_locations,4d5e0ae1f941315fc2ffbbb05e269e44,german_fires_berlin_locations__4d5e0ae1f941315fc2ffbbb05e269e44
am barnim,"Am Barnim in Berlin, Germany",52.4993691,13.6061973,1,,,,,,,,Consulates,"Am Barnim in Berlin, Germany",,german_fires_berlin_locations,27e84598cf8894837c07a3c9cd8f5738,german_fires_berlin_locations__27e84598cf8894837c07a3c9cd8f5738
am bauernwaldchen,"Am Bauernwaldchen in Berlin, Germany",52.4125406,13.6704423,1,,,,,,,,DiplomaticFacilities,"Am Bauernwaldchen in Berlin, Germany",,german_fires_berlin_locations,117c8b17a705e81102cb043bf7f6bb71,german_fires_berlin_locations__117c8b17a705e81102cb043bf7f6bb71
am bauersee,"Am Bauersee in Berlin, Germany",52.4284716,13.6887483,1,,,,,,,,space,"Am Bauersee in Berlin, Germany",,german_fires_berlin_locations,ae1c65b9a2f903cb2c6f3fbb15553f44,german_fires_berlin_locations__ae1c65b9a2f903cb2c6f3fbb15553f44
am beelitzhof,"Am Beelitzhof in Berlin, Germany",52.4310855,13.1887995,1,,,,,,,,Refinery,"Am Beelitzhof in Berlin, Germany",,german_fires_berlin_locations,9d4eb306912b16a89e8532a642e5c5ab,german_fires_berlin_locations__9d4eb306912b16a89e8532a642e5c5ab
am berg,"Am Berg in Berlin, Germany",52.4446094,13.5869405,1,,,,,,,,Consulates,"Am Berg in Berlin, Germany",,german_fires_berlin_locations,14246b1f156d7c2547c47ba2a6cf58df,german_fires_berlin_locations__14246b1f156d7c2547c47ba2a6cf58df
am berghang,"Am Berghang in Berlin, Germany",52.4870253,13.177051,1,,,,,,,,Legislator,"Am Berghang in Berlin, Germany",,german_fires_berlin_locations,9f41b37f014953d2cb8e22379a6c748c,german_fires_berlin_locations__9f41b37f014953d2cb8e22379a6c748c
am bergpfuhl,"Am Bergpfuhl in Berlin, Germany",52.4439882,13.4228316,1,,,,,,,,Wells,"Am Bergpfuhl in Berlin, Germany",,german_fires_berlin_locations,fab948eeda44fa14b29637845a53e496,german_fires_berlin_locations__fab948eeda44fa14b29637845a53e496
am berl,"Am Berl in Berlin, Germany",52.5726823,13.4998579,1,,,,,,,,Shipping,"Am Berl in Berlin, Germany",,german_fires_berlin_locations,c8974ffc68de103158a2fe1dfc7afb11,german_fires_berlin_locations__c8974ffc68de103158a2fe1dfc7afb11
am berlin museum,"Am Berlin Museum in Berlin, Germany",52.5028014,13.3968486,1,,,,,,,,space,"Am Berlin Museum in Berlin, Germany",,german_fires_berlin_locations,5dc352aafbcd6803e09043814bf1df5e,german_fires_berlin_locations__5dc352aafbcd6803e09043814bf1df5e
am biberbau,"Am Biberbau in Berlin, Germany",52.6285363,13.2974101,1,,,,,,,,AAEntity,"Am Biberbau in Berlin, Germany",,german_fires_berlin_locations,c5b3d55780bbdb900551e957353a780c,german_fires_berlin_locations__c5b3d55780bbdb900551e957353a780c
am binsengrund,"Am Binsengrund in Berlin, Germany",52.4958542,13.5657009,1,,,,,,,,IndustryTerm,"Am Binsengrund in Berlin, Germany",,german_fires_berlin_locations,3d0d94101d8e23c35e34f4d01a46a968,german_fires_berlin_locations__3d0d94101d8e23c35e34f4d01a46a968
am birkenhugel,"Am Birkenhugel in Berlin, Germany",52.412805,13.1372908,1,,,,,,,,Consulates,"Am Birkenhugel in Berlin, Germany",,german_fires_berlin_locations,696103ee0c16677db636e974f2047edd,german_fires_berlin_locations__696103ee0c16677db636e974f2047edd
am birkenknick,"Am Birkenknick in Berlin, Germany",52.4153032,13.2672854,1,,,,,,,,Media,"Am Birkenknick in Berlin, Germany",,german_fires_berlin_locations,69790b24a5e90db64be213ee6afbb1d4,german_fires_berlin_locations__69790b24a5e90db64be213ee6afbb1d4
am birkenrevier,"Am Birkenrevier in Berlin, Germany",52.4766918,13.5330254,1,,,,,,,,Wells,"Am Birkenrevier in Berlin, Germany",,german_fires_berlin_locations,baf4817f9ac41117114e0b54f7b348b2,german_fires_berlin_locations__baf4817f9ac41117114e0b54f7b348b2
am birkenwerder,"Am Birkenwerder in Berlin, Germany",52.4868607,13.5698747,1,,,,,,,,LegislativeCommittee,"Am Birkenwerder in Berlin, Germany",,german_fires_berlin_locations,73e8aefb7e8e69c1a81003b721cd47ce,german_fires_berlin_locations__73e8aefb7e8e69c1a81003b721cd47ce
am bogen,"Am Bogen in Berlin, Germany",52.5519031,13.1586782,1,,,,,,,,Media,"Am Bogen in Berlin, Germany",,german_fires_berlin_locations,4873bb835a239647835638b6ecb6c7e7,german_fires_berlin_locations__4873bb835a239647835638b6ecb6c7e7
am bootshaus,"Am Bootshaus in Berlin, Germany",52.5537972,13.2148797,1,,,,,,,,IndustryTerm,"Am Bootshaus in Berlin, Germany",,german_fires_berlin_locations,70b0c01fe92c4b3266bdb9eb7dbf79a0,german_fires_berlin_locations__70b0c01fe92c4b3266bdb9eb7dbf79a0
am borsigturm,"Am Borsigturm in Berlin, Germany",52.5830488,13.2856406,1,,,,,,,,Organization,"Am Borsigturm in Berlin, Germany",,german_fires_berlin_locations,2b6e7af07569c7c4dcfaadd8bdadf1e8,german_fires_berlin_locations__2b6e7af07569c7c4dcfaadd8bdadf1e8
am botanischen garten,"Am Botanischen Garten in Berlin, Germany",52.4543806,13.3056024,1,,,,,,,,Wells,"Am Botanischen Garten in Berlin, Germany",,german_fires_berlin_locations,9eb1920609a9fcc0c78e3e951b93d64f,german_fires_berlin_locations__9eb1920609a9fcc0c78e3e951b93d64f
am bottcherberg,"Am Bottcherberg in Berlin, Germany",52.4120636,13.1074904,1,,,,,,,,Exec,"Am Bottcherberg in Berlin, Germany",,german_fires_berlin_locations,cebe599192198ebbaa30ae86ac59ab43,german_fires_berlin_locations__cebe599192198ebbaa30ae86ac59ab43
am brandpfuhl,"Am Brandpfuhl in Berlin, Germany",52.4431927,13.424952,1,,,,,,,,Person,"Am Brandpfuhl in Berlin, Germany",,german_fires_berlin_locations,c7cf0a248646d407bbb7018b411b303c,german_fires_berlin_locations__c7cf0a248646d407bbb7018b411b303c
am breiten luch,"Am Breiten Luch in Berlin, Germany",52.561764,13.5134276,1,,,,,,,,DiplomaticFacilities,"Am Breiten Luch in Berlin, Germany",,german_fires_berlin_locations,3c0841cc274882fa485e132cc3152dcd,german_fires_berlin_locations__3c0841cc274882fa485e132cc3152dcd
am bremsenwerk,"Am Bremsenwerk in Berlin, Germany",52.5058621,13.473853,1,,,,,,,,Exec,"Am Bremsenwerk in Berlin, Germany",,german_fires_berlin_locations,17244d191c2af65dd756eee112da5c8d,german_fires_berlin_locations__17244d191c2af65dd756eee112da5c8d
am brendegraben,"Am Brendegraben in Berlin, Germany",52.6127508,13.4483132,1,,,,,,,,DiplomaticFacilities,"Am Brendegraben in Berlin, Germany",,german_fires_berlin_locations,26a0f0f26fc2d9e9b549c42f8322e8d2,german_fires_berlin_locations__26a0f0f26fc2d9e9b549c42f8322e8d2
am britzer garten,"Am Britzer Garten in Berlin, Germany",52.4403296,13.4128274,1,,,,,,,,Consulates,"Am Britzer Garten in Berlin, Germany",,german_fires_berlin_locations,df45bc510ff68f060f5b435311bd7296,german_fires_berlin_locations__df45bc510ff68f060f5b435311bd7296
am brodersengarten,"Am Brodersengarten in Berlin, Germany",52.5033541,13.5729475,1,,,,,,,,LegislativeCommittee,"Am Brodersengarten in Berlin, Germany",,german_fires_berlin_locations,312be05ef083d10206d28384e9ddd600,german_fires_berlin_locations__312be05ef083d10206d28384e9ddd600
am bruchland,"Am Bruchland in Berlin, Germany",52.4252044,13.5294269,1,,,,,,,,Refinery,"Am Bruchland in Berlin, Germany",,german_fires_berlin_locations,24b7f2c8e581e075673e82c9b6bab778,german_fires_berlin_locations__24b7f2c8e581e075673e82c9b6bab778
am brunnen,"Am Brunnen in Berlin, Germany",52.5942112,13.2984404,1,,,,,,,,Refinery,"Am Brunnen in Berlin, Germany",,german_fires_berlin_locations,708d2205240833712d74ed48e10f7f0a,german_fires_berlin_locations__708d2205240833712d74ed48e10f7f0a
am buchenberg,"Am Buchenberg in Berlin, Germany",52.6149122,13.2966197,1,,,,,,,,Organization,"Am Buchenberg in Berlin, Germany",,german_fires_berlin_locations,003a9459d8066c5dfc5a862c56509a39,german_fires_berlin_locations__003a9459d8066c5dfc5a862c56509a39
am buckersberg,"Am Buckersberg in Berlin, Germany",52.44289,13.4882049,1,,,,,,,,ForeignMinistry,"Am Buckersberg in Berlin, Germany",,german_fires_berlin_locations,e7b9e67926b11c55db49edff7c0d0e04,german_fires_berlin_locations__e7b9e67926b11c55db49edff7c0d0e04
am buddeplatz,"Am Buddeplatz in Berlin, Germany",52.5888642,13.2877866,1,,,,,,,,Legislator,"Am Buddeplatz in Berlin, Germany",,german_fires_berlin_locations,0c72b63d6d8baf543699cce83290c2dd,german_fires_berlin_locations__0c72b63d6d8baf543699cce83290c2dd
am burgerpark,"Am Burgerpark in Berlin, Germany",52.5701821,13.3871543,1,,,,,,,,AAEntity,"Am Burgerpark in Berlin, Germany",,german_fires_berlin_locations,5be0700d57488e8a45be08c5e88cbae3,german_fires_berlin_locations__5be0700d57488e8a45be08c5e88cbae3
am buschfeld,"Am Buschfeld in Berlin, Germany",52.4211204,13.4560625,1,,,,,,,,Refinery,"Am Buschfeld in Berlin, Germany",,german_fires_berlin_locations,2f573d8161c3cc3256d0a929c2230c45,german_fires_berlin_locations__2f573d8161c3cc3256d0a929c2230c45
am carlsgarten,"Am Carlsgarten in Berlin, Germany",52.4783435,13.530856,1,,,,,,,,Refinery,"Am Carlsgarten in Berlin, Germany",,german_fires_berlin_locations,e1ce94d36b34b43e48915ad9202356af,german_fires_berlin_locations__e1ce94d36b34b43e48915ad9202356af
am carolinenhof,"Am Carolinenhof in Berlin, Germany",52.4441405,13.1289419,1,,,,,,,,Diplomat,"Am Carolinenhof in Berlin, Germany",,german_fires_berlin_locations,bf30422df72b32110d9c0da16ee443d3,german_fires_berlin_locations__bf30422df72b32110d9c0da16ee443d3
am cleantech business park,"Am Cleantech Business Park in Berlin, Germany",52.5565802,13.5380195,1,,,,,,,,Media,"Am Cleantech Business Park in Berlin, Germany",,german_fires_berlin_locations,66afcc62374472c6ffdfb963cdf0e920,german_fires_berlin_locations__66afcc62374472c6ffdfb963cdf0e920
am comeniusplatz,"Am Comeniusplatz in Berlin, Germany",52.5123008,13.4482589,1,,,,,,,,Refinery,"Am Comeniusplatz in Berlin, Germany",,german_fires_berlin_locations,c0516c5399a1d3baf49693c9f3a469d5,german_fires_berlin_locations__c0516c5399a1d3baf49693c9f3a469d5
am containerbahnhof,"Am Containerbahnhof in Berlin, Germany",52.5147213,13.4773166,1,,,,,,,,FTO,"Am Containerbahnhof in Berlin, Germany",,german_fires_berlin_locations,f2a4208f6e8d1b58c24beea8a720b9b6,german_fires_berlin_locations__f2a4208f6e8d1b58c24beea8a720b9b6
am dachsbau,"Am Dachsbau in Berlin, Germany",52.6139559,13.2323518,1,,,,,,,,Wells,"Am Dachsbau in Berlin, Germany",,german_fires_berlin_locations,34ad330d96f2e54066e1d3ae9d275ecf,german_fires_berlin_locations__34ad330d96f2e54066e1d3ae9d275ecf
am dahlingsberg,"Am Dahlingsberg in Berlin, Germany",52.5096488,13.3759441,1,,,,,,,,Consulates,"Am Dahlingsberg in Berlin, Germany",,german_fires_berlin_locations,956100ed4e251f14bbe1d0e8b5b7f3c1,german_fires_berlin_locations__956100ed4e251f14bbe1d0e8b5b7f3c1
am damm,"Am Damm in Berlin, Germany",52.4576457,13.634234,1,,,,,,,,Exec,"Am Damm in Berlin, Germany",,german_fires_berlin_locations,f04d78d9d1ae97fb7b6085342b92febc,german_fires_berlin_locations__f04d78d9d1ae97fb7b6085342b92febc
am danewend,"Am Danewend in Berlin, Germany",52.6155929,13.4759765,1,,,,,,,,News,"Am Danewend in Berlin, Germany",,german_fires_berlin_locations,bce03348f6601b402c4d08e3f7e67a93,german_fires_berlin_locations__bce03348f6601b402c4d08e3f7e67a93
am dianaplatz,"Am Dianaplatz in Berlin, Germany",52.6060892,13.3136963,1,,,,,,,,Wells,"Am Dianaplatz in Berlin, Germany",,german_fires_berlin_locations,2e243d4209a2fed27c676bc6cfb471dd,german_fires_berlin_locations__2e243d4209a2fed27c676bc6cfb471dd
am doggelhof,"Am Doggelhof in Berlin, Germany",52.5674682,13.3194866,1,,,,,,,,ForeignMinister,"Am Doggelhof in Berlin, Germany",,german_fires_berlin_locations,49591220ca7314d90bdf8c97f2438796,german_fires_berlin_locations__49591220ca7314d90bdf8c97f2438796
am dominikusteich,"Am Dominikusteich in Berlin, Germany",52.6222509,13.2942628,1,,,,,,,,DiplomaticFacilities,"Am Dominikusteich in Berlin, Germany",,german_fires_berlin_locations,010efd5cd7c3891024b232b761205e86,german_fires_berlin_locations__010efd5cd7c3891024b232b761205e86
am donnerberg,"Am Donnerberg in Berlin, Germany",52.4686671,13.1309975,1,,,,,,,,LegislativeCommittee,"Am Donnerberg in Berlin, Germany",,german_fires_berlin_locations,18c7a82cf220ca234b661e9b8ebe6a89,german_fires_berlin_locations__18c7a82cf220ca234b661e9b8ebe6a89
am dorfanger,"Am Dorfanger in Berlin, Germany",52.5917181,13.3230276,1,,,,,,,,DiplomaticFacilities,"Am Dorfanger in Berlin, Germany",,german_fires_berlin_locations,9981b867ff5d412171e74d9ab203d88e,german_fires_berlin_locations__9981b867ff5d412171e74d9ab203d88e
am dorferweg,"Am Dorferweg in Berlin, Germany",52.5742046,13.559884,1,,,,,,,,Media,"Am Dorferweg in Berlin, Germany",,german_fires_berlin_locations,469c390cfed5be57ccf6e0ef19bc29bf,german_fires_berlin_locations__469c390cfed5be57ccf6e0ef19bc29bf
am dorfteich,"Am Dorfteich in Berlin, Germany",52.6105657,13.2520084,1,,,,,,,,Media,"Am Dorfteich in Berlin, Germany",,german_fires_berlin_locations,eb1502425f61def4f3d31b619a3a6d1e,german_fires_berlin_locations__eb1502425f61def4f3d31b619a3a6d1e
am dorfwald,"Am Dorfwald in Berlin, Germany",52.453725,13.1373032,1,,,,,,,,ForeignMinistry,"Am Dorfwald in Berlin, Germany",,german_fires_berlin_locations,dbd5cf63aca043f6ca52e16aa323645f,german_fires_berlin_locations__dbd5cf63aca043f6ca52e16aa323645f
am dornbusch,"Am Dornbusch in Berlin, Germany",52.4972135,13.2699492,1,,,,,,,,space,"Am Dornbusch in Berlin, Germany",,german_fires_berlin_locations,40f34f6c5213e63f8398bc600fe0b6aa,german_fires_berlin_locations__40f34f6c5213e63f8398bc600fe0b6aa
am eichenhain,"Am Eichenhain in Berlin, Germany",52.6328885,13.2659851,1,,,,,,,,IndustryTerm,"Am Eichenhain in Berlin, Germany",,german_fires_berlin_locations,e0b3fc2f29abfed37ecd96dc10e61e9c,german_fires_berlin_locations__e0b3fc2f29abfed37ecd96dc10e61e9c
am eichenquast,"Am Eichenquast in Berlin, Germany",52.4207505,13.4484423,1,,,,,,,,Diplomat,"Am Eichenquast in Berlin, Germany",,german_fires_berlin_locations,32c248c3bb5d84ccb724544e17be40e0,german_fires_berlin_locations__32c248c3bb5d84ccb724544e17be40e0
am eichgarten,"Am Eichgarten in Berlin, Germany",52.44568,13.3353896,1,,,,,,,,Diplomat,"Am Eichgarten in Berlin, Germany",,german_fires_berlin_locations,5d17d328f1282fb383087ffa8c99ccd1,german_fires_berlin_locations__5d17d328f1282fb383087ffa8c99ccd1
am elsebrocken,"Am Elsebrocken in Berlin, Germany",52.6193839,13.4849534,1,,,,,,,,Wells,"Am Elsebrocken in Berlin, Germany",,german_fires_berlin_locations,b1f384bad63016da787a953cea5d25b5,german_fires_berlin_locations__b1f384bad63016da787a953cea5d25b5
am elsenbruch,"Am Elsenbruch in Berlin, Germany",52.4424926,13.3303524,1,,,,,,,,Refinery,"Am Elsenbruch in Berlin, Germany",,german_fires_berlin_locations,0a5710640d23d6e37a600fc6e538cf57,german_fires_berlin_locations__0a5710640d23d6e37a600fc6e538cf57
am erlenbusch,"Am Erlenbusch in Berlin, Germany",52.4645458,13.3024861,1,,,,,,,,LegislativeCommittee,"Am Erlenbusch in Berlin, Germany",,german_fires_berlin_locations,650c4f335079b65bbb5ada302ca28437,german_fires_berlin_locations__650c4f335079b65bbb5ada302ca28437
am ernst-grube-park,"Am Ernst-Grube-Park in Berlin, Germany",52.4511805,13.5623439,1,,,,,,,,ForeignMinistry,"Am Ernst-Grube-Park in Berlin, Germany",,german_fires_berlin_locations,029392c412bcb6aee2ca91ffb5626127,german_fires_berlin_locations__029392c412bcb6aee2ca91ffb5626127
am espenpfuhl,"Am Espenpfuhl in Berlin, Germany",52.4107088,13.508464,1,,,,,,,,IndustryTerm,"Am Espenpfuhl in Berlin, Germany",,german_fires_berlin_locations,5d595208f30cf411f91b7951eb1271f7,german_fires_berlin_locations__5d595208f30cf411f91b7951eb1271f7
am eulenhorst,"Am Eulenhorst in Berlin, Germany",52.5818282,13.2296462,1,,,,,,,,CompanyKeyword,"Am Eulenhorst in Berlin, Germany",,german_fires_berlin_locations,1810cee285188ab8a562676b6772ccdc,german_fires_berlin_locations__1810cee285188ab8a562676b6772ccdc
am falkenberg,"Am Falkenberg in Berlin, Germany",52.4149144,13.5608101,1,,,,,,,,Media,"Am Falkenberg in Berlin, Germany",,german_fires_berlin_locations,b2fd097cfa299feb56bb9fccecef999f,german_fires_berlin_locations__b2fd097cfa299feb56bb9fccecef999f
am falkplatz,"Am Falkplatz in Berlin, Germany",52.5464076,13.405695,1,,,,,,,,space,"Am Falkplatz in Berlin, Germany",,german_fires_berlin_locations,21ac7214c46844e38f200f2c6265ffe0,german_fires_berlin_locations__21ac7214c46844e38f200f2c6265ffe0
am faulen see,"Am Faulen See in Berlin, Germany",52.5541592,13.4970027,1,,,,,,,,Pipeline,"Am Faulen See in Berlin, Germany",,german_fires_berlin_locations,d53a48b1a066ff23acc7deedec43248c,german_fires_berlin_locations__d53a48b1a066ff23acc7deedec43248c
am feldberg,"Am Feldberg in Berlin, Germany",52.5039001,13.5876136,1,,,,,,,,Consulates,"Am Feldberg in Berlin, Germany",,german_fires_berlin_locations,0530331cd41de2e072010d7a8a6a4147,german_fires_berlin_locations__0530331cd41de2e072010d7a8a6a4147
am fenn,"Am Fenn in Berlin, Germany",52.4465521,13.3398327,1,,,,,,,,DiplomaticFacilities,"Am Fenn in Berlin, Germany",,german_fires_berlin_locations,cf160e131f201b6366061e74b29d836c,german_fires_berlin_locations__cf160e131f201b6366061e74b29d836c
am festplatz,"Am Festplatz in Berlin, Germany",52.5520776,13.3043733,1,,,,,,,,Keyphrase,"Am Festplatz in Berlin, Germany",,german_fires_berlin_locations,18179a53300e6929e12ee1061df09f8c,german_fires_berlin_locations__18179a53300e6929e12ee1061df09f8c
am festungsgraben,"Am Festungsgraben in Berlin, Germany",52.5184048,13.3956089,1,,,,,,,,Legislator,"Am Festungsgraben in Berlin, Germany",,german_fires_berlin_locations,127b77e6151d1e63d51908340f5485e8,german_fires_berlin_locations__127b77e6151d1e63d51908340f5485e8
am feuchten winkel,"Am Feuchten Winkel in Berlin, Germany",52.5798763,13.4337833,1,,,,,,,,Shipping,"Am Feuchten Winkel in Berlin, Germany",,german_fires_berlin_locations,1153f683eebdff6a4a30acf1f344743c,german_fires_berlin_locations__1153f683eebdff6a4a30acf1f344743c
am fichtenberg,"Am Fichtenberg in Berlin, Germany",52.4536984,13.3111543,1,,,,,,,,Person,"Am Fichtenberg in Berlin, Germany",,german_fires_berlin_locations,909230c107c1124152a12e9fc30ea94e,german_fires_berlin_locations__909230c107c1124152a12e9fc30ea94e
am filmlager,"Am Filmlager in Berlin, Germany",52.4495543,13.58389,1,,,,,,,,Legislator,"Am Filmlager in Berlin, Germany",,german_fires_berlin_locations,45e0f6812113f9c91b9897d6fcf0bd79,german_fires_berlin_locations__45e0f6812113f9c91b9897d6fcf0bd79
am finkenherd,"Am Finkenherd in Berlin, Germany",52.5498081,13.1497059,1,,,,,,,,Person,"Am Finkenherd in Berlin, Germany",,german_fires_berlin_locations,72924d01db45d184f9616fec018a6034,german_fires_berlin_locations__72924d01db45d184f9616fec018a6034
am fischtal,"Am Fischtal in Berlin, Germany",52.4472886,13.2588324,1,,,,,,,,News,"Am Fischtal in Berlin, Germany",,german_fires_berlin_locations,b046b3e07b3791f36b13ddc0f7df4ae6,german_fires_berlin_locations__b046b3e07b3791f36b13ddc0f7df4ae6
am fliederbusch,"Am Fliederbusch in Berlin, Germany",52.4971811,13.2685564,1,,,,,,,,LegislativeCommittee,"Am Fliederbusch in Berlin, Germany",,german_fires_berlin_locations,34f855c8279dd4cdadcdbb23f1f58636,german_fires_berlin_locations__34f855c8279dd4cdadcdbb23f1f58636
am fliess,"Am Fliess in Berlin, Germany",52.5886125,13.461943,1,,,,,,,,ForeignMinistry,"Am Fliess in Berlin, Germany",,german_fires_berlin_locations,ee313df5960cc23c57ffff82338ea370,german_fires_berlin_locations__ee313df5960cc23c57ffff82338ea370
am flugplatz gatow,"Am Flugplatz Gatow in Berlin, Germany",52.4724749,13.1282264,1,,,,,,,,AAEntity,"Am Flugplatz Gatow in Berlin, Germany",,german_fires_berlin_locations,9043b554065b3c2fafc5c2516eb25a6b,german_fires_berlin_locations__9043b554065b3c2fafc5c2516eb25a6b
am flutgraben,"Am Flutgraben in Berlin, Germany",52.496827,13.4507064,1,,,,,,,,Keyphrase,"Am Flutgraben in Berlin, Germany",,german_fires_berlin_locations,6d953a290b18e68a84b6a1e03356082c,german_fires_berlin_locations__6d953a290b18e68a84b6a1e03356082c
am folzberg,"Am Folzberg in Berlin, Germany",52.6137927,13.3547374,1,,,,,,,,Organization,"Am Folzberg in Berlin, Germany",,german_fires_berlin_locations,f56f7672db67b0d407a26cb4ea42070e,german_fires_berlin_locations__f56f7672db67b0d407a26cb4ea42070e
am forstacker,"Am Forstacker in Berlin, Germany",52.5637637,13.2005142,1,,,,,,,,Wells,"Am Forstacker in Berlin, Germany",,german_fires_berlin_locations,5933723b88bcdfb26a3250dfaf40d425,german_fires_berlin_locations__5933723b88bcdfb26a3250dfaf40d425
am fort,"Am Fort in Berlin, Germany",52.5217951,13.1343342,1,,,,,,,,ForeignMinistry,"Am Fort in Berlin, Germany",,german_fires_berlin_locations,82074ddd6d3c048c6d7bc1f83c861928,german_fires_berlin_locations__82074ddd6d3c048c6d7bc1f83c861928
am freibad,"Am Freibad in Berlin, Germany",52.6189991,13.3340231,1,,,,,,,,space,"Am Freibad in Berlin, Germany",,german_fires_berlin_locations,bf1bcb7b588a7d217d8d7aff7d4921bf,german_fires_berlin_locations__bf1bcb7b588a7d217d8d7aff7d4921bf
am friedrichshain,"Am Friedrichshain in Berlin, Germany",52.5293532,13.4297552,1,,,,,,,,Refinery,"Am Friedrichshain in Berlin, Germany",,german_fires_berlin_locations,52baafa62b5bc88c2b3619d99a1e616d,german_fires_berlin_locations__52baafa62b5bc88c2b3619d99a1e616d
am fuchsbau,"Am Fuchsbau in Berlin, Germany",52.6108663,13.2333455,1,,,,,,,,ForeignMinister,"Am Fuchsbau in Berlin, Germany",,german_fires_berlin_locations,1b1339a60418b547169f764730047f8f,german_fires_berlin_locations__1b1339a60418b547169f764730047f8f
am fuchspass,"Am Fuchspass in Berlin, Germany",52.4527426,13.2547887,1,,,,,,,,LegislativeCommittee,"Am Fuchspass in Berlin, Germany",,german_fires_berlin_locations,e42f362276c451c5167835ebeb345cab,german_fires_berlin_locations__e42f362276c451c5167835ebeb345cab
am gartenstadtweg,"Am Gartenstadtweg in Berlin, Germany",52.4088364,13.5635576,1,,,,,,,,Media,"Am Gartenstadtweg in Berlin, Germany",,german_fires_berlin_locations,cb966d94ce2da79e7b6b5ead57ed471a,german_fires_berlin_locations__cb966d94ce2da79e7b6b5ead57ed471a
am gehrensee,"Am Gehrensee in Berlin, Germany",52.5725441,13.5648464,1,,,,,,,,space,"Am Gehrensee in Berlin, Germany",,german_fires_berlin_locations,40159f3610356eaedd800a576ffb7156,german_fires_berlin_locations__40159f3610356eaedd800a576ffb7156
am gemeindepark,"Am Gemeindepark in Berlin, Germany",52.4297716,13.3508828,1,,,,,,,,AAEntity,"Am Gemeindepark in Berlin, Germany",,german_fires_berlin_locations,9ec3244fd7cfae7ff8752106a7f1b1d9,german_fires_berlin_locations__9ec3244fd7cfae7ff8752106a7f1b1d9
am generalshof,"Am Generalshof in Berlin, Germany",52.4521723,13.5744108,1,,,,,,,,Wells,"Am Generalshof in Berlin, Germany",,german_fires_berlin_locations,81c4074f058dd98e144c6a2f5a8293a5,german_fires_berlin_locations__81c4074f058dd98e144c6a2f5a8293a5
am genossenschaftsring,"Am Genossenschaftsring in Berlin, Germany",52.575093,13.5212753,1,,,,,,,,Shipping,"Am Genossenschaftsring in Berlin, Germany",,german_fires_berlin_locations,3b4000b9eb3fff5466ac750a369eda17,german_fires_berlin_locations__3b4000b9eb3fff5466ac750a369eda17
am gewerbepark,"Am Gewerbepark in Berlin, Germany",52.5221954,13.5655571,1,,,,,,,,Person,"Am Gewerbepark in Berlin, Germany",,german_fires_berlin_locations,41a5a06c70227f238c86c65f0f7bf3f7,german_fires_berlin_locations__41a5a06c70227f238c86c65f0f7bf3f7
am glinigk,"Am Glinigk in Berlin, Germany",52.4255144,13.5238337,1,,,,,,,,Shipping,"Am Glinigk in Berlin, Germany",,german_fires_berlin_locations,64b34b7e9cfa90c0a17e7f56f42d4134,german_fires_berlin_locations__64b34b7e9cfa90c0a17e7f56f42d4134
am glockenturm,"Am Glockenturm in Berlin, Germany",52.5139732,13.2320509,1,,,,,,,,ForeignMinister,"Am Glockenturm in Berlin, Germany",,german_fires_berlin_locations,b24d025bc2041fbea830d58e062eba02,german_fires_berlin_locations__b24d025bc2041fbea830d58e062eba02
am goldmannpark,"Am Goldmannpark in Berlin, Germany",52.4558711,13.6308113,1,,,,,,,,DiplomaticFacilities,"Am Goldmannpark in Berlin, Germany",,german_fires_berlin_locations,794903cbe60c089e2d0b59c89a0184cd,german_fires_berlin_locations__794903cbe60c089e2d0b59c89a0184cd
am graben,"Am Graben in Berlin, Germany",52.5736848,13.4667617,1,,,,,,,,Wells,"Am Graben in Berlin, Germany",,german_fires_berlin_locations,6aab2e78316c18db451bc135ae40c667,german_fires_berlin_locations__6aab2e78316c18db451bc135ae40c667
am groen,"Am Groen in Berlin, Germany",52.5034708,13.5761145,1,,,,,,,,ForeignMinistry,"Am Groen in Berlin, Germany",,german_fires_berlin_locations,b541efcb958e43093236ddc28efa2dda,german_fires_berlin_locations__b541efcb958e43093236ddc28efa2dda
am grossen rohrpfuhl,"Am Grossen Rohrpfuhl in Berlin, Germany",52.4123678,13.4941274,1,,,,,,,,Pipeline,"Am Grossen Rohrpfuhl in Berlin, Germany",,german_fires_berlin_locations,18911d7ffd48fbbc0e91c79473b0ab1f,german_fires_berlin_locations__18911d7ffd48fbbc0e91c79473b0ab1f
