german_text,caption_text,lat,lon,ranking,default location,default_lat,default_lon,,ss,ENTITY_LABEL,name,description,source,source_identifier,global_identifier
altenfurt,"Altenfurt in Nuremberg, Germany",49.4063738,11.1738314,2,"Nuremberg, Germany",49.45033536,11.10205625,,u,DiplomaticFacilities,"Altenfurt in Nuremberg, Germany",,german_fires_nuremberg_locations,52f23251a46f8bfa82a5fff97368fca4,german_fires_nuremberg_locations__52f23251a46f8bfa82a5fff97368fca4
barenschanze,"Barenschanze in Nuremberg, Germany",49.4528905,11.048146,2,,,,,a,ForeignMinistry,"Barenschanze in Nuremberg, Germany",,german_fires_nuremberg_locations,3fb62f9d7f253ccac3d98cc78a0cc596,german_fires_nuremberg_locations__3fb62f9d7f253ccac3d98cc78a0cc596
boxdorf,"Boxdorf in Nuremberg, Germany",49.5163637,11.0172093,2,,,,,o,Exec,"Boxdorf in Nuremberg, Germany",,german_fires_nuremberg_locations,5c75feb88c20da16cbb98959d0696134,german_fires_nuremberg_locations__5c75feb88c20da16cbb98959d0696134
brunn,"Brunn in Nuremberg, Germany",49.4251963,11.2663657,2,,,,,,AAEntity,"Brunn in Nuremberg, Germany",,german_fires_nuremberg_locations,f14fef15bc524872a1b7120f86ab6571,german_fires_nuremberg_locations__f14fef15bc524872a1b7120f86ab6571
buch,"Buch in Nuremberg, Germany",49.4967937,11.0332553,2,,,,,,Pipeline,"Buch in Nuremberg, Germany",,german_fires_nuremberg_locations,76b92361ac8b3f5048e21abc5044a30d,german_fires_nuremberg_locations__76b92361ac8b3f5048e21abc5044a30d
buchenbuhl,"Buchenbuhl in Nuremberg, Germany",49.5019203,11.1134309,2,,,,,,Pipeline,"Buchenbuhl in Nuremberg, Germany",,german_fires_nuremberg_locations,2658c49305ef1006ed74d252e7e679a2,german_fires_nuremberg_locations__2658c49305ef1006ed74d252e7e679a2
eibach,"Eibach in Nuremberg, Germany",49.4016318,11.0329845,2,,,,,,News,"Eibach in Nuremberg, Germany",,german_fires_nuremberg_locations,fc7626827fbb2e8977e3805c00a17f4f,german_fires_nuremberg_locations__fc7626827fbb2e8977e3805c00a17f4f
erlenstegen,"Erlenstegen in Nuremberg, Germany",49.4739513,11.1362907,2,,,,,,DiplomaticFacilities,"Erlenstegen in Nuremberg, Germany",,german_fires_nuremberg_locations,1c63106755dcb9135b8bdcb1b607e5ea,german_fires_nuremberg_locations__1c63106755dcb9135b8bdcb1b607e5ea
fischbach,"Fischbach in Nuremberg, Germany",49.4212752,11.1883033,2,,,,,,DiplomaticFacilities,"Fischbach in Nuremberg, Germany",,german_fires_nuremberg_locations,4546ab2139898dd5f2833cb4f7038438,german_fires_nuremberg_locations__4546ab2139898dd5f2833cb4f7038438
gartenstadt,"Gartenstadt in Nuremberg, Germany",49.4071263,11.0825771,2,,,,,,CompanyKeyword,"Gartenstadt in Nuremberg, Germany",,german_fires_nuremberg_locations,e9f8d80cebf3cf15600ad1e56c40d537,german_fires_nuremberg_locations__e9f8d80cebf3cf15600ad1e56c40d537
gebersdorf,"Gebersdorf in Nuremberg, Germany",49.4295423,11.0101273,2,,,,,,space,"Gebersdorf in Nuremberg, Germany",,german_fires_nuremberg_locations,3aa3d8fe18b535c186ffdd555ee225bf,german_fires_nuremberg_locations__3aa3d8fe18b535c186ffdd555ee225bf
gerasmuhle,"Gerasmuhle in Nuremberg, Germany",49.4528471,11.0495401,2,,,,,,AAEntity,"Gerasmuhle in Nuremberg, Germany",,german_fires_nuremberg_locations,c29f983705364b4eaa24f7d30fc5670c,german_fires_nuremberg_locations__c29f983705364b4eaa24f7d30fc5670c
gibitzenhof,"Gibitzenhof in Nuremberg, Germany",49.4330228,11.067414,2,,,,,,Organization,"Gibitzenhof in Nuremberg, Germany",,german_fires_nuremberg_locations,10eccdb0bbb6b8f308185baabf2e49ca,german_fires_nuremberg_locations__10eccdb0bbb6b8f308185baabf2e49ca
gleisshammer,"Gleisshammer in Nuremberg, Germany",49.4448534,11.1179108,2,,,,,,space,"Gleisshammer in Nuremberg, Germany",,german_fires_nuremberg_locations,bf59bf55c288f29b002b5a1bd7bc2db4,german_fires_nuremberg_locations__bf59bf55c288f29b002b5a1bd7bc2db4
grossgrundlach,"Grossgrundlach in Nuremberg, Germany",49.5303449,11.0057382,2,,,,,,Consulates,"Grossgrundlach in Nuremberg, Germany",,german_fires_nuremberg_locations,e799630e23c5791ac8aa7f86a43a07cb,german_fires_nuremberg_locations__e799630e23c5791ac8aa7f86a43a07cb
herpersdorf,"Herpersdorf in Nuremberg, Germany",49.3729198,11.0774885,2,,,,,,Refinery,"Herpersdorf in Nuremberg, Germany",,german_fires_nuremberg_locations,af80de5535088b24374fd6b09dd374e6,german_fires_nuremberg_locations__af80de5535088b24374fd6b09dd374e6
herrnhutte,"Herrnhutte in Nuremberg, Germany",49.478119,11.1110742,2,,,,,,Person,"Herrnhutte in Nuremberg, Germany",,german_fires_nuremberg_locations,8fa74f47f14fdc900a328bfca37395f2,german_fires_nuremberg_locations__8fa74f47f14fdc900a328bfca37395f2
hofen,"Hofen in Nuremberg, Germany",49.4499961,11.011408,2,,,,,,Shipping,"Hofen in Nuremberg, Germany",,german_fires_nuremberg_locations,69aad46e592a78f897af91af53e472b4,german_fires_nuremberg_locations__69aad46e592a78f897af91af53e472b4
katzwang,"Katzwang in Nuremberg, Germany",49.3515961,11.0588978,2,,,,,,Legislator,"Katzwang in Nuremberg, Germany",,german_fires_nuremberg_locations,a993755cc485ad8effcc47d226c7980a,german_fires_nuremberg_locations__a993755cc485ad8effcc47d226c7980a
klingenhof,"Klingenhof in Nuremberg, Germany",49.4774767,11.1136782,2,,,,,,Wells,"Klingenhof in Nuremberg, Germany",,german_fires_nuremberg_locations,8e459002d642f40913055d2c98ee30df,german_fires_nuremberg_locations__8e459002d642f40913055d2c98ee30df
kornburg,"Kornburg in Nuremberg, Germany",49.3552331,11.1009393,2,,,,,,News,"Kornburg in Nuremberg, Germany",,german_fires_nuremberg_locations,7a8398a3fcfbf41af7d4f61811431160,german_fires_nuremberg_locations__7a8398a3fcfbf41af7d4f61811431160
kraftshof,"Kraftshof in Nuremberg, Germany",49.5082512,11.0479698,2,,,,,,AAEntity,"Kraftshof in Nuremberg, Germany",,german_fires_nuremberg_locations,cce19fd5967dc6038d98ea78ff7e47b6,german_fires_nuremberg_locations__cce19fd5967dc6038d98ea78ff7e47b6
langwasser,"Langwasser in Nuremberg, Germany",49.413795,11.1394785,2,,,,,,Person,"Langwasser in Nuremberg, Germany",,german_fires_nuremberg_locations,f6c936d12fe38fe38610830180871832,german_fires_nuremberg_locations__f6c936d12fe38fe38610830180871832
laufamholz,"Laufamholz in Nuremberg, Germany",49.4662671,11.1626241,2,,,,,,Legislator,"Laufamholz in Nuremberg, Germany",,german_fires_nuremberg_locations,53cd2b12cb9dc7128e61007d6be32ed8,german_fires_nuremberg_locations__53cd2b12cb9dc7128e61007d6be32ed8
maxfeld,"Maxfeld in Nuremberg, Germany",49.4670821,11.0876989,2,,,,,,Keyphrase,"Maxfeld in Nuremberg, Germany",,german_fires_nuremberg_locations,a56a69193ea2ce28debc3b1a8cbb1c38,german_fires_nuremberg_locations__a56a69193ea2ce28debc3b1a8cbb1c38
mogeldorf,"Mogeldorf in Nuremberg, Germany",49.462323,11.1367537,2,,,,,,Diplomat,"Mogeldorf in Nuremberg, Germany",,german_fires_nuremberg_locations,631bc2dd0056f9f1cbc1367c7ec6c380,german_fires_nuremberg_locations__631bc2dd0056f9f1cbc1367c7ec6c380
moorenbrunn,"Moorenbrunn in Nuremberg, Germany",49.3971631,11.1718678,2,,,,,,Diplomat,"Moorenbrunn in Nuremberg, Germany",,german_fires_nuremberg_locations,37bd650f709c4e16ee4809afcf517c87,german_fires_nuremberg_locations__37bd650f709c4e16ee4809afcf517c87
neunhof,"Neunhof in Nuremberg, Germany",49.5237689,11.04731,2,,,,,,space,"Neunhof in Nuremberg, Germany",,german_fires_nuremberg_locations,9f9a8d7328e5c9560ca32d1cc94065ce,german_fires_nuremberg_locations__9f9a8d7328e5c9560ca32d1cc94065ce
pillenreuth,"Pillenreuth in Nuremberg, Germany",49.37904,11.0739885,2,,,,,,Refinery,"Pillenreuth in Nuremberg, Germany",,german_fires_nuremberg_locations,dcacface4eaeb604521f9dc32da9a369,german_fires_nuremberg_locations__dcacface4eaeb604521f9dc32da9a369
reichelsdorf,"Reichelsdorf in Nuremberg, Germany",49.3811958,11.0316898,2,,,,,,Organization,"Reichelsdorf in Nuremberg, Germany",,german_fires_nuremberg_locations,5b7006f93aaa0ed1d822d3aff606bdd5,german_fires_nuremberg_locations__5b7006f93aaa0ed1d822d3aff606bdd5
rothenbach,"Rothenbach in Nuremberg, Germany",49.4159978,11.0374699,2,,,,,,Shipping,"Rothenbach in Nuremberg, Germany",,german_fires_nuremberg_locations,fb8eb96f8e7ca59d5ebb33a6b713e433,german_fires_nuremberg_locations__fb8eb96f8e7ca59d5ebb33a6b713e433
schafhof,"Schafhof in Nuremberg, Germany",49.4801802,11.1251765,2,,,,,,Pipeline,"Schafhof in Nuremberg, Germany",,german_fires_nuremberg_locations,3040f818c36511dc2450c3b683bb565c,german_fires_nuremberg_locations__3040f818c36511dc2450c3b683bb565c
schnepfenreuth,"Schnepfenreuth in Nuremberg, Germany",49.4780162,11.0603313,2,,,,,,Consulates,"Schnepfenreuth in Nuremberg, Germany",,german_fires_nuremberg_locations,ab7b90167da4ab60e62d3a522a87a273,german_fires_nuremberg_locations__ab7b90167da4ab60e62d3a522a87a273
schniegling,"Schniegling in Nuremberg, Germany",49.4702825,11.0278815,2,,,,,,Legislator,"Schniegling in Nuremberg, Germany",,german_fires_nuremberg_locations,efecfbfecbd9287cf274120a68987833,german_fires_nuremberg_locations__efecfbfecbd9287cf274120a68987833
schweinau,"Schweinau in Nuremberg, Germany",49.4321218,11.0501076,2,,,,,,Consulates,"Schweinau in Nuremberg, Germany",,german_fires_nuremberg_locations,13742b0c254bc3042db6a3fd1d2937e1,german_fires_nuremberg_locations__13742b0c254bc3042db6a3fd1d2937e1
st. johannis,"St. Johannis in Nuremberg, Germany",49.4584024,11.065778,2,,,,,,ForeignMinister,"St. Johannis in Nuremberg, Germany",,german_fires_nuremberg_locations,7ca91381f5599d028d225f1be5455239,german_fires_nuremberg_locations__7ca91381f5599d028d225f1be5455239
st. leonhard,"St. Leonhard in Nuremberg, Germany",49.4398698,11.0497806,2,,,,,,IndustryTerm,"St. Leonhard in Nuremberg, Germany",,german_fires_nuremberg_locations,1bb3ffec802b56a875510ad5406c3ac1,german_fires_nuremberg_locations__1bb3ffec802b56a875510ad5406c3ac1
st. peter,"St. Peter in Nuremberg, Germany",49.445633,11.0953627,2,,,,,,Keyphrase,"St. Peter in Nuremberg, Germany",,german_fires_nuremberg_locations,8b2e780629e76602b8a8905ab0eea64a,german_fires_nuremberg_locations__8b2e780629e76602b8a8905ab0eea64a
steinbuhl,"Steinbuhl in Nuremberg, Germany",49.4404553,11.0703572,2,,,,,,Shipping,"Steinbuhl in Nuremberg, Germany",,german_fires_nuremberg_locations,06a1e2401c180e553d5a1129760d1657,german_fires_nuremberg_locations__06a1e2401c180e553d5a1129760d1657
thon,"Thon in Nuremberg, Germany",49.4802931,11.0708667,2,,,,,,Keyphrase,"Thon in Nuremberg, Germany",,german_fires_nuremberg_locations,874df9b449ee84ea2f84ab5d64707756,german_fires_nuremberg_locations__874df9b449ee84ea2f84ab5d64707756
weiherhaus,"Weiherhaus in Nuremberg, Germany",49.3756308,11.0733985,2,,,,,,FTO,"Weiherhaus in Nuremberg, Germany",,german_fires_nuremberg_locations,7d87d1317c9064905799fb9100740c41,german_fires_nuremberg_locations__7d87d1317c9064905799fb9100740c41
wetzendorf,"Wetzendorf in Nuremberg, Germany",49.4744336,11.0515744,2,,,,,,ForeignMinister,"Wetzendorf in Nuremberg, Germany",,german_fires_nuremberg_locations,9b4898cbf411efc8a95d5bc00f890686,german_fires_nuremberg_locations__9b4898cbf411efc8a95d5bc00f890686
wohrd,"Wohrd in Nuremberg, Germany",49.4547943,11.09317,2,,,,,,LegislativeCommittee,"Wohrd in Nuremberg, Germany",,german_fires_nuremberg_locations,4bc9f5e7b70d971e8abeecac341432cc,german_fires_nuremberg_locations__4bc9f5e7b70d971e8abeecac341432cc
zerzabelshof,"Zerzabelshof in Nuremberg, Germany",49.4372321,11.130154,2,,,,,,CompanyKeyword,"Zerzabelshof in Nuremberg, Germany",,german_fires_nuremberg_locations,d228a2a5f411ba30d4285281a4d813e7,german_fires_nuremberg_locations__d228a2a5f411ba30d4285281a4d813e7
ziegelstein,"Ziegelstein in Nuremberg, Germany",49.4864086,11.11406,2,,,,,,CompanyKeyword,"Ziegelstein in Nuremberg, Germany",,german_fires_nuremberg_locations,cf7597c57f36823ffe059f2073e0c0f2,german_fires_nuremberg_locations__cf7597c57f36823ffe059f2073e0c0f2
aachener strasse,"Aachener strasseasse in Nuremberg, Germany",49.4682636,11.058301,1,,,,,,CompanyKeyword,"Aachener strasseasse in Nuremberg, Germany",,german_fires_nuremberg_locations,181b672fc1a41b0961516b2af94d0067,german_fires_nuremberg_locations__181b672fc1a41b0961516b2af94d0067
aalener strasse,"Aalener strasse in Nuremberg, Germany",49.4249449,11.0441479,1,,,,,,AAEntity,"Aalener strasse in Nuremberg, Germany",,german_fires_nuremberg_locations,84a2e832f992c54627bd567dd89b4131,german_fires_nuremberg_locations__84a2e832f992c54627bd567dd89b4131
abenberger strasse,"Abenberger strasse in Nuremberg, Germany",49.4057265,11.0376108,1,,,,,,LegislativeCommittee,"Abenberger strasse in Nuremberg, Germany",,german_fires_nuremberg_locations,a76a212846b5df680a636bd94a8f60f2,german_fires_nuremberg_locations__a76a212846b5df680a636bd94a8f60f2
abendgasse,"Abendgasse in Nuremberg, Germany",49.4011257,11.0356746,1,,,,,,Diplomat,"Abendgasse in Nuremberg, Germany",,german_fires_nuremberg_locations,b3587f1dde06391cdf1b8320f34af7f8,german_fires_nuremberg_locations__b3587f1dde06391cdf1b8320f34af7f8
achahildisweg,"Achahildisweg in Nuremberg, Germany",49.3932786,11.1750322,1,,,,,,Pipeline,"Achahildisweg in Nuremberg, Germany",,german_fires_nuremberg_locations,11c84ccdd5c908e85b9d42431e11f258,german_fires_nuremberg_locations__11c84ccdd5c908e85b9d42431e11f258
ackerstrasse,"Ackerstrasse in Nuremberg, Germany",49.4403617,11.0648986,1,,,,,,FTO,"Ackerstrasse in Nuremberg, Germany",,german_fires_nuremberg_locations,ece5a85fbbd3d149f95ac6c439fa5468,german_fires_nuremberg_locations__ece5a85fbbd3d149f95ac6c439fa5468
adalbert-stifter-strasse,"Adalbert-Stifter-strasse in Nuremberg, Germany",49.4412754,11.128998,1,,,,,,Organization,"Adalbert-Stifter-strasse in Nuremberg, Germany",,german_fires_nuremberg_locations,3a263a81bd74621e8d58fafaac4ce3a1,german_fires_nuremberg_locations__3a263a81bd74621e8d58fafaac4ce3a1
adalbertstrasse,"Adalbertstrasse in Nuremberg, Germany",49.428372,11.0423914,1,,,,,,Refinery,"Adalbertstrasse in Nuremberg, Germany",,german_fires_nuremberg_locations,27c4ec5388d5752323995a521e0c9481,german_fires_nuremberg_locations__27c4ec5388d5752323995a521e0c9481
adam-kraft-strasse,"Adam-Kraft-strasse in Nuremberg, Germany",49.4600629,11.0648632,1,,,,,,Shipping,"Adam-Kraft-strasse in Nuremberg, Germany",,german_fires_nuremberg_locations,6b64acf270f8163d4fe21d1189b08b08,german_fires_nuremberg_locations__6b64acf270f8163d4fe21d1189b08b08
adamstrasse,"Adamstrasse in Nuremberg, Germany",49.4604299,11.0976333,1,,,,,,Diplomat,"Adamstrasse in Nuremberg, Germany",,german_fires_nuremberg_locations,eeb42ea222fd21882f24496f5cafadb7,german_fires_nuremberg_locations__eeb42ea222fd21882f24496f5cafadb7
adelgundenstrasse,"Adelgundenstrasse in Nuremberg, Germany",49.4619814,11.0528338,1,,,,,,Wells,"Adelgundenstrasse in Nuremberg, Germany",,german_fires_nuremberg_locations,4831abb993f42b0dc4922db68a025bdf,german_fires_nuremberg_locations__4831abb993f42b0dc4922db68a025bdf
adlerstrasse,"Adlerstrasse in Nuremberg, Germany",49.4518938,11.0759855,1,,,,,,Organization,"Adlerstrasse in Nuremberg, Germany",,german_fires_nuremberg_locations,c0c48163c711c95f5e1c00294439c19b,german_fires_nuremberg_locations__c0c48163c711c95f5e1c00294439c19b
adolf-braun-strasse,"Adolf-Braun-strasse in Nuremberg, Germany",49.4642081,11.025228,1,,,,,,Legislator,"Adolf-Braun-strasse in Nuremberg, Germany",,german_fires_nuremberg_locations,7b38375ef19a82ca9d935564640b58e6,german_fires_nuremberg_locations__7b38375ef19a82ca9d935564640b58e6
adolf-v.-harless-strasse.,"Adolf-v.-Harless-strasse. in Nuremberg, Germany",49.5333129,11.0133141,1,,,,,,Shipping,"Adolf-v.-Harless-strasse. in Nuremberg, Germany",,german_fires_nuremberg_locations,74a129e2b3639a3277d54af8335145ef,german_fires_nuremberg_locations__74a129e2b3639a3277d54af8335145ef
agnesgasse,"Agnesgasse in Nuremberg, Germany",49.4561484,11.0748309,1,,,,,,DiplomaticFacilities,"Agnesgasse in Nuremberg, Germany",,german_fires_nuremberg_locations,c3e4672c09b40f88223662042f1cba6d,german_fires_nuremberg_locations__c3e4672c09b40f88223662042f1cba6d
agnes-gerlach-ring,"Agnes-Gerlach-Ring in Nuremberg, Germany",49.3543707,11.061548,1,,,,,,Person,"Agnes-Gerlach-Ring in Nuremberg, Germany",,german_fires_nuremberg_locations,687b33ba02ef7b0371d485032e8bab1d,german_fires_nuremberg_locations__687b33ba02ef7b0371d485032e8bab1d
ahornstrasse,"Ahornstrasse in Nuremberg, Germany",49.4099283,11.038354,1,,,,,,ForeignMinister,"Ahornstrasse in Nuremberg, Germany",,german_fires_nuremberg_locations,c0164f8845994e28367ef8ff9094825b,german_fires_nuremberg_locations__c0164f8845994e28367ef8ff9094825b
aichacher strasse,"Aichacher strasse in Nuremberg, Germany",49.3689711,11.0737765,1,,,,,,Shipping,"Aichacher strasse in Nuremberg, Germany",,german_fires_nuremberg_locations,3b22de8ad3d3b6aec69a6d504a4a1573,german_fires_nuremberg_locations__3b22de8ad3d3b6aec69a6d504a4a1573
ailsbachweg,"Ailsbachweg in Nuremberg, Germany",49.4308813,11.0120878,1,,,,,,AAEntity,"Ailsbachweg in Nuremberg, Germany",,german_fires_nuremberg_locations,eaf53115632ee8e2d203fff64c0f63b7,german_fires_nuremberg_locations__eaf53115632ee8e2d203fff64c0f63b7
aischweg,"Aischweg in Nuremberg, Germany",49.431282,11.0111929,1,,,,,,Legislator,"Aischweg in Nuremberg, Germany",,german_fires_nuremberg_locations,285b3f4120c0de80b56d8058c3b25e84,german_fires_nuremberg_locations__285b3f4120c0de80b56d8058c3b25e84
ajtoschstrasse,"Ajtoschstrasse in Nuremberg, Germany",49.433405,11.084091,1,,,,,,Diplomat,"Ajtoschstrasse in Nuremberg, Germany",,german_fires_nuremberg_locations,5b0ffa2755e5a3a55b36a7a306ca1918,german_fires_nuremberg_locations__5b0ffa2755e5a3a55b36a7a306ca1918
akeleiweg,"Akeleiweg in Nuremberg, Germany",49.418525,11.0599834,1,,,,,,Pipeline,"Akeleiweg in Nuremberg, Germany",,german_fires_nuremberg_locations,13c99f592f194347bb0b98966a3ccdfb,german_fires_nuremberg_locations__13c99f592f194347bb0b98966a3ccdfb
alberichstrasse,"Alberichstrasse in Nuremberg, Germany",49.4394519,11.0990242,1,,,,,,Media,"Alberichstrasse in Nuremberg, Germany",,german_fires_nuremberg_locations,0d7d48b18a8b0f95996c924192d81eea,german_fires_nuremberg_locations__0d7d48b18a8b0f95996c924192d81eea
albert-ortmann-strasse,"Albert-Ortmann-strasse in Nuremberg, Germany",49.4790142,11.0534182,1,,,,,,Exec,"Albert-Ortmann-strasse in Nuremberg, Germany",,german_fires_nuremberg_locations,55600fa737490cfced7b0811537ca7fe,german_fires_nuremberg_locations__55600fa737490cfced7b0811537ca7fe
albert-rosenfelder-strasse,"Albert-Rosenfelder-strasse in Nuremberg, Germany",49.4169825,11.0427897,1,,,,,,Shipping,"Albert-Rosenfelder-strasse in Nuremberg, Germany",,german_fires_nuremberg_locations,447519b2e05020dfee8c0bff8f0175d5,german_fires_nuremberg_locations__447519b2e05020dfee8c0bff8f0175d5
albert-schweitzer-strasse,"Albert-Schweitzer-strasse in Nuremberg, Germany",49.3635388,11.053306,1,,,,,,Consulates,"Albert-Schweitzer-strasse in Nuremberg, Germany",,german_fires_nuremberg_locations,653b10cbaf4b71c795e697fce466c456,german_fires_nuremberg_locations__653b10cbaf4b71c795e697fce466c456
albertstrasse,"Albertstrasse in Nuremberg, Germany",49.4466062,11.1039883,1,,,,,,Exec,"Albertstrasse in Nuremberg, Germany",,german_fires_nuremberg_locations,292c055d59b3cb0f811bc547d314a260,german_fires_nuremberg_locations__292c055d59b3cb0f811bc547d314a260
albrecht-achilles-strasse,"Albrecht-Achilles-strasse in Nuremberg, Germany",49.3744707,11.0748189,1,,,,,,Wells,"Albrecht-Achilles-strasse in Nuremberg, Germany",,german_fires_nuremberg_locations,716658f078c07a11ec454b2743a8d8f0,german_fires_nuremberg_locations__716658f078c07a11ec454b2743a8d8f0
albrecht-durer-platz,"Albrecht-Durer-Platz in Nuremberg, Germany",49.4561511,11.0758831,1,,,,,,DiplomaticFacilities,"Albrecht-Durer-Platz in Nuremberg, Germany",,german_fires_nuremberg_locations,e076f8bf14558738f2cfe2c7ccba7706,german_fires_nuremberg_locations__e076f8bf14558738f2cfe2c7ccba7706
albrecht-durer-strasse,"Albrecht-Durer-strasse in Nuremberg, Germany",49.4564323,11.0742105,1,,,,,,ForeignMinister,"Albrecht-Durer-strasse in Nuremberg, Germany",,german_fires_nuremberg_locations,6d7d6557d1f4cf2d39978e87cbd0879e,german_fires_nuremberg_locations__6d7d6557d1f4cf2d39978e87cbd0879e
albrecht-thaer-strasse,"Albrecht-Thaer-strasse in Nuremberg, Germany",49.4160353,11.0279086,1,,,,,,News,"Albrecht-Thaer-strasse in Nuremberg, Germany",,german_fires_nuremberg_locations,d2ec4591c3db3ebbaa3b1550474e21ca,german_fires_nuremberg_locations__d2ec4591c3db3ebbaa3b1550474e21ca
aldringenstrasse,"Aldringenstrasse in Nuremberg, Germany",49.37395,11.019601,1,,,,,,Wells,"Aldringenstrasse in Nuremberg, Germany",,german_fires_nuremberg_locations,003aa201de1252df890e4f61a4bf5672,german_fires_nuremberg_locations__003aa201de1252df890e4f61a4bf5672
alexanderstrasse,"Alexanderstrasse in Nuremberg, Germany",49.4412837,11.0771968,1,,,,,,DiplomaticFacilities,"Alexanderstrasse in Nuremberg, Germany",,german_fires_nuremberg_locations,af2ef310100ed9d1b1052fc38d61e1ac,german_fires_nuremberg_locations__af2ef310100ed9d1b1052fc38d61e1ac
alfelder weg,"Alfelder Weg in Nuremberg, Germany",49.4640753,11.1428923,1,,,,,,Keyphrase,"Alfelder Weg in Nuremberg, Germany",,german_fires_nuremberg_locations,5faf2a3e819adda41c4c822d8fbeaf0f,german_fires_nuremberg_locations__5faf2a3e819adda41c4c822d8fbeaf0f
alfons-stauder-strasse,"Alfons-Stauder-strasse in Nuremberg, Germany",49.3645365,11.0571871,1,,,,,,ForeignMinister,"Alfons-Stauder-strasse in Nuremberg, Germany",,german_fires_nuremberg_locations,ae77b511b6562a08bd2a344b3adf846d,german_fires_nuremberg_locations__ae77b511b6562a08bd2a344b3adf846d
alfonsstrasse,"Alfonsstrasse in Nuremberg, Germany",49.4277529,11.0424207,1,,,,,,Refinery,"Alfonsstrasse in Nuremberg, Germany",,german_fires_nuremberg_locations,2334ece086357d6e705e5f9a68b6bd69,german_fires_nuremberg_locations__2334ece086357d6e705e5f9a68b6bd69
alfred-graf-weg,"Alfred-Graf-Weg in Nuremberg, Germany",49.4146341,11.1356731,1,,,,,,Person,"Alfred-Graf-Weg in Nuremberg, Germany",,german_fires_nuremberg_locations,d8fe1e21cdc59846a52616f0c628ab91,german_fires_nuremberg_locations__d8fe1e21cdc59846a52616f0c628ab91
alfredstrasse,"Alfredstrasse in Nuremberg, Germany",49.4559684,11.0128446,1,,,,,,Exec,"Alfredstrasse in Nuremberg, Germany",,german_fires_nuremberg_locations,162c851415dd2fbfa7aa208a2cdc0bbe,german_fires_nuremberg_locations__162c851415dd2fbfa7aa208a2cdc0bbe
almoshofer hauptstrasse,"Almoshofer Hauptstrasse in Nuremberg, Germany",49.4892632,11.0645249,1,,,,,,ForeignMinister,"Almoshofer Hauptstrasse in Nuremberg, Germany",,german_fires_nuremberg_locations,2fc51e399de663fccc912647e3cf6735,german_fires_nuremberg_locations__2fc51e399de663fccc912647e3cf6735
alpenrosenweg,"Alpenrosenweg in Nuremberg, Germany",49.4163883,11.0606534,1,,,,,,Keyphrase,"Alpenrosenweg in Nuremberg, Germany",,german_fires_nuremberg_locations,b604ee7c54f428bfd825c1b6cbadde0b,german_fires_nuremberg_locations__b604ee7c54f428bfd825c1b6cbadde0b
alsterstrasse,"Alsterstrasse in Nuremberg, Germany",49.3609677,11.0544319,1,,,,,,Media,"Alsterstrasse in Nuremberg, Germany",,german_fires_nuremberg_locations,ecdacc1838148290e3f9a98a112e617c,german_fires_nuremberg_locations__ecdacc1838148290e3f9a98a112e617c
altdorfer strasse,"Altdorfer strasse in Nuremberg, Germany",49.4531094,11.1191189,1,,,,,,CompanyKeyword,"Altdorfer strasse in Nuremberg, Germany",,german_fires_nuremberg_locations,092db58699cdbd4ce2697029282a010c,german_fires_nuremberg_locations__092db58699cdbd4ce2697029282a010c
alte parlerstrasse,"Alte Parlerstrasse in Nuremberg, Germany",49.4703318,11.0426871,1,,,,,,Refinery,"Alte Parlerstrasse in Nuremberg, Germany",,german_fires_nuremberg_locations,d1aeb406ccb41a31c7d148a45d8b3069,german_fires_nuremberg_locations__d1aeb406ccb41a31c7d148a45d8b3069
alte strasse,"Alte strasse in Nuremberg, Germany",49.4037597,11.0338478,1,,,,,,Refinery,"Alte strasse in Nuremberg, Germany",,german_fires_nuremberg_locations,83b3650268f153dfd8f5cda76294cc56,german_fires_nuremberg_locations__83b3650268f153dfd8f5cda76294cc56
alte wallensteinstrasse,"Alte Wallensteinstrasse in Nuremberg, Germany",49.4344229,11.0214188,1,,,,,,ForeignMinistry,"Alte Wallensteinstrasse in Nuremberg, Germany",,german_fires_nuremberg_locations,2c1f939ed375e2e585de2a342dac079a,german_fires_nuremberg_locations__2c1f939ed375e2e585de2a342dac079a
altenberger strasse,"Altenberger strasse in Nuremberg, Germany",49.4414449,11.0084299,1,,,,,,Shipping,"Altenberger strasse in Nuremberg, Germany",,german_fires_nuremberg_locations,6057f3fe6668f5ae7bcd73a81da875e5,german_fires_nuremberg_locations__6057f3fe6668f5ae7bcd73a81da875e5
altenfurter strasse,"Altenfurter strasse in Nuremberg, Germany",49.4054097,11.1744245,1,,,,,,Shipping,"Altenfurter strasse in Nuremberg, Germany",,german_fires_nuremberg_locations,011d1d9c45d8c748b4ca04e4b5df4691,german_fires_nuremberg_locations__011d1d9c45d8c748b4ca04e4b5df4691
altmuhlweg,"Altmuhlweg in Nuremberg, Germany",49.3863674,11.0372853,1,,,,,,space,"Altmuhlweg in Nuremberg, Germany",,german_fires_nuremberg_locations,5449a560e5662f7ec4f0c8efc0c4c3be,german_fires_nuremberg_locations__5449a560e5662f7ec4f0c8efc0c4c3be
am alten sudhaus,"Am Alten Sudhaus in Nuremberg, Germany",49.4646025,11.0837325,1,,,,,,ForeignMinistry,"Am Alten Sudhaus in Nuremberg, Germany",,german_fires_nuremberg_locations,01fe95ec852dbb8f7e85dd6f9c759c82,german_fires_nuremberg_locations__01fe95ec852dbb8f7e85dd6f9c759c82
am anger,"Am Anger in Nuremberg, Germany",49.4888427,11.107416,1,,,,,,Consulates,"Am Anger in Nuremberg, Germany",,german_fires_nuremberg_locations,4041e089047f7981de9f49e608a8b4c6,german_fires_nuremberg_locations__4041e089047f7981de9f49e608a8b4c6
am bauernfeld,"Am Bauernfeld in Nuremberg, Germany",49.4238369,11.1907792,1,,,,,,Exec,"Am Bauernfeld in Nuremberg, Germany",,german_fires_nuremberg_locations,31653b0e6f9ba747619acd3007326585,german_fires_nuremberg_locations__31653b0e6f9ba747619acd3007326585
am bauernwald,"Am Bauernwald in Nuremberg, Germany",49.4826698,11.110045,1,,,,,,Exec,"Am Bauernwald in Nuremberg, Germany",,german_fires_nuremberg_locations,7881b768e5b584f55d79b2e34a4d8e00,german_fires_nuremberg_locations__7881b768e5b584f55d79b2e34a4d8e00
am baumling,"Am Baumling in Nuremberg, Germany",49.4875342,11.0758502,1,,,,,,Organization,"Am Baumling in Nuremberg, Germany",,german_fires_nuremberg_locations,734cf3d36084e71c855015ac132061b0,german_fires_nuremberg_locations__734cf3d36084e71c855015ac132061b0
am behlanger,"Am Behlanger in Nuremberg, Germany",49.4626758,11.1681771,1,,,,,,DiplomaticFacilities,"Am Behlanger in Nuremberg, Germany",,german_fires_nuremberg_locations,45ecda553e959db4a8be3284c42e36a5,german_fires_nuremberg_locations__45ecda553e959db4a8be3284c42e36a5
am berg,"Am Berg in Nuremberg, Germany",49.3928798,11.1708626,1,,,,,,Media,"Am Berg in Nuremberg, Germany",,german_fires_nuremberg_locations,e1031e0bdef404dc49d397c5cc42d2ee,german_fires_nuremberg_locations__e1031e0bdef404dc49d397c5cc42d2ee
am birkenschlag,"Am Birkenschlag in Nuremberg, Germany",49.3703485,11.0392058,1,,,,,,FTO,"Am Birkenschlag in Nuremberg, Germany",,german_fires_nuremberg_locations,1965089917346dd534b61bc2a9c18018,german_fires_nuremberg_locations__1965089917346dd534b61bc2a9c18018
am birnbaum,"Am Birnbaum in Nuremberg, Germany",49.4249661,11.0108846,1,,,,,,space,"Am Birnbaum in Nuremberg, Germany",,german_fires_nuremberg_locations,53725bb67bc09a9c2b251a60bc22fc90,german_fires_nuremberg_locations__53725bb67bc09a9c2b251a60bc22fc90
am brand,"Am Brand in Nuremberg, Germany",49.4263277,11.1819559,1,,,,,,space,"Am Brand in Nuremberg, Germany",,german_fires_nuremberg_locations,00312cba720455f795a45ed7d8f28d52,german_fires_nuremberg_locations__00312cba720455f795a45ed7d8f28d52
am doktorsfeld,"Am Doktorsfeld in Nuremberg, Germany",49.4658118,11.1670733,1,,,,,,Legislator,"Am Doktorsfeld in Nuremberg, Germany",,german_fires_nuremberg_locations,4d0a8164ee5a57b596b31b9f3c16f1df,german_fires_nuremberg_locations__4d0a8164ee5a57b596b31b9f3c16f1df
am eichelberg,"Am Eichelberg in Nuremberg, Germany",49.3758849,11.0300901,1,,,,,,Exec,"Am Eichelberg in Nuremberg, Germany",,german_fires_nuremberg_locations,f4f8910cf96c465d74810084f0e3c773,german_fires_nuremberg_locations__f4f8910cf96c465d74810084f0e3c773
am eichgrabenfeld,"Am Eichgrabenfeld in Nuremberg, Germany",49.4490849,11.1251479,1,,,,,,Exec,"Am Eichgrabenfeld in Nuremberg, Germany",,german_fires_nuremberg_locations,8d1cbec198a3da195db748b5b9b0d1cc,german_fires_nuremberg_locations__8d1cbec198a3da195db748b5b9b0d1cc
am entengraben,"Am Entengraben in Nuremberg, Germany",49.3859204,11.0360275,1,,,,,,News,"Am Entengraben in Nuremberg, Germany",,german_fires_nuremberg_locations,227103f9063cccb8d8e876d05a667bc2,german_fires_nuremberg_locations__227103f9063cccb8d8e876d05a667bc2
am fernmeldeturm,"Am Fernmeldeturm in Nuremberg, Germany",49.4274724,11.038921,1,,,,,,Pipeline,"Am Fernmeldeturm in Nuremberg, Germany",,german_fires_nuremberg_locations,458ccb4129c5e4e66b8baa8bf39f081e,german_fires_nuremberg_locations__458ccb4129c5e4e66b8baa8bf39f081e
am feuchter brucklein,"Am Feuchter Brucklein in Nuremberg, Germany",49.4165095,11.1938521,1,,,,,,Exec,"Am Feuchter Brucklein in Nuremberg, Germany",,german_fires_nuremberg_locations,4daf247eb41b64ee6158f2e273d886b4,german_fires_nuremberg_locations__4daf247eb41b64ee6158f2e273d886b4
am fuchsberg,"Am Fuchsberg in Nuremberg, Germany",49.3652777,11.0460398,1,,,,,,Keyphrase,"Am Fuchsberg in Nuremberg, Germany",,german_fires_nuremberg_locations,545cba5d42d1621fae11fd9712d577c3,german_fires_nuremberg_locations__545cba5d42d1621fae11fd9712d577c3
am gaulnhofener graben,"Am Gaulnhofener Graben in Nuremberg, Germany",49.3689002,11.079207,1,,,,,,space,"Am Gaulnhofener Graben in Nuremberg, Germany",,german_fires_nuremberg_locations,aee878c86b32b83a2d0941c4e2776872,german_fires_nuremberg_locations__aee878c86b32b83a2d0941c4e2776872
am goldhammer,"Am Goldhammer in Nuremberg, Germany",49.4640949,11.1280829,1,,,,,,Legislator,"Am Goldhammer in Nuremberg, Germany",,german_fires_nuremberg_locations,0f516ce35947eb08f6f4993c0c7a6473,german_fires_nuremberg_locations__0f516ce35947eb08f6f4993c0c7a6473
am graben,"Am Graben in Nuremberg, Germany",49.4096771,11.1720271,1,,,,,,Refinery,"Am Graben in Nuremberg, Germany",,german_fires_nuremberg_locations,a519825e51db1d50f0c13c8f4390957c,german_fires_nuremberg_locations__a519825e51db1d50f0c13c8f4390957c
am hammer,"Am Hammer in Nuremberg, Germany",49.35262,11.055007,1,,,,,,AAEntity,"Am Hammer in Nuremberg, Germany",,german_fires_nuremberg_locations,b3fae0eeb7aee2d5d7ada3ac7836a163,german_fires_nuremberg_locations__b3fae0eeb7aee2d5d7ada3ac7836a163
am hang,"Am Hang in Nuremberg, Germany",49.4669572,11.1134956,1,,,,,,Person,"Am Hang in Nuremberg, Germany",,german_fires_nuremberg_locations,7a496164ee5a7eaad6d19b0bfa97e6fc,german_fires_nuremberg_locations__7a496164ee5a7eaad6d19b0bfa97e6fc
am harnischschlag,"Am Harnischschlag in Nuremberg, Germany",49.4033876,11.1183012,1,,,,,,ForeignMinistry,"Am Harnischschlag in Nuremberg, Germany",,german_fires_nuremberg_locations,3b875538ca43fbe6b7b8009e4703589b,german_fires_nuremberg_locations__3b875538ca43fbe6b7b8009e4703589b
am herrenwaldchen,"Am Herrenwaldchen in Nuremberg, Germany",49.4656696,11.1744892,1,,,,,,Pipeline,"Am Herrenwaldchen in Nuremberg, Germany",,german_fires_nuremberg_locations,cd61a79231f015439ead4d653ac43a7f,german_fires_nuremberg_locations__cd61a79231f015439ead4d653ac43a7f
am hirschfeld,"Am Hirschfeld in Nuremberg, Germany",49.4169971,11.0376655,1,,,,,,News,"Am Hirschfeld in Nuremberg, Germany",,german_fires_nuremberg_locations,29d605a0386767032df6a3e27bbf3133,german_fires_nuremberg_locations__29d605a0386767032df6a3e27bbf3133
am hochwald,"Am Hochwald in Nuremberg, Germany",49.3731134,11.1058133,1,,,,,,Person,"Am Hochwald in Nuremberg, Germany",,german_fires_nuremberg_locations,b6041588a37922dec700f28318ea860c,german_fires_nuremberg_locations__b6041588a37922dec700f28318ea860c
am kappelberg,"Am Kappelberg in Nuremberg, Germany",49.3467682,11.0479461,1,,,,,,Consulates,"Am Kappelberg in Nuremberg, Germany",,german_fires_nuremberg_locations,16a9ea2662f97a27419982813f32675f,german_fires_nuremberg_locations__16a9ea2662f97a27419982813f32675f
am katharinenkloster,"Am Katharinenkloster in Nuremberg, Germany",49.4516995,11.0817216,1,,,,,,LegislativeCommittee,"Am Katharinenkloster in Nuremberg, Germany",,german_fires_nuremberg_locations,a472c8abf11bce5f81c1f3637597e64e,german_fires_nuremberg_locations__a472c8abf11bce5f81c1f3637597e64e
am keuper,"Am Keuper in Nuremberg, Germany",49.3880867,11.1780297,1,,,,,,Person,"Am Keuper in Nuremberg, Germany",,german_fires_nuremberg_locations,0f6e36f06148cadfe37119637d9cfe09,german_fires_nuremberg_locations__0f6e36f06148cadfe37119637d9cfe09
am klosterfeld,"Am Klosterfeld in Nuremberg, Germany",49.5314253,11.0170061,1,,,,,,FTO,"Am Klosterfeld in Nuremberg, Germany",,german_fires_nuremberg_locations,f63c01fa2ed609debd141aebc9b09ce3,german_fires_nuremberg_locations__f63c01fa2ed609debd141aebc9b09ce3
am knappsteig,"Am Knappsteig in Nuremberg, Germany",49.5115644,11.0414826,1,,,,,,Pipeline,"Am Knappsteig in Nuremberg, Germany",,german_fires_nuremberg_locations,19ad19405413f6fbd461adcaa484378d,german_fires_nuremberg_locations__19ad19405413f6fbd461adcaa484378d
am kohlrangen,"Am Kohlrangen in Nuremberg, Germany",49.4011356,11.0334236,1,,,,,,Legislator,"Am Kohlrangen in Nuremberg, Germany",,german_fires_nuremberg_locations,039e767eb66e5162b7eeb58642829ab3,german_fires_nuremberg_locations__039e767eb66e5162b7eeb58642829ab3
am kressenstein,"Am Kressenstein in Nuremberg, Germany",49.5097171,11.0463429,1,,,,,,Media,"Am Kressenstein in Nuremberg, Germany",,german_fires_nuremberg_locations,ae60d8c403096df5c41cfe57733fcb2d,german_fires_nuremberg_locations__ae60d8c403096df5c41cfe57733fcb2d
am kreuzberg,"Am Kreuzberg in Nuremberg, Germany",49.3550005,11.0577238,1,,,,,,Media,"Am Kreuzberg in Nuremberg, Germany",,german_fires_nuremberg_locations,0db54293d8e5900de4a9560f891c967d,german_fires_nuremberg_locations__0db54293d8e5900de4a9560f891c967d
am kriegerdenkmal,"Am Kriegerdenkmal in Nuremberg, Germany",49.5185588,11.0482263,1,,,,,,Keyphrase,"Am Kriegerdenkmal in Nuremberg, Germany",,german_fires_nuremberg_locations,b9dad8cad8e17d890cdf0c817941116e,german_fires_nuremberg_locations__b9dad8cad8e17d890cdf0c817941116e
am kuhnleinsgarten,"Am Kuhnleinsgarten in Nuremberg, Germany",49.3549449,11.065729,1,,,,,,IndustryTerm,"Am Kuhnleinsgarten in Nuremberg, Germany",,german_fires_nuremberg_locations,3b829929fdb2f6615460f1860a4e334f,german_fires_nuremberg_locations__3b829929fdb2f6615460f1860a4e334f
am laufer schlagturm,"Am Laufer Schlagturm in Nuremberg, Germany",49.4561049,11.0834507,1,,,,,,Keyphrase,"Am Laufer Schlagturm in Nuremberg, Germany",,german_fires_nuremberg_locations,22785b32a5653a1b4ddddc3296c9f9ac,german_fires_nuremberg_locations__22785b32a5653a1b4ddddc3296c9f9ac
am leonhardspark,"Am Leonhardspark in Nuremberg, Germany",49.4431071,11.0560656,1,,,,,,FTO,"Am Leonhardspark in Nuremberg, Germany",,german_fires_nuremberg_locations,4ed9f28ec80e3bdb6c66a310282798fa,german_fires_nuremberg_locations__4ed9f28ec80e3bdb6c66a310282798fa
am lerchenfeld,"Am Lerchenfeld in Nuremberg, Germany",49.3544734,11.0597893,1,,,,,,DiplomaticFacilities,"Am Lerchenfeld in Nuremberg, Germany",,german_fires_nuremberg_locations,1c5c1fa3208694249055e9be863ea86c,german_fires_nuremberg_locations__1c5c1fa3208694249055e9be863ea86c
am lindenpark,"Am Lindenpark in Nuremberg, Germany",49.5346588,11.0263098,1,,,,,,ForeignMinister,"Am Lindenpark in Nuremberg, Germany",,german_fires_nuremberg_locations,028d3ed74e56a7d5915ded8722e17308,german_fires_nuremberg_locations__028d3ed74e56a7d5915ded8722e17308
am maderersbrunnen,"Am Maderersbrunnen in Nuremberg, Germany",49.4394291,11.2543802,1,,,,,,LegislativeCommittee,"Am Maderersbrunnen in Nuremberg, Germany",,german_fires_nuremberg_locations,36b1d0646f078b2cba9890161cb5ab20,german_fires_nuremberg_locations__36b1d0646f078b2cba9890161cb5ab20
am messehaus,"Am Messehaus in Nuremberg, Germany",49.4645232,11.1002765,1,,,,,,LegislativeCommittee,"Am Messehaus in Nuremberg, Germany",,german_fires_nuremberg_locations,cf3be8e0addc924aace8fd5c7cb8a332,german_fires_nuremberg_locations__cf3be8e0addc924aace8fd5c7cb8a332
am mooshof,"Am Mooshof in Nuremberg, Germany",49.4840716,11.1015475,1,,,,,,ForeignMinister,"Am Mooshof in Nuremberg, Germany",,german_fires_nuremberg_locations,7af37764f8d86f63d4030afb129f97a4,german_fires_nuremberg_locations__7af37764f8d86f63d4030afb129f97a4
am muhlbach,"Am Muhlbach in Nuremberg, Germany",49.5257716,11.0122251,1,,,,,,IndustryTerm,"Am Muhlbach in Nuremberg, Germany",,german_fires_nuremberg_locations,1d02b992f5e0d4fbf2c0d566fa07c722,german_fires_nuremberg_locations__1d02b992f5e0d4fbf2c0d566fa07c722
am nordostbahnhof,"Am Nordostbahnhof in Nuremberg, Germany",49.4734021,11.1075753,1,,,,,,ForeignMinistry,"Am Nordostbahnhof in Nuremberg, Germany",,german_fires_nuremberg_locations,baa3e5ce5f641cfefc9fc94e84c7e667,german_fires_nuremberg_locations__baa3e5ce5f641cfefc9fc94e84c7e667
am nordwestbahnhof,"Am Nordwestbahnhof in Nuremberg, Germany",49.467168,11.040207,1,,,,,,AAEntity,"Am Nordwestbahnhof in Nuremberg, Germany",,german_fires_nuremberg_locations,3b9663fd825ae4e67c50e67256ca50e0,german_fires_nuremberg_locations__3b9663fd825ae4e67c50e67256ca50e0
am olberg,"Am olberg in Nuremberg, Germany",49.4574262,11.0761364,1,,,,,,Exec,"Am olberg in Nuremberg, Germany",,german_fires_nuremberg_locations,ab8af8b9846d3f175956454ece9ae07e,german_fires_nuremberg_locations__ab8af8b9846d3f175956454ece9ae07e
am ostbahnhof,"Am Ostbahnhof in Nuremberg, Germany",49.4643324,11.121056,1,,,,,,Consulates,"Am Ostbahnhof in Nuremberg, Germany",,german_fires_nuremberg_locations,b1faf1368b2dac2e3be879b41355c4f4,german_fires_nuremberg_locations__b1faf1368b2dac2e3be879b41355c4f4
am paulusstein,"Am Paulusstein in Nuremberg, Germany",49.5029784,11.1104468,1,,,,,,IndustryTerm,"Am Paulusstein in Nuremberg, Germany",,german_fires_nuremberg_locations,120e2a922b148b3274738db2791c6348,german_fires_nuremberg_locations__120e2a922b148b3274738db2791c6348
am pfarrbaum,"Am Pfarrbaum in Nuremberg, Germany",49.5318335,11.0133688,1,,,,,,FTO,"Am Pfarrbaum in Nuremberg, Germany",,german_fires_nuremberg_locations,1525cb6e9495da9a31977a06e60e46d7,german_fires_nuremberg_locations__1525cb6e9495da9a31977a06e60e46d7
am pferdemarkt,"Am Pferdemarkt in Nuremberg, Germany",49.4416071,11.0581864,1,,,,,,IndustryTerm,"Am Pferdemarkt in Nuremberg, Germany",,german_fires_nuremberg_locations,7fe52c5b9f4003d4c55db000ae6efd94,german_fires_nuremberg_locations__7fe52c5b9f4003d4c55db000ae6efd94
am plarrer,"Am Plarrer in Nuremberg, Germany",49.4482381,11.0660127,1,,,,,,ForeignMinister,"Am Plarrer in Nuremberg, Germany",,german_fires_nuremberg_locations,9672dc053dbb4bb747824aa984652a48,german_fires_nuremberg_locations__9672dc053dbb4bb747824aa984652a48
am pointgraben,"Am Pointgraben in Nuremberg, Germany",49.3611299,11.0583808,1,,,,,,Legislator,"Am Pointgraben in Nuremberg, Germany",,german_fires_nuremberg_locations,47c930368974b5ad47ba6f3b1beff387,german_fires_nuremberg_locations__47c930368974b5ad47ba6f3b1beff387
am rednitzhang,"Am Rednitzhang in Nuremberg, Germany",49.4040346,11.0294634,1,,,,,,Shipping,"Am Rednitzhang in Nuremberg, Germany",,german_fires_nuremberg_locations,3e2fe444a0bc21b2bd93a35d7fa78716,german_fires_nuremberg_locations__3e2fe444a0bc21b2bd93a35d7fa78716
am reichsforst,"Am Reichsforst in Nuremberg, Germany",49.5002249,11.1075423,1,,,,,,AAEntity,"Am Reichsforst in Nuremberg, Germany",,german_fires_nuremberg_locations,a43bd1049a9e571c87c57f53d241a365,german_fires_nuremberg_locations__a43bd1049a9e571c87c57f53d241a365
am roten buhl,"Am Roten Buhl in Nuremberg, Germany",49.357947,11.0715193,1,,,,,,Person,"Am Roten Buhl in Nuremberg, Germany",,german_fires_nuremberg_locations,58ffbe378d53db9244c575ba93ac8dd0,german_fires_nuremberg_locations__58ffbe378d53db9244c575ba93ac8dd0
am rothenbacher landgr,"Am Rothenbacher Landgr in Nuremberg, Germany",49.4478908,11.0827879,1,,,,,,Media,"Am Rothenbacher Landgr in Nuremberg, Germany",,german_fires_nuremberg_locations,94acbafe536fb2312decc3f3a97f743b,german_fires_nuremberg_locations__94acbafe536fb2312decc3f3a97f743b
am schlag,"Am Schlag in Nuremberg, Germany",49.4271795,11.1874896,1,,,,,,Legislator,"Am Schlag in Nuremberg, Germany",,german_fires_nuremberg_locations,9e7bb8cd71788589a3493905145541b2,german_fires_nuremberg_locations__9e7bb8cd71788589a3493905145541b2
am schlossgraben,"Am Schlossgraben in Nuremberg, Germany",49.3556407,11.0985021,1,,,,,,Shipping,"Am Schlossgraben in Nuremberg, Germany",,german_fires_nuremberg_locations,34e533d7913df02dfbf3e76c368f07a4,german_fires_nuremberg_locations__34e533d7913df02dfbf3e76c368f07a4
am schlosspark,"Am Schlosspark in Nuremberg, Germany",49.4202558,11.195142,1,,,,,,Wells,"Am Schlosspark in Nuremberg, Germany",,german_fires_nuremberg_locations,207c1f137036db5e99c1a55c0b7d35e0,german_fires_nuremberg_locations__207c1f137036db5e99c1a55c0b7d35e0
am schwedenbrunnen,"Am Schwedenbrunnen in Nuremberg, Germany",49.5047111,11.111938,1,,,,,,CompanyKeyword,"Am Schwedenbrunnen in Nuremberg, Germany",,german_fires_nuremberg_locations,86727535fa904155025e326e6b7bba11,german_fires_nuremberg_locations__86727535fa904155025e326e6b7bba11
am schwedengraben,"Am Schwedengraben in Nuremberg, Germany",49.3746746,11.0688261,1,,,,,,News,"Am Schwedengraben in Nuremberg, Germany",,german_fires_nuremberg_locations,3d4b9e0ee3442e24ba04dd2fc57e5dd8,german_fires_nuremberg_locations__3d4b9e0ee3442e24ba04dd2fc57e5dd8
am schweigeracker,"Am Schweigeracker in Nuremberg, Germany",49.4805389,11.0793786,1,,,,,,Keyphrase,"Am Schweigeracker in Nuremberg, Germany",,german_fires_nuremberg_locations,6e0c028d128be2f59e82ea991056febe,german_fires_nuremberg_locations__6e0c028d128be2f59e82ea991056febe
am sportplatz,"Am Sportplatz in Nuremberg, Germany",49.5159904,11.0320847,1,,,,,,Refinery,"Am Sportplatz in Nuremberg, Germany",,german_fires_nuremberg_locations,59dc7b74f8e36cae3b19130953da55ba,german_fires_nuremberg_locations__59dc7b74f8e36cae3b19130953da55ba
am spund,"Am Spund in Nuremberg, Germany",49.5222216,11.0265315,1,,,,,,DiplomaticFacilities,"Am Spund in Nuremberg, Germany",,german_fires_nuremberg_locations,accd699e390b42d4bb8926bc808f342a,german_fires_nuremberg_locations__accd699e390b42d4bb8926bc808f342a
am stadtpark,"Am Stadtpark in Nuremberg, Germany",49.4661277,11.0912536,1,,,,,,IndustryTerm,"Am Stadtpark in Nuremberg, Germany",,german_fires_nuremberg_locations,686ae4486c8116946ab667b82417c261,german_fires_nuremberg_locations__686ae4486c8116946ab667b82417c261
am steig,"Am Steig in Nuremberg, Germany",49.5251157,11.0058169,1,,,,,,LegislativeCommittee,"Am Steig in Nuremberg, Germany",,german_fires_nuremberg_locations,77360e51c2cad5f7228a100424eed2dd,german_fires_nuremberg_locations__77360e51c2cad5f7228a100424eed2dd
am steinberg,"Am Steinberg in Nuremberg, Germany",49.3855393,11.0354532,1,,,,,,ForeignMinister,"Am Steinberg in Nuremberg, Germany",,german_fires_nuremberg_locations,5ad8d79905c260c3a2d80bc7ebb92b50,german_fires_nuremberg_locations__5ad8d79905c260c3a2d80bc7ebb92b50
am steinbruchlein,"Am Steinbruchlein in Nuremberg, Germany",49.3917128,11.1106515,1,,,,,,DiplomaticFacilities,"Am Steinbruchlein in Nuremberg, Germany",,german_fires_nuremberg_locations,b0c0559df417d7479ec6934c250461f0,german_fires_nuremberg_locations__b0c0559df417d7479ec6934c250461f0
am thoner espan,"Am Thoner Espan in Nuremberg, Germany",49.4748574,11.0664079,1,,,,,,space,"Am Thoner Espan in Nuremberg, Germany",,german_fires_nuremberg_locations,9b41c2cbe0d308516095e481c221056f,german_fires_nuremberg_locations__9b41c2cbe0d308516095e481c221056f
am tiergarten,"Am Tiergarten in Nuremberg, Germany",49.445396,11.1404522,1,,,,,,Wells,"Am Tiergarten in Nuremberg, Germany",,german_fires_nuremberg_locations,c8064d5baf7116f76371166882ba292a,german_fires_nuremberg_locations__c8064d5baf7116f76371166882ba292a
am tower,"Am Tower in Nuremberg, Germany",49.3903449,11.1791162,1,,,,,,Legislator,"Am Tower in Nuremberg, Germany",,german_fires_nuremberg_locations,8fd4feb13310ece50fa009d36dad0986,german_fires_nuremberg_locations__8fd4feb13310ece50fa009d36dad0986
am tucherturm,"Am Tucherturm in Nuremberg, Germany",49.4656731,11.0845596,1,,,,,,IndustryTerm,"Am Tucherturm in Nuremberg, Germany",,german_fires_nuremberg_locations,f289c7746d1d8252980ec68f45979415,german_fires_nuremberg_locations__f289c7746d1d8252980ec68f45979415
am tullnaupark,"Am Tullnaupark in Nuremberg, Germany",49.4498113,11.1028648,1,,,,,,Organization,"Am Tullnaupark in Nuremberg, Germany",,german_fires_nuremberg_locations,d8ba40cf950399be9aa97f61a3691c52,german_fires_nuremberg_locations__d8ba40cf950399be9aa97f61a3691c52
am vogelberg,"Am Vogelberg in Nuremberg, Germany",49.374546,11.0667778,1,,,,,,Person,"Am Vogelberg in Nuremberg, Germany",,german_fires_nuremberg_locations,7f3ba6329499a4104d2bd859adc44d12,german_fires_nuremberg_locations__7f3ba6329499a4104d2bd859adc44d12
am waldrand,"Am Waldrand in Nuremberg, Germany",49.3470243,11.0565111,1,,,,,,Keyphrase,"Am Waldrand in Nuremberg, Germany",,german_fires_nuremberg_locations,08d9db5d92e2b60ed9afbf550c78141d,german_fires_nuremberg_locations__08d9db5d92e2b60ed9afbf550c78141d
am wasserturm,"Am Wasserturm in Nuremberg, Germany",49.3547063,11.1048731,1,,,,,,ForeignMinistry,"Am Wasserturm in Nuremberg, Germany",,german_fires_nuremberg_locations,be4eb1e88861219b7f5c4343bf12a95e,german_fires_nuremberg_locations__be4eb1e88861219b7f5c4343bf12a95e
am wegfeld,"Am Wegfeld in Nuremberg, Germany",49.4920708,11.0461549,1,,,,,,Person,"Am Wegfeld in Nuremberg, Germany",,german_fires_nuremberg_locations,6329022f5ed00c7d3bcc972efdfb6f0d,german_fires_nuremberg_locations__6329022f5ed00c7d3bcc972efdfb6f0d
am weiher,"Am Weiher in Nuremberg, Germany",49.5177786,11.0279835,1,,,,,,space,"Am Weiher in Nuremberg, Germany",,german_fires_nuremberg_locations,31c82eef5d78d27dced01d69f7a36680,german_fires_nuremberg_locations__31c82eef5d78d27dced01d69f7a36680
am weissensee,"Am Weissensee in Nuremberg, Germany",49.3688735,11.0522892,1,,,,,,Exec,"Am Weissensee in Nuremberg, Germany",,german_fires_nuremberg_locations,3ed9b5470a3171eb33fc1fce19497d43,german_fires_nuremberg_locations__3ed9b5470a3171eb33fc1fce19497d43
am westpark,"Am Westpark in Nuremberg, Germany",49.4437592,11.0280169,1,,,,,,ForeignMinistry,"Am Westpark in Nuremberg, Germany",,german_fires_nuremberg_locations,83348bacc003dc164d06b190142cca6a,german_fires_nuremberg_locations__83348bacc003dc164d06b190142cca6a
am wiesengrund,"Am Wiesengrund in Nuremberg, Germany",49.3738766,11.0895591,1,,,,,,Pipeline,"Am Wiesengrund in Nuremberg, Germany",,german_fires_nuremberg_locations,42431f7e5a7e80e8a321f21dc6a09257,german_fires_nuremberg_locations__42431f7e5a7e80e8a321f21dc6a09257
am wirtsacker,"Am Wirtsacker in Nuremberg, Germany",49.4406774,11.0107076,1,,,,,,Refinery,"Am Wirtsacker in Nuremberg, Germany",,german_fires_nuremberg_locations,d1915b05e905ab97852745a37a2c08c8,german_fires_nuremberg_locations__d1915b05e905ab97852745a37a2c08c8
am wolfshof,"Am Wolfshof in Nuremberg, Germany",49.4252413,11.1809974,1,,,,,,Shipping,"Am Wolfshof in Nuremberg, Germany",,german_fires_nuremberg_locations,c984a4aa3fad7d1cfdd3ea85b493a41e,german_fires_nuremberg_locations__c984a4aa3fad7d1cfdd3ea85b493a41e
am zollhaus,"Am Zollhaus in Nuremberg, Germany",49.3917757,11.1278618,1,,,,,,Media,"Am Zollhaus in Nuremberg, Germany",,german_fires_nuremberg_locations,40087d4c65b2e6983614ebb4e65ecb6c,german_fires_nuremberg_locations__40087d4c65b2e6983614ebb4e65ecb6c
amalienstrasse,"Amalienstrasse in Nuremberg, Germany",49.4605027,11.0567088,1,,,,,,Refinery,"Amalienstrasse in Nuremberg, Germany",,german_fires_nuremberg_locations,52a39b114105b0c95b58284b0ab27fb2,german_fires_nuremberg_locations__52a39b114105b0c95b58284b0ab27fb2
ambergerstrasse,"Ambergerstrasse in Nuremberg, Germany",49.4283828,11.0489739,1,,,,,,Exec,"Ambergerstrasse in Nuremberg, Germany",,german_fires_nuremberg_locations,b1e27ec24481404da01697842f606693,german_fires_nuremberg_locations__b1e27ec24481404da01697842f606693
ammanstrasse,"Ammanstrasse in Nuremberg, Germany",49.4387904,11.0798277,1,,,,,,Person,"Ammanstrasse in Nuremberg, Germany",,german_fires_nuremberg_locations,e85f9cbbf13e7257134a919d898142e8,german_fires_nuremberg_locations__e85f9cbbf13e7257134a919d898142e8
ammerndorfer strasse,"Ammerndorfer strasse in Nuremberg, Germany",49.451953,11.0313684,1,,,,,,Wells,"Ammerndorfer strasse in Nuremberg, Germany",,german_fires_nuremberg_locations,719cb5e543fa55f6abe945bb6df76f7a,german_fires_nuremberg_locations__719cb5e543fa55f6abe945bb6df76f7a
amorbacher strasse,"Amorbacher strasse in Nuremberg, Germany",49.5352657,11.0253067,1,,,,,,Legislator,"Amorbacher strasse in Nuremberg, Germany",,german_fires_nuremberg_locations,3a4335ad80c1e8c6a0e30ddb5256369f,german_fires_nuremberg_locations__3a4335ad80c1e8c6a0e30ddb5256369f
amrumer strasse,"Amrumer strasse in Nuremberg, Germany",49.4810178,11.0682652,1,,,,,,Media,"Amrumer strasse in Nuremberg, Germany",,german_fires_nuremberg_locations,afd353d1262546fc22d9547a2a09e6cb,german_fires_nuremberg_locations__afd353d1262546fc22d9547a2a09e6cb
amselstrasse,"Amselstrasse in Nuremberg, Germany",49.4403436,11.0548904,1,,,,,,Media,"Amselstrasse in Nuremberg, Germany",,german_fires_nuremberg_locations,3a575a13facf87611ee1c2884007afa2,german_fires_nuremberg_locations__3a575a13facf87611ee1c2884007afa2
amtmannsbrucklein,"Amtmannsbrucklein in Nuremberg, Germany",49.418448,11.181862,1,,,,,,Pipeline,"Amtmannsbrucklein in Nuremberg, Germany",,german_fires_nuremberg_locations,b4686690f241d2ccbbe279063c065b66,german_fires_nuremberg_locations__b4686690f241d2ccbbe279063c065b66
amundsenstrasse,"Amundsenstrasse in Nuremberg, Germany",49.360272,11.0489089,1,,,,,,AAEntity,"Amundsenstrasse in Nuremberg, Germany",,german_fires_nuremberg_locations,589b67ccfd582746b2c8d3eef4fe41eb,german_fires_nuremberg_locations__589b67ccfd582746b2c8d3eef4fe41eb
an den rampen,"An den Rampen in Nuremberg, Germany",49.4410964,11.064311,1,,,,,,Legislator,"An den Rampen in Nuremberg, Germany",,german_fires_nuremberg_locations,b5ec86fc3a59e89adc32240991580807,german_fires_nuremberg_locations__b5ec86fc3a59e89adc32240991580807
an den schwedenkreuzen,"An den Schwedenkreuzen in Nuremberg, Germany",49.3538406,11.0934993,1,,,,,,Legislator,"An den Schwedenkreuzen in Nuremberg, Germany",,german_fires_nuremberg_locations,a653775361e1b47d8a57f47612ad29c8,german_fires_nuremberg_locations__a653775361e1b47d8a57f47612ad29c8
an den weihern,"An den Weihern in Nuremberg, Germany",49.3737233,11.0635733,1,,,,,,Diplomat,"An den Weihern in Nuremberg, Germany",,german_fires_nuremberg_locations,12895c706a55acb865ec7aeb5aa51a8f,german_fires_nuremberg_locations__12895c706a55acb865ec7aeb5aa51a8f
an der bahnlinie,"An der Bahnlinie in Nuremberg, Germany",49.4154067,11.1709134,1,,,,,,Person,"An der Bahnlinie in Nuremberg, Germany",,german_fires_nuremberg_locations,086a8045b283b7ed672be61afaec886f,german_fires_nuremberg_locations__086a8045b283b7ed672be61afaec886f
an der bergleite,"An der Bergleite in Nuremberg, Germany",49.3534875,11.0591725,1,,,,,,FTO,"An der Bergleite in Nuremberg, Germany",,german_fires_nuremberg_locations,969699f9997d1fe9fcf2184ca176c4ea,german_fires_nuremberg_locations__969699f9997d1fe9fcf2184ca176c4ea
an der breiting,"An der Breiting in Nuremberg, Germany",49.3689452,11.0975198,1,,,,,,Shipping,"An der Breiting in Nuremberg, Germany",,german_fires_nuremberg_locations,23b4690a22d56fac33fe1a88508080b8,german_fires_nuremberg_locations__23b4690a22d56fac33fe1a88508080b8
an der fleischbrucke,"An der Fleischbrucke in Nuremberg, Germany",49.4528135,11.0767799,1,,,,,,DiplomaticFacilities,"An der Fleischbrucke in Nuremberg, Germany",,german_fires_nuremberg_locations,db008172e7d5ee3bf21afa2f46e3ea41,german_fires_nuremberg_locations__db008172e7d5ee3bf21afa2f46e3ea41
an der guggenlohe,"An der Guggenlohe in Nuremberg, Germany",49.4956711,11.0497995,1,,,,,,AAEntity,"An der Guggenlohe in Nuremberg, Germany",,german_fires_nuremberg_locations,41560ed8f9c03d4e722e07551d26afd4,german_fires_nuremberg_locations__41560ed8f9c03d4e722e07551d26afd4
an der karlsbrucke,"An der Karlsbrucke in Nuremberg, Germany",49.4528203,11.0745599,1,,,,,,CompanyKeyword,"An der Karlsbrucke in Nuremberg, Germany",,german_fires_nuremberg_locations,21657cd3ac27f6f610168de6fc727468,german_fires_nuremberg_locations__21657cd3ac27f6f610168de6fc727468
an der lehmgrube,"An der Lehmgrube in Nuremberg, Germany",49.5144717,11.030224,1,,,,,,Wells,"An der Lehmgrube in Nuremberg, Germany",,german_fires_nuremberg_locations,3f4e6744e0b990aeed2f16b260887124,german_fires_nuremberg_locations__3f4e6744e0b990aeed2f16b260887124
an der marterlach,"An der Marterlach in Nuremberg, Germany",49.4188511,11.058302,1,,,,,,News,"An der Marterlach in Nuremberg, Germany",,german_fires_nuremberg_locations,736279c97733c113109760c474b63947,german_fires_nuremberg_locations__736279c97733c113109760c474b63947
an der radrunde,"An der Radrunde in Nuremberg, Germany",49.370505,11.0873008,1,,,,,,Pipeline,"An der Radrunde in Nuremberg, Germany",,german_fires_nuremberg_locations,1e893b45c41757e29ca21ba0039d3f4d,german_fires_nuremberg_locations__1e893b45c41757e29ca21ba0039d3f4d
an der rosselwiese,"An der Rosselwiese in Nuremberg, Germany",49.5205971,11.0476548,1,,,,,,FTO,"An der Rosselwiese in Nuremberg, Germany",,german_fires_nuremberg_locations,2c82a5c415154ce4c5c8b5cc43cfed31,german_fires_nuremberg_locations__2c82a5c415154ce4c5c8b5cc43cfed31
an der rundkapelle,"An der Rundkapelle in Nuremberg, Germany",49.4058127,11.1665703,1,,,,,,space,"An der Rundkapelle in Nuremberg, Germany",,german_fires_nuremberg_locations,92edbf6500c7aecb5043de065fe974cb,german_fires_nuremberg_locations__92edbf6500c7aecb5043de065fe974cb
an der schwarzlach,"An der Schwarzlach in Nuremberg, Germany",49.4098101,11.0810555,1,,,,,,Pipeline,"An der Schwarzlach in Nuremberg, Germany",,german_fires_nuremberg_locations,09ae581e4c5681f6c02eede8afb30b6f,german_fires_nuremberg_locations__09ae581e4c5681f6c02eede8afb30b6f
an der schwedenschanze,"An der Schwedenschanze in Nuremberg, Germany",49.3745621,11.0695303,1,,,,,,Person,"An der Schwedenschanze in Nuremberg, Germany",,german_fires_nuremberg_locations,a95db17fe440e3b7fac617921772f9f8,german_fires_nuremberg_locations__a95db17fe440e3b7fac617921772f9f8
an der steinmauer,"An der Steinmauer in Nuremberg, Germany",49.3730979,11.0861878,1,,,,,,IndustryTerm,"An der Steinmauer in Nuremberg, Germany",,german_fires_nuremberg_locations,fbd6fd5806e4ff5a89f4e71ac3eb77d1,german_fires_nuremberg_locations__fbd6fd5806e4ff5a89f4e71ac3eb77d1
an der wind,"An der Wind in Nuremberg, Germany",49.5191622,11.0488697,1,,,,,,Consulates,"An der Wind in Nuremberg, Germany",,german_fires_nuremberg_locations,620ec0a670778ec3931573264f156e84,german_fires_nuremberg_locations__620ec0a670778ec3931573264f156e84
andernacher strasse,"Andernacher strasse in Nuremberg, Germany",49.4898988,11.1008242,1,,,,,,ForeignMinistry,"Andernacher strasse in Nuremberg, Germany",,german_fires_nuremberg_locations,15202370bcc5ccb3564d4df80d961807,german_fires_nuremberg_locations__15202370bcc5ccb3564d4df80d961807
andersenstrasse,"Andersenstrasse in Nuremberg, Germany",49.4673278,11.1781731,1,,,,,,Media,"Andersenstrasse in Nuremberg, Germany",,german_fires_nuremberg_locations,146107709f9ff4b0f56393a5e3de10b2,german_fires_nuremberg_locations__146107709f9ff4b0f56393a5e3de10b2
andreas-hofer-strasse,"Andreas-Hofer-strasse in Nuremberg, Germany",49.4274034,11.0915329,1,,,,,,Legislator,"Andreas-Hofer-strasse in Nuremberg, Germany",,german_fires_nuremberg_locations,c01680718ea510e079b32dbf028fb5b9,german_fires_nuremberg_locations__c01680718ea510e079b32dbf028fb5b9
anemonenstrasse,"Anemonenstrasse in Nuremberg, Germany",49.3491376,11.0597455,1,,,,,,DiplomaticFacilities,"Anemonenstrasse in Nuremberg, Germany",,german_fires_nuremberg_locations,c14a7d984d44c5e8a269962afb746faa,german_fires_nuremberg_locations__c14a7d984d44c5e8a269962afb746faa
angerburger strasse,"Angerburger strasse in Nuremberg, Germany",49.4863102,11.1064101,1,,,,,,Consulates,"Angerburger strasse in Nuremberg, Germany",,german_fires_nuremberg_locations,2832ded3d24654c11ec6134a4f6c8184,german_fires_nuremberg_locations__2832ded3d24654c11ec6134a4f6c8184
angerstrasse,"Angerstrasse in Nuremberg, Germany",49.4409878,11.0693865,1,,,,,,Consulates,"Angerstrasse in Nuremberg, Germany",,german_fires_nuremberg_locations,11fc80bfa85d337d54f3286e4817a68b,german_fires_nuremberg_locations__11fc80bfa85d337d54f3286e4817a68b
anne-frank-strasse,"Anne-Frank-strasse in Nuremberg, Germany",49.4386951,11.0873562,1,,,,,,Pipeline,"Anne-Frank-strasse in Nuremberg, Germany",,german_fires_nuremberg_locations,a5103f6a50dbe775d4a1e8793df2437c,german_fires_nuremberg_locations__a5103f6a50dbe775d4a1e8793df2437c
annette-kolb-strasse,"Annette-Kolb-strasse in Nuremberg, Germany",49.4124573,11.1310253,1,,,,,,ForeignMinister,"Annette-Kolb-strasse in Nuremberg, Germany",,german_fires_nuremberg_locations,9f8b664e48303ee0d0e2c0c6d0bccb82,german_fires_nuremberg_locations__9f8b664e48303ee0d0e2c0c6d0bccb82
annweilerstrasse,"Annweilerstrasse in Nuremberg, Germany",49.4045139,11.0947193,1,,,,,,Organization,"Annweilerstrasse in Nuremberg, Germany",,german_fires_nuremberg_locations,78cb0e73821781f9f6d267f8c1a7c1c1,german_fires_nuremberg_locations__78cb0e73821781f9f6d267f8c1a7c1c1
ansbacher strasse,"Ansbacher strasse in Nuremberg, Germany",49.4206264,11.0284748,1,,,,,,News,"Ansbacher strasse in Nuremberg, Germany",,german_fires_nuremberg_locations,ec878f7cfceba6225fc29cdb533f5306,german_fires_nuremberg_locations__ec878f7cfceba6225fc29cdb533f5306
ansgarstrasse,"Ansgarstrasse in Nuremberg, Germany",49.3951514,11.1758074,1,,,,,,Legislator,"Ansgarstrasse in Nuremberg, Germany",,german_fires_nuremberg_locations,d87a3e0e6fccd00e52da1ad10db6994b,german_fires_nuremberg_locations__d87a3e0e6fccd00e52da1ad10db6994b
antwerpener strasse,"Antwerpener strasse in Nuremberg, Germany",49.3897309,11.0603948,1,,,,,,Exec,"Antwerpener strasse in Nuremberg, Germany",,german_fires_nuremberg_locations,b73fc18b84b56d21a78b8090acdd82c2,german_fires_nuremberg_locations__b73fc18b84b56d21a78b8090acdd82c2
anwandener strasse,"Anwandener strasse in Nuremberg, Germany",49.4525883,11.0304402,1,,,,,,Exec,"Anwandener strasse in Nuremberg, Germany",,german_fires_nuremberg_locations,2a805b232cf16549384c71b93ef94bc9,german_fires_nuremberg_locations__2a805b232cf16549384c71b93ef94bc9
anzengruberstrasse,"Anzengruberstrasse in Nuremberg, Germany",49.4196026,11.1846785,1,,,,,,CompanyKeyword,"Anzengruberstrasse in Nuremberg, Germany",,german_fires_nuremberg_locations,3ded32a0700a71f583016402f4f278e6,german_fires_nuremberg_locations__3ded32a0700a71f583016402f4f278e6
apenrader strasse,"Apenrader strasse in Nuremberg, Germany",49.4787523,11.0667714,1,,,,,,LegislativeCommittee,"Apenrader strasse in Nuremberg, Germany",,german_fires_nuremberg_locations,729c3226540793c137dd3f2c1d06f2df,german_fires_nuremberg_locations__729c3226540793c137dd3f2c1d06f2df
apinusstrasse,"Apinusstrasse in Nuremberg, Germany",49.4562153,11.113917,1,,,,,,space,"Apinusstrasse in Nuremberg, Germany",,german_fires_nuremberg_locations,3ab2140c7e327da13780fccd32190fb9,german_fires_nuremberg_locations__3ab2140c7e327da13780fccd32190fb9
appelstrasse,"Appelstrasse in Nuremberg, Germany",49.3677692,11.0482992,1,,,,,,IndustryTerm,"Appelstrasse in Nuremberg, Germany",,german_fires_nuremberg_locations,acb934e7534dea3516a27b580d4559d4,german_fires_nuremberg_locations__acb934e7534dea3516a27b580d4559d4
appoldstrasse,"Appoldstrasse in Nuremberg, Germany",49.4198123,11.0173547,1,,,,,,Diplomat,"Appoldstrasse in Nuremberg, Germany",,german_fires_nuremberg_locations,e305cb7e73897cfb6de9d89beefe431f,german_fires_nuremberg_locations__e305cb7e73897cfb6de9d89beefe431f
arendsstrasse,"Arendsstrasse in Nuremberg, Germany",49.4279522,11.0471762,1,,,,,,DiplomaticFacilities,"Arendsstrasse in Nuremberg, Germany",,german_fires_nuremberg_locations,a8f5a909dff1a79c6b0bbc6c3f82c551,german_fires_nuremberg_locations__a8f5a909dff1a79c6b0bbc6c3f82c551
arminiusstrasse,"Arminiusstrasse in Nuremberg, Germany",49.450758,11.1083043,1,,,,,,FTO,"Arminiusstrasse in Nuremberg, Germany",,german_fires_nuremberg_locations,fe4080798a351612062e926580298bfb,german_fires_nuremberg_locations__fe4080798a351612062e926580298bfb
armin-knab-strasse,"Armin-Knab-strasse in Nuremberg, Germany",49.4107672,11.0794872,1,,,,,,News,"Armin-Knab-strasse in Nuremberg, Germany",,german_fires_nuremberg_locations,7f8eff8d6fba75e6203834be4236ceb6,german_fires_nuremberg_locations__7f8eff8d6fba75e6203834be4236ceb6
arndtstrasse,"Arndtstrasse in Nuremberg, Germany",49.460319,11.0724609,1,,,,,,Consulates,"Arndtstrasse in Nuremberg, Germany",,german_fires_nuremberg_locations,bb5ea27383b12b931ad20e23c800034f,german_fires_nuremberg_locations__bb5ea27383b12b931ad20e23c800034f
arnoldstrasse,"Arnoldstrasse in Nuremberg, Germany",49.445099,11.1132301,1,,,,,,Person,"Arnoldstrasse in Nuremberg, Germany",,german_fires_nuremberg_locations,d7a94db8cdf6911a2e0e92f248bd4f2c,german_fires_nuremberg_locations__d7a94db8cdf6911a2e0e92f248bd4f2c
artelshofer strasse,"Artelshofer strasse in Nuremberg, Germany",49.4655861,11.1567148,1,,,,,,space,"Artelshofer strasse in Nuremberg, Germany",,german_fires_nuremberg_locations,ded67b893c8c18b5ee3c1bbf900be4be,german_fires_nuremberg_locations__ded67b893c8c18b5ee3c1bbf900be4be
arzbergweg,"Arzbergweg in Nuremberg, Germany",49.4650053,11.1608014,1,,,,,,AAEntity,"Arzbergweg in Nuremberg, Germany",,german_fires_nuremberg_locations,eb1c3dd765482885809d0bb3c5f602b8,german_fires_nuremberg_locations__eb1c3dd765482885809d0bb3c5f602b8
arzloher strasse,"Arzloher strasse in Nuremberg, Germany",49.4631212,11.1619637,1,,,,,,FTO,"Arzloher strasse in Nuremberg, Germany",,german_fires_nuremberg_locations,43c0f9cbed83c020c9a524671c36f9ea,german_fires_nuremberg_locations__43c0f9cbed83c020c9a524671c36f9ea
asbacher strasse,"Asbacher strasse in Nuremberg, Germany",49.4292273,11.0118392,1,,,,,,Person,"Asbacher strasse in Nuremberg, Germany",,german_fires_nuremberg_locations,a0ca8282ea0347876c74d37560b7a151,german_fires_nuremberg_locations__a0ca8282ea0347876c74d37560b7a151
aschaffenburger strasse,"Aschaffenburger strasse in Nuremberg, Germany",49.5266863,11.0062691,1,,,,,,CompanyKeyword,"Aschaffenburger strasse in Nuremberg, Germany",,german_fires_nuremberg_locations,3b22ad4fff902de66c3205227b5727d1,german_fires_nuremberg_locations__3b22ad4fff902de66c3205227b5727d1
asternstrasse,"Asternstrasse in Nuremberg, Germany",49.400247,11.0312023,1,,,,,,Media,"Asternstrasse in Nuremberg, Germany",,german_fires_nuremberg_locations,a224bb4d7efe3eb809d3284a8a80643e,german_fires_nuremberg_locations__a224bb4d7efe3eb809d3284a8a80643e
atlantastrasse,"Atlantastrasse in Nuremberg, Germany",49.4680182,11.0768707,1,,,,,,CompanyKeyword,"Atlantastrasse in Nuremberg, Germany",,german_fires_nuremberg_locations,b7f7288979fe24a9660912c3fc295d3e,german_fires_nuremberg_locations__b7f7288979fe24a9660912c3fc295d3e
auerbacher strasse,"Auerbacher strasse in Nuremberg, Germany",49.4618024,11.1624171,1,,,,,,FTO,"Auerbacher strasse in Nuremberg, Germany",,german_fires_nuremberg_locations,0d2b258a68969cc2b381ba552bc50b55,german_fires_nuremberg_locations__0d2b258a68969cc2b381ba552bc50b55
auf der huth,"Auf der Huth in Nuremberg, Germany",49.3543098,11.0947182,1,,,,,,Keyphrase,"Auf der Huth in Nuremberg, Germany",,german_fires_nuremberg_locations,f9e31a16517f528d746b4298470938b3,german_fires_nuremberg_locations__f9e31a16517f528d746b4298470938b3
auf der paint,"Auf der Paint in Nuremberg, Germany",49.3729436,11.0755569,1,,,,,,space,"Auf der Paint in Nuremberg, Germany",,german_fires_nuremberg_locations,378d530b09b1c2d065d989df34ba9efb,german_fires_nuremberg_locations__378d530b09b1c2d065d989df34ba9efb
auf der schanz,"Auf der Schanz in Nuremberg, Germany",49.3749892,11.0226173,1,,,,,,Refinery,"Auf der Schanz in Nuremberg, Germany",,german_fires_nuremberg_locations,6d35f611f508d4594933aebf0ea501bc,german_fires_nuremberg_locations__6d35f611f508d4594933aebf0ea501bc
aufsessplatz,"Aufsessplatz in Nuremberg, Germany",49.441725,11.0801723,1,,,,,,DiplomaticFacilities,"Aufsessplatz in Nuremberg, Germany",,german_fires_nuremberg_locations,2c1ba32694ca91076b6670631d1bd98b,german_fires_nuremberg_locations__2c1ba32694ca91076b6670631d1bd98b
augraben,"Augraben in Nuremberg, Germany",49.4252472,11.1868509,1,,,,,,space,"Augraben in Nuremberg, Germany",,german_fires_nuremberg_locations,11a57850c936974d5308cc1d1cb08d8e,german_fires_nuremberg_locations__11a57850c936974d5308cc1d1cb08d8e
augsburger strasse,"Augsburger strasse in Nuremberg, Germany",49.456017,11.035386,1,,,,,,News,"Augsburger strasse in Nuremberg, Germany",,german_fires_nuremberg_locations,a753fdc458d9b4faa75fbc5e31ced6f0,german_fires_nuremberg_locations__a753fdc458d9b4faa75fbc5e31ced6f0
augustenstrasse,"Augustenstrasse in Nuremberg, Germany",49.440237,11.0928182,1,,,,,,FTO,"Augustenstrasse in Nuremberg, Germany",,german_fires_nuremberg_locations,d149ce97467ffa765f54c62562e00a5c,german_fires_nuremberg_locations__d149ce97467ffa765f54c62562e00a5c
august-euler-weg,"August-Euler-Weg in Nuremberg, Germany",49.485312,11.0983938,1,,,,,,Pipeline,"August-Euler-Weg in Nuremberg, Germany",,german_fires_nuremberg_locations,55f1d7b59733aec3a02c1255746d0fd3,german_fires_nuremberg_locations__55f1d7b59733aec3a02c1255746d0fd3
augustinerhof,"Augustinerhof in Nuremberg, Germany",49.4537715,11.0759059,1,,,,,,Legislator,"Augustinerhof in Nuremberg, Germany",,german_fires_nuremberg_locations,2c5d959e2a999f59c35dc2509c6342bb,german_fires_nuremberg_locations__2c5d959e2a999f59c35dc2509c6342bb
augustinerstrasse,"Augustinerstrasse in Nuremberg, Germany",49.454107,11.0748585,1,,,,,,ForeignMinistry,"Augustinerstrasse in Nuremberg, Germany",,german_fires_nuremberg_locations,095bd41864710b993098874b96e25ad3,german_fires_nuremberg_locations__095bd41864710b993098874b96e25ad3
august-sieghardt-strasse,"August-Sieghardt-strasse in Nuremberg, Germany",49.4130442,11.1342916,1,,,,,,IndustryTerm,"August-Sieghardt-strasse in Nuremberg, Germany",,german_fires_nuremberg_locations,1a18343a91284ee24e3f552a8c532ae6,german_fires_nuremberg_locations__1a18343a91284ee24e3f552a8c532ae6
aurachweg,"Aurachweg in Nuremberg, Germany",49.4295566,11.0143659,1,,,,,,Shipping,"Aurachweg in Nuremberg, Germany",,german_fires_nuremberg_locations,deb7aaf320cc3516739942e4bd5c0d2e,german_fires_nuremberg_locations__deb7aaf320cc3516739942e4bd5c0d2e
auricher strasse,"Auricher strasse in Nuremberg, Germany",49.4793317,11.0639939,1,,,,,,space,"Auricher strasse in Nuremberg, Germany",,german_fires_nuremberg_locations,e4bd5e4eb8e6eab47e58bb07e448dd5d,german_fires_nuremberg_locations__e4bd5e4eb8e6eab47e58bb07e448dd5d
aussenstrasse,"Aussenstrasse in Nuremberg, Germany",49.3782215,11.0385757,1,,,,,,IndustryTerm,"Aussenstrasse in Nuremberg, Germany",,german_fires_nuremberg_locations,4f139c94d6bdbdfbba4fa5e102860554,german_fires_nuremberg_locations__4f139c94d6bdbdfbba4fa5e102860554
aussere bucher strasse,"aussere Bucher strasse in Nuremberg, Germany",49.4739214,11.065872,1,,,,,,ForeignMinistry,"aussere Bucher strasse in Nuremberg, Germany",,german_fires_nuremberg_locations,284250fffac1eeee44dbe41faf9cf739,german_fires_nuremberg_locations__284250fffac1eeee44dbe41faf9cf739
aussere buttendorfer strasse,"aussere Buttendorfer strasse in Nuremberg, Germany",49.4422546,11.0069786,1,,,,,,News,"aussere Buttendorfer strasse in Nuremberg, Germany",,german_fires_nuremberg_locations,f9af2319ae6f07e85df722b3ac23a7e0,german_fires_nuremberg_locations__f9af2319ae6f07e85df722b3ac23a7e0
aussere grossweidenmuhlstrasse,"aussere Grossweidenmuhlstrasse in Nuremberg, Germany",49.458346,11.0555322,1,,,,,,CompanyKeyword,"aussere Grossweidenmuhlstrasse in Nuremberg, Germany",,german_fires_nuremberg_locations,6717dde322f4cf5dddc53dcce79eb7c1,german_fires_nuremberg_locations__6717dde322f4cf5dddc53dcce79eb7c1
aussere laufer gasse,"aussere Laufer Gasse in Nuremberg, Germany",49.4567988,11.0853969,1,,,,,,News,"aussere Laufer Gasse in Nuremberg, Germany",,german_fires_nuremberg_locations,ffd9c6f640a946a17870ff1dab701fc4,german_fires_nuremberg_locations__ffd9c6f640a946a17870ff1dab701fc4
aussere sulzbacher strasse,"aussere Sulzbacher strasse in Nuremberg, Germany",49.4626358,11.1146429,1,,,,,,Organization,"aussere Sulzbacher strasse in Nuremberg, Germany",,german_fires_nuremberg_locations,bf6f7316b8ac2af9b9edaf1d174c03f1,german_fires_nuremberg_locations__bf6f7316b8ac2af9b9edaf1d174c03f1
ausserer laufer platz,"ausserer Laufer Platz in Nuremberg, Germany",49.4573807,11.0872787,1,,,,,,ForeignMinister,"ausserer Laufer Platz in Nuremberg, Germany",,german_fires_nuremberg_locations,4d050e4970f3cf1740bef62cd933dcc1,german_fires_nuremberg_locations__4d050e4970f3cf1740bef62cd933dcc1
aussiger platz,"Aussiger Platz in Nuremberg, Germany",49.4439515,11.1233805,1,,,,,,Pipeline,"Aussiger Platz in Nuremberg, Germany",,german_fires_nuremberg_locations,ea8a3f8c8faae931c3eff8b8d93d0844,german_fires_nuremberg_locations__ea8a3f8c8faae931c3eff8b8d93d0844
austrasse,"Austrasse in Nuremberg, Germany",49.449534,11.0504664,1,,,,,,Pipeline,"Austrasse in Nuremberg, Germany",,german_fires_nuremberg_locations,6a0127c9d103e8f0fccadf8b5d835d3d,german_fires_nuremberg_locations__6a0127c9d103e8f0fccadf8b5d835d3d
avenariusstrasse,"Avenariusstrasse in Nuremberg, Germany",49.4685398,11.0851809,1,,,,,,Wells,"Avenariusstrasse in Nuremberg, Germany",,german_fires_nuremberg_locations,e7b924d9f77fd2431c5e0da99bb33a53,german_fires_nuremberg_locations__e7b924d9f77fd2431c5e0da99bb33a53
ayrerstrasse,"Ayrerstrasse in Nuremberg, Germany",49.439246,11.1256146,1,,,,,,Legislator,"Ayrerstrasse in Nuremberg, Germany",,german_fires_nuremberg_locations,10d7662f5fe2bbcab2b21a8b5cd71831,german_fires_nuremberg_locations__10d7662f5fe2bbcab2b21a8b5cd71831
azaleenweg,"Azaleenweg in Nuremberg, Germany",49.4566896,11.1367797,1,,,,,,Keyphrase,"Azaleenweg in Nuremberg, Germany",,german_fires_nuremberg_locations,6d9cfe17676cbd58980519985f4fcc3e,german_fires_nuremberg_locations__6d9cfe17676cbd58980519985f4fcc3e
baaderstrasse,"Baaderstrasse in Nuremberg, Germany",49.4404063,11.1016832,1,,,,,,ForeignMinistry,"Baaderstrasse in Nuremberg, Germany",,german_fires_nuremberg_locations,25799f51981ed30738f9cda269987cbc,german_fires_nuremberg_locations__25799f51981ed30738f9cda269987cbc
bad bernecker strasse,"Bad Bernecker strasse in Nuremberg, Germany",49.4687657,11.1174419,1,,,,,,FTO,"Bad Bernecker strasse in Nuremberg, Germany",,german_fires_nuremberg_locations,a43e9e0aca8cede665e853d0a7bf6f8f,german_fires_nuremberg_locations__a43e9e0aca8cede665e853d0a7bf6f8f
bad bruckenauer strasse,"Bad Bruckenauer strasse in Nuremberg, Germany",49.5326066,11.0186664,1,,,,,,Refinery,"Bad Bruckenauer strasse in Nuremberg, Germany",,german_fires_nuremberg_locations,056241fb7954fb7bf96410dbcc0917ef,german_fires_nuremberg_locations__056241fb7954fb7bf96410dbcc0917ef
bad kissinger strasse,"Bad Kissinger strasse in Nuremberg, Germany",49.5304488,11.019576,1,,,,,,Pipeline,"Bad Kissinger strasse in Nuremberg, Germany",,german_fires_nuremberg_locations,2a1c560b1d440023e4d0f03b874c54df,german_fires_nuremberg_locations__2a1c560b1d440023e4d0f03b874c54df
bad worishofener strasse,"Bad Worishofener strasse in Nuremberg, Germany",49.3690035,11.0698728,1,,,,,,ForeignMinistry,"Bad Worishofener strasse in Nuremberg, Germany",,german_fires_nuremberg_locations,41524e0cb5a050c52a6622ebd3c95db7,german_fires_nuremberg_locations__41524e0cb5a050c52a6622ebd3c95db7
baden-powell-strasse,"Baden-Powell-strasse in Nuremberg, Germany",49.358129,11.058372,1,,,,,,Person,"Baden-Powell-strasse in Nuremberg, Germany",,german_fires_nuremberg_locations,d773eefe95872fb7799ee4cfcc3f6748,german_fires_nuremberg_locations__d773eefe95872fb7799ee4cfcc3f6748
badstrasse,"Badstrasse in Nuremberg, Germany",49.4489812,11.0870638,1,,,,,,IndustryTerm,"Badstrasse in Nuremberg, Germany",,german_fires_nuremberg_locations,a86701aaf27bad68d8af615fdcb7fb30,german_fires_nuremberg_locations__a86701aaf27bad68d8af615fdcb7fb30
bahnhofsplatz,"Bahnhofsplatz in Nuremberg, Germany",49.4468542,11.0819038,1,,,,,,Keyphrase,"Bahnhofsplatz in Nuremberg, Germany",,german_fires_nuremberg_locations,ebefad4193be1a8b9e715439a8bb8121,german_fires_nuremberg_locations__ebefad4193be1a8b9e715439a8bb8121
baierlacherstrasse,"Baierlacherstrasse in Nuremberg, Germany",49.4053165,11.032503,1,,,,,,Person,"Baierlacherstrasse in Nuremberg, Germany",,german_fires_nuremberg_locations,c741b89c1013305de78cda435277b8a2,german_fires_nuremberg_locations__c741b89c1013305de78cda435277b8a2
baiersdorfer strasse,"Baiersdorfer strasse in Nuremberg, Germany",49.504177,11.1060061,1,,,,,,Pipeline,"Baiersdorfer strasse in Nuremberg, Germany",,german_fires_nuremberg_locations,1fc5e4055ce2ddb96d02133db5914bfa,german_fires_nuremberg_locations__1fc5e4055ce2ddb96d02133db5914bfa
baldurstrasse,"Baldurstrasse in Nuremberg, Germany",49.4378295,11.0977983,1,,,,,,Keyphrase,"Baldurstrasse in Nuremberg, Germany",,german_fires_nuremberg_locations,707c06698a92f5760416f150eb4cf5e8,german_fires_nuremberg_locations__707c06698a92f5760416f150eb4cf5e8
balthasar-neumann-strasse,"Balthasar-Neumann-strasse in Nuremberg, Germany",49.4581304,11.138182,1,,,,,,Wells,"Balthasar-Neumann-strasse in Nuremberg, Germany",,german_fires_nuremberg_locations,67d9c012a58df4274324520e6085f822,german_fires_nuremberg_locations__67d9c012a58df4274324520e6085f822
baltrumer strasse,"Baltrumer strasse in Nuremberg, Germany",49.4790904,11.0625779,1,,,,,,Pipeline,"Baltrumer strasse in Nuremberg, Germany",,german_fires_nuremberg_locations,b7a2b84d5add95696ea6efbdbc79216d,german_fires_nuremberg_locations__b7a2b84d5add95696ea6efbdbc79216d
bamberger strasse,"Bamberger strasse in Nuremberg, Germany",49.4821235,11.0478295,1,,,,,,Shipping,"Bamberger strasse in Nuremberg, Germany",,german_fires_nuremberg_locations,e8c50cb91f267dec95076e6168824df0,german_fires_nuremberg_locations__e8c50cb91f267dec95076e6168824df0
barbiergasse,"Barbiergasse in Nuremberg, Germany",49.4465141,11.0658024,1,,,,,,CompanyKeyword,"Barbiergasse in Nuremberg, Germany",,german_fires_nuremberg_locations,6627d6d17064e62fdd6a29b461a16866,german_fires_nuremberg_locations__6627d6d17064e62fdd6a29b461a16866
barenbuhlgraben,"Barenbuhlgraben in Nuremberg, Germany",49.4261702,11.1858642,1,,,,,,Legislator,"Barenbuhlgraben in Nuremberg, Germany",,german_fires_nuremberg_locations,b306e1f1390adfda0afbfb1bef215ceb,german_fires_nuremberg_locations__b306e1f1390adfda0afbfb1bef215ceb
barenschanzstrasse,"Barenschanzstrasse in Nuremberg, Germany",49.45223,11.0549367,1,,,,,,ForeignMinister,"Barenschanzstrasse in Nuremberg, Germany",,german_fires_nuremberg_locations,bd79df30d45009cfc46b02a156025837,german_fires_nuremberg_locations__bd79df30d45009cfc46b02a156025837
barlachstrasse,"Barlachstrasse in Nuremberg, Germany",49.3749588,11.0810162,1,,,,,,Exec,"Barlachstrasse in Nuremberg, Germany",,german_fires_nuremberg_locations,0162d9904aac6345c2c449c3bccd3e7d,german_fires_nuremberg_locations__0162d9904aac6345c2c449c3bccd3e7d
bartholomausstrasse,"Bartholomausstrasse in Nuremberg, Germany",49.4568309,11.1017179,1,,,,,,FTO,"Bartholomausstrasse in Nuremberg, Germany",,german_fires_nuremberg_locations,90bfcff623b44b5af4e9f9a85cbd45e1,german_fires_nuremberg_locations__90bfcff623b44b5af4e9f9a85cbd45e1
bartokstrasse,"Bartokstrasse in Nuremberg, Germany",49.3501073,11.0624611,1,,,,,,FTO,"Bartokstrasse in Nuremberg, Germany",,german_fires_nuremberg_locations,fdeca8160b4f1e194e145b9ef1282b9f,german_fires_nuremberg_locations__fdeca8160b4f1e194e145b9ef1282b9f
baststrasse,"Baststrasse in Nuremberg, Germany",49.4992477,11.0461861,1,,,,,,space,"Baststrasse in Nuremberg, Germany",,german_fires_nuremberg_locations,c182908afa49bbbad7a08bd3dbf1ce23,german_fires_nuremberg_locations__c182908afa49bbbad7a08bd3dbf1ce23
bauernfeindstrasse,"Bauernfeindstrasse in Nuremberg, Germany",49.4147548,11.1035884,1,,,,,,DiplomaticFacilities,"Bauernfeindstrasse in Nuremberg, Germany",,german_fires_nuremberg_locations,d547f538fea2c9075c184ec45cd11f8f,german_fires_nuremberg_locations__d547f538fea2c9075c184ec45cd11f8f
bauernfeldstrasse,"Bauernfeldstrasse in Nuremberg, Germany",49.4228198,11.1912941,1,,,,,,DiplomaticFacilities,"Bauernfeldstrasse in Nuremberg, Germany",,german_fires_nuremberg_locations,bf683fbf3f0cb28104f8a87083777cb1,german_fires_nuremberg_locations__bf683fbf3f0cb28104f8a87083777cb1
bauerngasse,"Bauerngasse in Nuremberg, Germany",49.4456241,11.0608801,1,,,,,,ForeignMinistry,"Bauerngasse in Nuremberg, Germany",,german_fires_nuremberg_locations,6d57322bf45561f22ade8b397c06d925,german_fires_nuremberg_locations__6d57322bf45561f22ade8b397c06d925
bauhof,"Bauhof in Nuremberg, Germany",49.4493341,11.0818189,1,,,,,,AAEntity,"Bauhof in Nuremberg, Germany",,german_fires_nuremberg_locations,a4c52213a1278ed142e92ecef07dd658,german_fires_nuremberg_locations__a4c52213a1278ed142e92ecef07dd658
bauhuttenstrasse,"Bauhuttenstrasse in Nuremberg, Germany",49.4328535,11.0597866,1,,,,,,ForeignMinister,"Bauhuttenstrasse in Nuremberg, Germany",,german_fires_nuremberg_locations,72b5ace2e77e9e577aa9042e16124840,german_fires_nuremberg_locations__72b5ace2e77e9e577aa9042e16124840
bauvereinstrasse,"Bauvereinstrasse in Nuremberg, Germany",49.4565233,11.0979593,1,,,,,,ForeignMinister,"Bauvereinstrasse in Nuremberg, Germany",,german_fires_nuremberg_locations,d11738c35bacb320bc87eb3c09c31070,german_fires_nuremberg_locations__d11738c35bacb320bc87eb3c09c31070
bayernstrasse,"Bayernstrasse in Nuremberg, Germany",49.4337313,11.1103632,1,,,,,,Media,"Bayernstrasse in Nuremberg, Germany",,german_fires_nuremberg_locations,006ec7f7168ba20f488a0b56ed89e683,german_fires_nuremberg_locations__006ec7f7168ba20f488a0b56ed89e683
bebelstrasse,"Bebelstrasse in Nuremberg, Germany",49.3629896,11.0481813,1,,,,,,ForeignMinistry,"Bebelstrasse in Nuremberg, Germany",,german_fires_nuremberg_locations,80b06b63f450769a8531bcf912d740e4,german_fires_nuremberg_locations__80b06b63f450769a8531bcf912d740e4
bechhofer strasse,"Bechhofer strasse in Nuremberg, Germany",49.3768212,11.0212901,1,,,,,,Legislator,"Bechhofer strasse in Nuremberg, Germany",,german_fires_nuremberg_locations,3898d1437e7de5fd38243c88067d00f4,german_fires_nuremberg_locations__3898d1437e7de5fd38243c88067d00f4
beckmannstrasse,"Beckmannstrasse in Nuremberg, Germany",49.371909,11.0857172,1,,,,,,Diplomat,"Beckmannstrasse in Nuremberg, Germany",,german_fires_nuremberg_locations,d0a19878ba24fce7e9291c7e5bebf494,german_fires_nuremberg_locations__d0a19878ba24fce7e9291c7e5bebf494
beckschlagergasse,"Beckschlagergasse in Nuremberg, Germany",49.4556533,11.0853701,1,,,,,,Consulates,"Beckschlagergasse in Nuremberg, Germany",,german_fires_nuremberg_locations,ef35491a2842b06f456d72aab48cb326,german_fires_nuremberg_locations__ef35491a2842b06f456d72aab48cb326
beckstrasse,"Beckstrasse in Nuremberg, Germany",49.4542467,11.0427835,1,,,,,,Person,"Beckstrasse in Nuremberg, Germany",,german_fires_nuremberg_locations,c6bb4887169fddee70bf64b9d7888287,german_fires_nuremberg_locations__c6bb4887169fddee70bf64b9d7888287
beerbacher weg,"Beerbacher Weg in Nuremberg, Germany",49.4654464,11.149792,1,,,,,,Exec,"Beerbacher Weg in Nuremberg, Germany",,german_fires_nuremberg_locations,e972ef88dff0b2c520832bcc6f51570f,german_fires_nuremberg_locations__e972ef88dff0b2c520832bcc6f51570f
beethovenstrasse,"Beethovenstrasse in Nuremberg, Germany",49.4698816,11.1231209,1,,,,,,Wells,"Beethovenstrasse in Nuremberg, Germany",,german_fires_nuremberg_locations,397f2f81dbaa2d7893fd3bde7dbb5906,german_fires_nuremberg_locations__397f2f81dbaa2d7893fd3bde7dbb5906
bei der gerasmuhle,"Bei der Gerasmuhle in Nuremberg, Germany",49.3937243,11.0250328,1,,,,,,Exec,"Bei der Gerasmuhle in Nuremberg, Germany",,german_fires_nuremberg_locations,c7962423000f78d580bc7f6cbd29e9e9,german_fires_nuremberg_locations__c7962423000f78d580bc7f6cbd29e9e9
beilngrieser strasse,"Beilngrieser strasse in Nuremberg, Germany",49.3837382,11.0381471,1,,,,,,LegislativeCommittee,"Beilngrieser strasse in Nuremberg, Germany",,german_fires_nuremberg_locations,47c4160caf37f1288b379a9770f3151e,german_fires_nuremberg_locations__47c4160caf37f1288b379a9770f3151e
beim eibisch,"Beim Eibisch in Nuremberg, Germany",49.4100657,11.0268126,1,,,,,,Consulates,"Beim Eibisch in Nuremberg, Germany",,german_fires_nuremberg_locations,943759201404c3a0ad855c8512bd7f74,german_fires_nuremberg_locations__943759201404c3a0ad855c8512bd7f74
beim galgensee,"Beim Galgensee in Nuremberg, Germany",49.5333544,11.0271749,1,,,,,,Wells,"Beim Galgensee in Nuremberg, Germany",,german_fires_nuremberg_locations,d262f6bddcad4f8709cf95078cd22de2,german_fires_nuremberg_locations__d262f6bddcad4f8709cf95078cd22de2
beim gronacker,"Beim Gronacker in Nuremberg, Germany",49.4470068,11.1248307,1,,,,,,Consulates,"Beim Gronacker in Nuremberg, Germany",,german_fires_nuremberg_locations,bf2fa861bc800b6444e912b2731357e2,german_fires_nuremberg_locations__bf2fa861bc800b6444e912b2731357e2
beim hammerwerk,"Beim Hammerwerk in Nuremberg, Germany",49.46946,11.1674325,1,,,,,,DiplomaticFacilities,"Beim Hammerwerk in Nuremberg, Germany",,german_fires_nuremberg_locations,8122aa01af5aeee91eb3a9dee19e14ed,german_fires_nuremberg_locations__8122aa01af5aeee91eb3a9dee19e14ed
beim rochuskirchhof,"Beim Rochuskirchhof in Nuremberg, Germany",49.4480215,11.0606161,1,,,,,,LegislativeCommittee,"Beim Rochuskirchhof in Nuremberg, Germany",,german_fires_nuremberg_locations,7325f0bae1fcfd3d9e9fe6dcf89da7af,german_fires_nuremberg_locations__7325f0bae1fcfd3d9e9fe6dcf89da7af
beim tiergartnertor,"Beim Tiergartnertor in Nuremberg, Germany",49.4573645,11.0743073,1,,,,,,ForeignMinistry,"Beim Tiergartnertor in Nuremberg, Germany",,german_fires_nuremberg_locations,aee61bc067bd3b83bf591e68ddd53263,german_fires_nuremberg_locations__aee61bc067bd3b83bf591e68ddd53263
beim wahlbaum,"Beim Wahlbaum in Nuremberg, Germany",49.3809363,11.0326631,1,,,,,,CompanyKeyword,"Beim Wahlbaum in Nuremberg, Germany",,german_fires_nuremberg_locations,23ab8388aea9e8dfe9cc5821db0a3cc3,german_fires_nuremberg_locations__23ab8388aea9e8dfe9cc5821db0a3cc3
belgarder strasse,"Belgarder strasse in Nuremberg, Germany",49.4131136,11.0351295,1,,,,,,ForeignMinistry,"Belgarder strasse in Nuremberg, Germany",,german_fires_nuremberg_locations,76b7c10baaa057d0b0f5d23861c55899,german_fires_nuremberg_locations__76b7c10baaa057d0b0f5d23861c55899
belznerweg,"Belznerweg in Nuremberg, Germany",49.4783011,11.1029909,1,,,,,,FTO,"Belznerweg in Nuremberg, Germany",,german_fires_nuremberg_locations,3b2cb66482c1c76330cac8488669fdb5,german_fires_nuremberg_locations__3b2cb66482c1c76330cac8488669fdb5
benekestrasse,"Benekestrasse in Nuremberg, Germany",49.4667351,11.0847232,1,,,,,,Pipeline,"Benekestrasse in Nuremberg, Germany",,german_fires_nuremberg_locations,07cd81d4613669bc2216731a4e0d21a0,german_fires_nuremberg_locations__07cd81d4613669bc2216731a4e0d21a0
bennostrasse,"Bennostrasse in Nuremberg, Germany",49.4783028,11.1172187,1,,,,,,LegislativeCommittee,"Bennostrasse in Nuremberg, Germany",,german_fires_nuremberg_locations,972eb95bec22ecfa5c609f6370f8e061,german_fires_nuremberg_locations__972eb95bec22ecfa5c609f6370f8e061
berchinger strasse,"Berchinger strasse in Nuremberg, Germany",49.4087064,11.0452029,1,,,,,,Legislator,"Berchinger strasse in Nuremberg, Germany",,german_fires_nuremberg_locations,c66555503888d1919d5c32e4bad32490,german_fires_nuremberg_locations__c66555503888d1919d5c32e4bad32490
berckhauserstrasse,"Berckhauserstrasse in Nuremberg, Germany",49.4644006,11.088297,1,,,,,,IndustryTerm,"Berckhauserstrasse in Nuremberg, Germany",,german_fires_nuremberg_locations,4c3defe72b3b50a6843d908ecb54bf2c,german_fires_nuremberg_locations__4c3defe72b3b50a6843d908ecb54bf2c
bergackerstrasse,"Bergackerstrasse in Nuremberg, Germany",49.4323818,11.1125338,1,,,,,,AAEntity,"Bergackerstrasse in Nuremberg, Germany",,german_fires_nuremberg_locations,3784a1278f6f8ca8edef3c490da792a9,german_fires_nuremberg_locations__3784a1278f6f8ca8edef3c490da792a9
bergstrasse,"Bergstrasse in Nuremberg, Germany",49.4569208,11.0751897,1,,,,,,ForeignMinistry,"Bergstrasse in Nuremberg, Germany",,german_fires_nuremberg_locations,1a20aab4f90dd28b2383beaf73fd11b9,german_fires_nuremberg_locations__1a20aab4f90dd28b2383beaf73fd11b9
berliner platz,"Berliner Platz in Nuremberg, Germany",49.4633638,11.095835,1,,,,,,Legislator,"Berliner Platz in Nuremberg, Germany",,german_fires_nuremberg_locations,38c6841d630f92dd5b8d88aa1c306573,german_fires_nuremberg_locations__38c6841d630f92dd5b8d88aa1c306573
bernadottestrasse,"Bernadottestrasse in Nuremberg, Germany",49.4428421,11.0385128,1,,,,,,IndustryTerm,"Bernadottestrasse in Nuremberg, Germany",,german_fires_nuremberg_locations,a58524de297d08f7101629ae2e176db3,german_fires_nuremberg_locations__a58524de297d08f7101629ae2e176db3
bernhardstrasse,"Bernhardstrasse in Nuremberg, Germany",49.45539,11.0116941,1,,,,,,Person,"Bernhardstrasse in Nuremberg, Germany",,german_fires_nuremberg_locations,dde531fbacc7e849980e85ef0f2306a4,german_fires_nuremberg_locations__dde531fbacc7e849980e85ef0f2306a4
bernstadter strasse,"Bernstadter strasse in Nuremberg, Germany",49.3986326,11.1365958,1,,,,,,IndustryTerm,"Bernstadter strasse in Nuremberg, Germany",,german_fires_nuremberg_locations,961824a509a1e42a4ecae224f3952eda,german_fires_nuremberg_locations__961824a509a1e42a4ecae224f3952eda
berolzheimer strasse,"Berolzheimer strasse in Nuremberg, Germany",49.4193898,11.0354332,1,,,,,,LegislativeCommittee,"Berolzheimer strasse in Nuremberg, Germany",,german_fires_nuremberg_locations,56bcfbf24a8d587bfbed2590666774b7,german_fires_nuremberg_locations__56bcfbf24a8d587bfbed2590666774b7
bertastrasse,"Bertastrasse in Nuremberg, Germany",49.4450264,11.1137431,1,,,,,,Diplomat,"Bertastrasse in Nuremberg, Germany",,german_fires_nuremberg_locations,8ec7097616eb8bf7c54ee31c7b9a23ee,german_fires_nuremberg_locations__8ec7097616eb8bf7c54ee31c7b9a23ee
bertha-von-suttner-strasse,"Bertha-von-Suttner-strasse in Nuremberg, Germany",49.4445804,11.0454809,1,,,,,,Exec,"Bertha-von-Suttner-strasse in Nuremberg, Germany",,german_fires_nuremberg_locations,7cd048277fe77cf6e750d81515c2aa43,german_fires_nuremberg_locations__7cd048277fe77cf6e750d81515c2aa43
bertolt-brecht-strasse,"Bertolt-Brecht-strasse in Nuremberg, Germany",49.4151718,11.1232345,1,,,,,,ForeignMinister,"Bertolt-Brecht-strasse in Nuremberg, Germany",,german_fires_nuremberg_locations,31e536d3b536da8ed781bda82d3a82c4,german_fires_nuremberg_locations__31e536d3b536da8ed781bda82d3a82c4
beslerstrasse,"Beslerstrasse in Nuremberg, Germany",49.4098672,11.0328244,1,,,,,,Person,"Beslerstrasse in Nuremberg, Germany",,german_fires_nuremberg_locations,262affc0debdcff5932b651217212b81,german_fires_nuremberg_locations__262affc0debdcff5932b651217212b81
bessemerstrasse,"Bessemerstrasse in Nuremberg, Germany",49.4757834,11.1065107,1,,,,,,Keyphrase,"Bessemerstrasse in Nuremberg, Germany",,german_fires_nuremberg_locations,acf9d8a2b566f9500c271fe5f3978d34,german_fires_nuremberg_locations__acf9d8a2b566f9500c271fe5f3978d34
bestelmeyerstrasse,"Bestelmeyerstrasse in Nuremberg, Germany",49.4440738,11.1079701,1,,,,,,Organization,"Bestelmeyerstrasse in Nuremberg, Germany",,german_fires_nuremberg_locations,9a6e12960884fc9cfd9fb7e096dd0f11,german_fires_nuremberg_locations__9a6e12960884fc9cfd9fb7e096dd0f11
betzengasschen,"Betzengasschen in Nuremberg, Germany",49.450718,11.068205,1,,,,,,AAEntity,"Betzengasschen in Nuremberg, Germany",,german_fires_nuremberg_locations,b3d9cb5d7fd7c1fb62d9d51451b2c554,german_fires_nuremberg_locations__b3d9cb5d7fd7c1fb62d9d51451b2c554
betzensteiner strasse,"Betzensteiner strasse in Nuremberg, Germany",49.4832437,11.1166649,1,,,,,,Diplomat,"Betzensteiner strasse in Nuremberg, Germany",,german_fires_nuremberg_locations,adb970399dd9c63f0131e4ab26326fe1,german_fires_nuremberg_locations__adb970399dd9c63f0131e4ab26326fe1
bibertstrasse,"Bibertstrasse in Nuremberg, Germany",49.4309655,11.0053867,1,,,,,,Media,"Bibertstrasse in Nuremberg, Germany",,german_fires_nuremberg_locations,8a13b777d06cfd450f0ea9e44833c748,german_fires_nuremberg_locations__8a13b777d06cfd450f0ea9e44833c748
bibraweg,"Bibraweg in Nuremberg, Germany",49.407072,11.0331362,1,,,,,,Consulates,"Bibraweg in Nuremberg, Germany",,german_fires_nuremberg_locations,b0d2cd05d757373eff59d9e856fc95e3,german_fires_nuremberg_locations__b0d2cd05d757373eff59d9e856fc95e3
bielefelder strasse,"Bielefelder strasse in Nuremberg, Germany",49.4670602,11.0502297,1,,,,,,IndustryTerm,"Bielefelder strasse in Nuremberg, Germany",,german_fires_nuremberg_locations,4a8f29812a32abfdaf68cc985db33648,german_fires_nuremberg_locations__4a8f29812a32abfdaf68cc985db33648
bielingplatz,"Bielingplatz in Nuremberg, Germany",49.4643373,11.062851,1,,,,,,Person,"Bielingplatz in Nuremberg, Germany",,german_fires_nuremberg_locations,329cd93f71dbdf32fc95981176848843,german_fires_nuremberg_locations__329cd93f71dbdf32fc95981176848843
bielingstrasse,"Bielingstrasse in Nuremberg, Germany",49.4619342,11.0668157,1,,,,,,Consulates,"Bielingstrasse in Nuremberg, Germany",,german_fires_nuremberg_locations,23be45c34a738bb40168d7a243dd9bc6,german_fires_nuremberg_locations__23be45c34a738bb40168d7a243dd9bc6
bienweg,"Bienweg in Nuremberg, Germany",49.4666437,11.0451118,1,,,,,,News,"Bienweg in Nuremberg, Germany",,german_fires_nuremberg_locations,9067e496b4177bc5ace388cf84a91a09,german_fires_nuremberg_locations__9067e496b4177bc5ace388cf84a91a09
bierleite,"Bierleite in Nuremberg, Germany",49.3591583,11.058776,1,,,,,,Keyphrase,"Bierleite in Nuremberg, Germany",,german_fires_nuremberg_locations,1a0ec15a1319d07881f435e412275281,german_fires_nuremberg_locations__1a0ec15a1319d07881f435e412275281
bierweg,"Bierweg in Nuremberg, Germany",49.4881796,11.1143685,1,,,,,,ForeignMinister,"Bierweg in Nuremberg, Germany",,german_fires_nuremberg_locations,1e2ae3a6337408cb9f5d477c515cc917,german_fires_nuremberg_locations__1e2ae3a6337408cb9f5d477c515cc917
billrothstrasse,"Billrothstrasse in Nuremberg, Germany",49.4635954,11.1394541,1,,,,,,Legislator,"Billrothstrasse in Nuremberg, Germany",,german_fires_nuremberg_locations,216f22638fe685f982fda6c3bd51a758,german_fires_nuremberg_locations__216f22638fe685f982fda6c3bd51a758
bindergasse,"Bindergasse in Nuremberg, Germany",49.4554185,11.0791974,1,,,,,,FTO,"Bindergasse in Nuremberg, Germany",,german_fires_nuremberg_locations,79dd5bf566c3a5af08d99cdb68f4af40,german_fires_nuremberg_locations__79dd5bf566c3a5af08d99cdb68f4af40
bingstrasse,"Bingstrasse in Nuremberg, Germany",49.4461667,11.1331786,1,,,,,,ForeignMinistry,"Bingstrasse in Nuremberg, Germany",,german_fires_nuremberg_locations,2f1303a54e117b29fa3b0cb6fd30e6f0,german_fires_nuremberg_locations__2f1303a54e117b29fa3b0cb6fd30e6f0
binzenweg,"Binzenweg in Nuremberg, Germany",49.5185588,11.0482263,1,,,,,,ForeignMinister,"Binzenweg in Nuremberg, Germany",,german_fires_nuremberg_locations,5e2b2a7aeba38b85ca6972c70757b06e,german_fires_nuremberg_locations__5e2b2a7aeba38b85ca6972c70757b06e
birkacher strasse,"Birkacher strasse in Nuremberg, Germany",49.3719966,11.0377809,1,,,,,,Refinery,"Birkacher strasse in Nuremberg, Germany",,german_fires_nuremberg_locations,d26f8ea88e6b5caa797460ea03c15901,german_fires_nuremberg_locations__d26f8ea88e6b5caa797460ea03c15901
birkenhof,"Birkenhof in Nuremberg, Germany",49.4397211,11.1099576,1,,,,,,DiplomaticFacilities,"Birkenhof in Nuremberg, Germany",,german_fires_nuremberg_locations,3e31e2f59a773ecdc08a4b748ef78b5f,german_fires_nuremberg_locations__3e31e2f59a773ecdc08a4b748ef78b5f
birkenstrasse,"Birkenstrasse in Nuremberg, Germany",49.4421975,11.0734329,1,,,,,,Keyphrase,"Birkenstrasse in Nuremberg, Germany",,german_fires_nuremberg_locations,5cebf01d2a042bf4bf125927b4d41336,german_fires_nuremberg_locations__5cebf01d2a042bf4bf125927b4d41336
birkhahnweg,"Birkhahnweg in Nuremberg, Germany",49.3774234,11.0703588,1,,,,,,CompanyKeyword,"Birkhahnweg in Nuremberg, Germany",,german_fires_nuremberg_locations,41288ffc7a997624ba9692339daa6c9e,german_fires_nuremberg_locations__41288ffc7a997624ba9692339daa6c9e
birnthon,"Birnthon in Nuremberg, Germany",49.414249,11.2609739,1,,,,,,Person,"Birnthon in Nuremberg, Germany",,german_fires_nuremberg_locations,3f5134b835e98d89e52765f963027f58,german_fires_nuremberg_locations__3f5134b835e98d89e52765f963027f58
bismarckstrasse,"Bismarckstrasse in Nuremberg, Germany",49.4652735,11.1090138,1,,,,,,IndustryTerm,"Bismarckstrasse in Nuremberg, Germany",,german_fires_nuremberg_locations,7e1ab38d6c872e93d7c4c878237bacb5,german_fires_nuremberg_locations__7e1ab38d6c872e93d7c4c878237bacb5
bleichstrasse,"Bleichstrasse in Nuremberg, Germany",49.451443,11.0628172,1,,,,,,Shipping,"Bleichstrasse in Nuremberg, Germany",,german_fires_nuremberg_locations,4fca4da667e94c02079a00f7fb3e5a83,german_fires_nuremberg_locations__4fca4da667e94c02079a00f7fb3e5a83
bliesstrasse,"Bliesstrasse in Nuremberg, Germany",49.3984643,11.0873753,1,,,,,,Keyphrase,"Bliesstrasse in Nuremberg, Germany",,german_fires_nuremberg_locations,0810c00e385e6a15be73e561338e5f58,german_fires_nuremberg_locations__0810c00e385e6a15be73e561338e5f58
blucherstrasse,"Blucherstrasse in Nuremberg, Germany",49.4382391,11.0442078,1,,,,,,CompanyKeyword,"Blucherstrasse in Nuremberg, Germany",,german_fires_nuremberg_locations,06984d296e9a02039927e23347e0a082,german_fires_nuremberg_locations__06984d296e9a02039927e23347e0a082
blumenstrasse,"Blumenstrasse in Nuremberg, Germany",49.4501945,11.0858626,1,,,,,,News,"Blumenstrasse in Nuremberg, Germany",,german_fires_nuremberg_locations,071c744a8ae2a6c8595a66c77965c866,german_fires_nuremberg_locations__071c744a8ae2a6c8595a66c77965c866
blumenthalstrasse,"Blumenthalstrasse in Nuremberg, Germany",49.4542719,11.0603625,1,,,,,,LegislativeCommittee,"Blumenthalstrasse in Nuremberg, Germany",,german_fires_nuremberg_locations,fe9fad7964bc2f23ddf3a67fee8c76dd,german_fires_nuremberg_locations__fe9fad7964bc2f23ddf3a67fee8c76dd
blumroderstrasse,"Blumroderstrasse in Nuremberg, Germany",49.4673193,11.1354081,1,,,,,,space,"Blumroderstrasse in Nuremberg, Germany",,german_fires_nuremberg_locations,fb62bcbf30665d6094eb7d092565a3f3,german_fires_nuremberg_locations__fb62bcbf30665d6094eb7d092565a3f3
blutenstrasse,"Blutenstrasse in Nuremberg, Germany",49.4578574,11.1306104,1,,,,,,Exec,"Blutenstrasse in Nuremberg, Germany",,german_fires_nuremberg_locations,ebd03ba0f2def7b397e08798fbda2665,german_fires_nuremberg_locations__ebd03ba0f2def7b397e08798fbda2665
bochumer strasse,"Bochumer strasse in Nuremberg, Germany",49.3951981,11.0489121,1,,,,,,Media,"Bochumer strasse in Nuremberg, Germany",,german_fires_nuremberg_locations,509790d735b49849278c2f2a8c31085e,german_fires_nuremberg_locations__509790d735b49849278c2f2a8c31085e
bodelschwinghstrasse,"Bodelschwinghstrasse in Nuremberg, Germany",49.4094348,11.1655401,1,,,,,,Exec,"Bodelschwinghstrasse in Nuremberg, Germany",,german_fires_nuremberg_locations,44281e1540d6fdfa28ebea8e1cbd839d,german_fires_nuremberg_locations__44281e1540d6fdfa28ebea8e1cbd839d
boelckestrasse,"Boelckestrasse in Nuremberg, Germany",49.4397211,11.1099576,1,,,,,,space,"Boelckestrasse in Nuremberg, Germany",,german_fires_nuremberg_locations,c3a045c3f43bbe1dfea97be41f7d41c7,german_fires_nuremberg_locations__c3a045c3f43bbe1dfea97be41f7d41c7
bogenstrasse,"Bogenstrasse in Nuremberg, Germany",49.4427734,11.0786623,1,,,,,,Refinery,"Bogenstrasse in Nuremberg, Germany",,german_fires_nuremberg_locations,d4bbb2f0c4dd945a240df1b963277777,german_fires_nuremberg_locations__d4bbb2f0c4dd945a240df1b963277777
bolscheweg,"Bolscheweg in Nuremberg, Germany",49.4072731,11.0322548,1,,,,,,Shipping,"Bolscheweg in Nuremberg, Germany",,german_fires_nuremberg_locations,80fdb1b5ffee0e09b81a002d6ff457c3,german_fires_nuremberg_locations__80fdb1b5ffee0e09b81a002d6ff457c3
bonerstrasse,"Bonerstrasse in Nuremberg, Germany",49.4391077,11.0777571,1,,,,,,ForeignMinistry,"Bonerstrasse in Nuremberg, Germany",,german_fires_nuremberg_locations,6712c947694b11d8ecb392f9d1dbf655,german_fires_nuremberg_locations__6712c947694b11d8ecb392f9d1dbf655
bonhoefferstrasse,"Bonhoefferstrasse in Nuremberg, Germany",49.3956874,11.1384591,1,,,,,,Exec,"Bonhoefferstrasse in Nuremberg, Germany",,german_fires_nuremberg_locations,3b090bf1518321dd307f2b44cb4990ac,german_fires_nuremberg_locations__3b090bf1518321dd307f2b44cb4990ac
bonifatiusstrasse,"Bonifatiusstrasse in Nuremberg, Germany",49.3964715,11.1751981,1,,,,,,Diplomat,"Bonifatiusstrasse in Nuremberg, Germany",,german_fires_nuremberg_locations,e9f4595adab10818ee21dc3bd115eccd,german_fires_nuremberg_locations__e9f4595adab10818ee21dc3bd115eccd
bopfinger strasse,"Bopfinger strasse in Nuremberg, Germany",49.4233508,11.0390458,1,,,,,,space,"Bopfinger strasse in Nuremberg, Germany",,german_fires_nuremberg_locations,3fc696b13640e46778401d6f40185c52,german_fires_nuremberg_locations__3fc696b13640e46778401d6f40185c52
borchertstrasse,"Borchertstrasse in Nuremberg, Germany",49.3532952,11.0956588,1,,,,,,Organization,"Borchertstrasse in Nuremberg, Germany",,german_fires_nuremberg_locations,9b71849d17ca5b56e4a622accfc8fbba,german_fires_nuremberg_locations__9b71849d17ca5b56e4a622accfc8fbba
borkumer strasse,"Borkumer strasse in Nuremberg, Germany",49.4779939,11.0636215,1,,,,,,Legislator,"Borkumer strasse in Nuremberg, Germany",,german_fires_nuremberg_locations,c4d3b884abbf5602867f5b1a2cf78d34,german_fires_nuremberg_locations__c4d3b884abbf5602867f5b1a2cf78d34
bornestrasse,"Bornestrasse in Nuremberg, Germany",49.4227529,11.1935109,1,,,,,,FTO,"Bornestrasse in Nuremberg, Germany",,german_fires_nuremberg_locations,2680fa2d15a7b00a5fc10f854ffa1511,german_fires_nuremberg_locations__2680fa2d15a7b00a5fc10f854ffa1511
borsigstrasse,"Borsigstrasse in Nuremberg, Germany",49.4466859,11.1061489,1,,,,,,CompanyKeyword,"Borsigstrasse in Nuremberg, Germany",,german_fires_nuremberg_locations,212d0f783301dae10b399af8ad354c21,german_fires_nuremberg_locations__212d0f783301dae10b399af8ad354c21
bothmerstrasse,"Bothmerstrasse in Nuremberg, Germany",49.4582102,11.1355294,1,,,,,,ForeignMinistry,"Bothmerstrasse in Nuremberg, Germany",,german_fires_nuremberg_locations,1147a3116595a6e54d8ffa88d17c8282,german_fires_nuremberg_locations__1147a3116595a6e54d8ffa88d17c8282
bothostrasse,"Bothostrasse in Nuremberg, Germany",49.4309588,11.0922033,1,,,,,,FTO,"Bothostrasse in Nuremberg, Germany",,german_fires_nuremberg_locations,d1ed7afec77396dc9adeb2590be7101c,german_fires_nuremberg_locations__d1ed7afec77396dc9adeb2590be7101c
boxdorfer hauptstrasse,"Boxdorfer Hauptstrasse in Nuremberg, Germany",49.5156045,11.0297684,1,,,,,,IndustryTerm,"Boxdorfer Hauptstrasse in Nuremberg, Germany",,german_fires_nuremberg_locations,e4d51aa00329700feb1d3330770e62b7,german_fires_nuremberg_locations__e4d51aa00329700feb1d3330770e62b7
bozener strasse,"Bozener strasse in Nuremberg, Germany",49.4276237,11.0899399,1,,,,,,Organization,"Bozener strasse in Nuremberg, Germany",,german_fires_nuremberg_locations,fd921cd160a79021ac3f0161b3339b2b,german_fires_nuremberg_locations__fd921cd160a79021ac3f0161b3339b2b
braillestrasse,"Braillestrasse in Nuremberg, Germany",49.4769634,11.0886511,1,,,,,,ForeignMinistry,"Braillestrasse in Nuremberg, Germany",,german_fires_nuremberg_locations,f0c98641dabc158846dc85143a5ca626,german_fires_nuremberg_locations__f0c98641dabc158846dc85143a5ca626
brandenburger strasse,"Brandenburger strasse in Nuremberg, Germany",49.4066166,11.0285822,1,,,,,,IndustryTerm,"Brandenburger strasse in Nuremberg, Germany",,german_fires_nuremberg_locations,95f8c180021cc64b031203859940da43,german_fires_nuremberg_locations__95f8c180021cc64b031203859940da43
brandstrasse,"Brandstrasse in Nuremberg, Germany",49.4663361,11.1628732,1,,,,,,Pipeline,"Brandstrasse in Nuremberg, Germany",,german_fires_nuremberg_locations,be6a8eb3dc7a0ae60b3afe66d6d13b44,german_fires_nuremberg_locations__be6a8eb3dc7a0ae60b3afe66d6d13b44
brauhausstrasse,"Brauhausstrasse in Nuremberg, Germany",49.4656504,11.0857088,1,,,,,,AAEntity,"Brauhausstrasse in Nuremberg, Germany",,german_fires_nuremberg_locations,c7b1d1c5c7085f97c10d48a69924371f,german_fires_nuremberg_locations__c7b1d1c5c7085f97c10d48a69924371f
brauneckweg,"Brauneckweg in Nuremberg, Germany",49.4075108,11.1214491,1,,,,,,Exec,"Brauneckweg in Nuremberg, Germany",,german_fires_nuremberg_locations,4cc821e655061a303f90aa22aa66ecbb,german_fires_nuremberg_locations__4cc821e655061a303f90aa22aa66ecbb
