german_text,caption_text,lat,lon,ranking,default location,default_lat,default_lon,.1,.2,.3,ENTITY_LABEL,name,description,source,source_identifier,global_identifier
nornheim,"Nornheim in Gunzburg, Germany",48.4505325,10.3138416,2,"Gunzburg, Germany",48.45238707,10.28055806,,,,FTO,"Nornheim in Gunzburg, Germany",,german_fires_gunzburg_locations,e8976f5795d7ba09e40015fa69bb6153,german_fires_gunzburg_locations__e8976f5795d7ba09e40015fa69bb6153
deffingen,"Deffingen in Gunzburg, Germany",48.4356488,10.2970246,2,,,,,,,DiplomaticFacilities,"Deffingen in Gunzburg, Germany",,german_fires_gunzburg_locations,c2c07802a8c93aaa1d1d0a752c2c852a,german_fires_gunzburg_locations__c2c07802a8c93aaa1d1d0a752c2c852a
denzingen,"Denzingen in Gunzburg, Germany",48.4438526,10.2829839,2,,,,,,ss,space,"Denzingen in Gunzburg, Germany",,german_fires_gunzburg_locations,e35615f008f30a1e98ca1ff2126140a8,german_fires_gunzburg_locations__e35615f008f30a1e98ca1ff2126140a8
leinheim,"Leinheim in Gunzburg, Germany",48.4404496,10.3207002,2,,,,,,u,space,"Leinheim in Gunzburg, Germany",,german_fires_gunzburg_locations,7aba9bbb9e0ef6781320e4dfa50ca5b8,german_fires_gunzburg_locations__7aba9bbb9e0ef6781320e4dfa50ca5b8
reisensburg,"Reisensburg in Gunzburg, Germany",48.4622643,10.3027094,2,,,,,,a,CompanyKeyword,"Reisensburg in Gunzburg, Germany",,german_fires_gunzburg_locations,5faea93a3d792929cfc7f699bb5d1c22,german_fires_gunzburg_locations__5faea93a3d792929cfc7f699bb5d1c22
riedhausen,"Riedhausen in Gunzburg, Germany",48.509888,10.2575553,2,,,,,,o,ForeignMinistry,"Riedhausen in Gunzburg, Germany",,german_fires_gunzburg_locations,fd94fb62fe9bca495f95ca8635fe62d7,german_fires_gunzburg_locations__fd94fb62fe9bca495f95ca8635fe62d7
wasserburg,"Wasserburg in Gunzburg, Germany",48.4368327,10.2698731,2,,,,,,,Legislator,"Wasserburg in Gunzburg, Germany",,german_fires_gunzburg_locations,96013f18b5210c8b8f2ddd69ab08574d,german_fires_gunzburg_locations__96013f18b5210c8b8f2ddd69ab08574d
adalbert-stifter-str.,"Adalbert-Stifter-Str. in Gunzburg, Germany",48.4501465,10.2668782,1,,,,,,,AAEntity,"Adalbert-Stifter-Str. in Gunzburg, Germany",,german_fires_gunzburg_locations,63f5b9535fe44d006223281f53d8c3a9,german_fires_gunzburg_locations__63f5b9535fe44d006223281f53d8c3a9
adolf-paul-gasse,"Adolf-Paul-Gasse in Gunzburg, Germany",48.4556147,10.2746995,1,,,,,,,ForeignMinistry,"Adolf-Paul-Gasse in Gunzburg, Germany",,german_fires_gunzburg_locations,9cc04eb29b2915b6c99def2568e4d47d,german_fires_gunzburg_locations__9cc04eb29b2915b6c99def2568e4d47d
adolph-kolping-str.,"Adolph-Kolping-Str. in Gunzburg, Germany",48.4461313,10.2844345,1,,,,,,,Exec,"Adolph-Kolping-Str. in Gunzburg, Germany",,german_fires_gunzburg_locations,be226dac999fd01abcce7bcf060528d8,german_fires_gunzburg_locations__be226dac999fd01abcce7bcf060528d8
agnes-giering-str.,"Agnes-Giering-Str. in Gunzburg, Germany",48.4482199,10.2627204,1,,,,,,,Keyphrase,"Agnes-Giering-Str. in Gunzburg, Germany",,german_fires_gunzburg_locations,dce2642530dd864982db0791a78ba489,german_fires_gunzburg_locations__dce2642530dd864982db0791a78ba489
ahornstr.,"Ahornstr. in Gunzburg, Germany",48.4441229,10.2667329,1,,,,,,,Refinery,"Ahornstr. in Gunzburg, Germany",,german_fires_gunzburg_locations,6ee7d0456ebb989499b079c4edf15d4e,german_fires_gunzburg_locations__6ee7d0456ebb989499b079c4edf15d4e
albert-bayer-str.,"Albert-Bayer-Str. in Gunzburg, Germany",48.4522417,10.3180649,1,,,,,,,Pipeline,"Albert-Bayer-Str. in Gunzburg, Germany",,german_fires_gunzburg_locations,785c63ccba1ed89219234a23da340967,german_fires_gunzburg_locations__785c63ccba1ed89219234a23da340967
albert-benz-weg,"Albert-Benz-Weg in Gunzburg, Germany",48.4676986,10.2691715,1,,,,,,,CompanyKeyword,"Albert-Benz-Weg in Gunzburg, Germany",,german_fires_gunzburg_locations,fe978c1d22e9b63bea36c4d79699bb5a,german_fires_gunzburg_locations__fe978c1d22e9b63bea36c4d79699bb5a
albert-hofer-str.,"Albert-Hofer-Str. in Gunzburg, Germany",48.4628982,10.2699041,1,,,,,,,LegislativeCommittee,"Albert-Hofer-Str. in Gunzburg, Germany",,german_fires_gunzburg_locations,23f79f41d0577dc127f8eb6be583fbea,german_fires_gunzburg_locations__23f79f41d0577dc127f8eb6be583fbea
alexander-bohm-str.,"Alexander-Bohm-Str. in Gunzburg, Germany",48.4477158,10.262646,1,,,,,,,Exec,"Alexander-Bohm-Str. in Gunzburg, Germany",,german_fires_gunzburg_locations,96571ab2979e937136472fd05c530dc6,german_fires_gunzburg_locations__96571ab2979e937136472fd05c530dc6
alois-mengele-str.,"Alois-Mengele-Str. in Gunzburg, Germany",48.4256866,10.2896261,1,,,,,,,Pipeline,"Alois-Mengele-Str. in Gunzburg, Germany",,german_fires_gunzburg_locations,66c87d2822c202cdbce5d25a2d1f765f,german_fires_gunzburg_locations__66c87d2822c202cdbce5d25a2d1f765f
altvaterstr.,"Altvaterstr. in Gunzburg, Germany",48.4471781,10.2693442,1,,,,,,,Diplomat,"Altvaterstr. in Gunzburg, Germany",,german_fires_gunzburg_locations,2368da68e08739e0cdfb7f34948bc1ef,german_fires_gunzburg_locations__2368da68e08739e0cdfb7f34948bc1ef
am bach,"Am Bach in Gunzburg, Germany",48.5120508,10.2596692,1,,,,,,,Shipping,"Am Bach in Gunzburg, Germany",,german_fires_gunzburg_locations,a9b27871289372d93b19ae0d34d1cd29,german_fires_gunzburg_locations__a9b27871289372d93b19ae0d34d1cd29
am bahnle,"Am Bahnle in Gunzburg, Germany",48.4345692,10.2717286,1,,,,,,,Person,"Am Bahnle in Gunzburg, Germany",,german_fires_gunzburg_locations,d8cedcc458ed7ca8598cf091d24db0a4,german_fires_gunzburg_locations__d8cedcc458ed7ca8598cf091d24db0a4
am denzinger bach,"Am Denzinger Bach in Gunzburg, Germany",48.4423208,10.2862695,1,,,,,,,Person,"Am Denzinger Bach in Gunzburg, Germany",,german_fires_gunzburg_locations,1383540e94f74a4ec43590998c6d4438,german_fires_gunzburg_locations__1383540e94f74a4ec43590998c6d4438
am donaukraftwerk,"Am Donaukraftwerk in Gunzburg, Germany",48.4603396,10.26523,1,,,,,,,IndustryTerm,"Am Donaukraftwerk in Gunzburg, Germany",,german_fires_gunzburg_locations,304ef0b9c0f8d8e4759f021fa5ce9420,german_fires_gunzburg_locations__304ef0b9c0f8d8e4759f021fa5ce9420
am durchlass,"Am Durchlass in Gunzburg, Germany",48.4543519,10.2764892,1,,,,,,,LegislativeCommittee,"Am Durchlass in Gunzburg, Germany",,german_fires_gunzburg_locations,c76f621c3be2416ac4e18ef6f26fe6a5,german_fires_gunzburg_locations__c76f621c3be2416ac4e18ef6f26fe6a5
am farrenberg,"Am Farrenberg in Gunzburg, Germany",48.4604345,10.314026,1,,,,,,,Shipping,"Am Farrenberg in Gunzburg, Germany",,german_fires_gunzburg_locations,65ab383a10965bd5e5f0648255e2b4b6,german_fires_gunzburg_locations__65ab383a10965bd5e5f0648255e2b4b6
am feld,"Am Feld in Gunzburg, Germany",48.5110634,10.2568932,1,,,,,,,Wells,"Am Feld in Gunzburg, Germany",,german_fires_gunzburg_locations,93d7f755991d3262d41c0c2789813f07,german_fires_gunzburg_locations__93d7f755991d3262d41c0c2789813f07
am hang,"Am Hang in Gunzburg, Germany",48.4454755,10.2793972,1,,,,,,,Diplomat,"Am Hang in Gunzburg, Germany",,german_fires_gunzburg_locations,987090017cb9251e88abe574fb96b520,german_fires_gunzburg_locations__987090017cb9251e88abe574fb96b520
am hasenfeld,"Am Hasenfeld in Gunzburg, Germany",48.4616414,10.2974063,1,,,,,,,Diplomat,"Am Hasenfeld in Gunzburg, Germany",,german_fires_gunzburg_locations,11d53203064e4c7bf88db6f1f6879f7c,german_fires_gunzburg_locations__11d53203064e4c7bf88db6f1f6879f7c
am herrenholz,"Am Herrenholz in Gunzburg, Germany",48.4638757,10.3090938,1,,,,,,,Media,"Am Herrenholz in Gunzburg, Germany",,german_fires_gunzburg_locations,f5777a8ab08717e55d15a39457e74ba8,german_fires_gunzburg_locations__f5777a8ab08717e55d15a39457e74ba8
am hohen gstad,"Am Hohen Gstad in Gunzburg, Germany",48.4479739,10.2787275,1,,,,,,,Person,"Am Hohen Gstad in Gunzburg, Germany",,german_fires_gunzburg_locations,4631ea7e944821a69abf32768ab02d12,german_fires_gunzburg_locations__4631ea7e944821a69abf32768ab02d12
am hungerberg,"Am Hungerberg in Gunzburg, Germany",48.4483756,10.2777497,1,,,,,,,Diplomat,"Am Hungerberg in Gunzburg, Germany",,german_fires_gunzburg_locations,93037693cbcedd869c9d1de4d3130a72,german_fires_gunzburg_locations__93037693cbcedd869c9d1de4d3130a72
am klostergarten,"Am Klostergarten in Gunzburg, Germany",48.4571771,10.2763044,1,,,,,,,Organization,"Am Klostergarten in Gunzburg, Germany",,german_fires_gunzburg_locations,0777fbb94ca334cffc310ea680edec54,german_fires_gunzburg_locations__0777fbb94ca334cffc310ea680edec54
am kreuz,"Am Kreuz in Gunzburg, Germany",48.4582087,10.3075413,1,,,,,,,Consulates,"Am Kreuz in Gunzburg, Germany",,german_fires_gunzburg_locations,256092821c5944bc3f8954d569574191,german_fires_gunzburg_locations__256092821c5944bc3f8954d569574191
am mittleren stadtbach,"Am Mittleren Stadtbach in Gunzburg, Germany",48.4499384,10.2893886,1,,,,,,,DiplomaticFacilities,"Am Mittleren Stadtbach in Gunzburg, Germany",,german_fires_gunzburg_locations,bb1a00d882b68c5b3cac97bd31b4b44a,german_fires_gunzburg_locations__bb1a00d882b68c5b3cac97bd31b4b44a
am pulverhausle,"Am Pulverhausle in Gunzburg, Germany",48.4483988,10.2918949,1,,,,,,,Person,"Am Pulverhausle in Gunzburg, Germany",,german_fires_gunzburg_locations,5a2c390530f7e0e44166fbc4298ab046,german_fires_gunzburg_locations__5a2c390530f7e0e44166fbc4298ab046
am rain,"Am Rain in Gunzburg, Germany",48.4354713,10.2694774,1,,,,,,,Wells,"Am Rain in Gunzburg, Germany",,german_fires_gunzburg_locations,3741a6f4186ffe1c7e2e292fb6b2e04e,german_fires_gunzburg_locations__3741a6f4186ffe1c7e2e292fb6b2e04e
am sonneneck,"Am Sonneneck in Gunzburg, Germany",48.4516549,10.3202104,1,,,,,,,Organization,"Am Sonneneck in Gunzburg, Germany",,german_fires_gunzburg_locations,e3228d86c4036221df904e3f14da59d8,german_fires_gunzburg_locations__e3228d86c4036221df904e3f14da59d8
am stadtbach,"Am Stadtbach in Gunzburg, Germany",48.4520012,10.2837212,1,,,,,,,News,"Am Stadtbach in Gunzburg, Germany",,german_fires_gunzburg_locations,fc9d8e56376c037f1507221ca0c29b66,german_fires_gunzburg_locations__fc9d8e56376c037f1507221ca0c29b66
am stadtgraben,"Am Stadtgraben in Gunzburg, Germany",48.4540552,10.2767877,1,,,,,,,Legislator,"Am Stadtgraben in Gunzburg, Germany",,german_fires_gunzburg_locations,82334bf53b2225a99f85d350760249a0,german_fires_gunzburg_locations__82334bf53b2225a99f85d350760249a0
am sudlichen burgfrieden,"Am Sudlichen Burgfrieden in Gunzburg, Germany",48.4483769,10.2827918,1,,,,,,,Media,"Am Sudlichen Burgfrieden in Gunzburg, Germany",,german_fires_gunzburg_locations,7748138a0eac7efbc439f0637728691a,german_fires_gunzburg_locations__7748138a0eac7efbc439f0637728691a
am wasen,"Am Wasen in Gunzburg, Germany",48.4541933,10.2626202,1,,,,,,,CompanyKeyword,"Am Wasen in Gunzburg, Germany",,german_fires_gunzburg_locations,6b0ff677a801d97102b99947b8e89bfa,german_fires_gunzburg_locations__6b0ff677a801d97102b99947b8e89bfa
am weiher,"Am Weiher in Gunzburg, Germany",48.456545,10.2827867,1,,,,,,,IndustryTerm,"Am Weiher in Gunzburg, Germany",,german_fires_gunzburg_locations,4abe9f83133cc10cc6f3d345c792dfc3,german_fires_gunzburg_locations__4abe9f83133cc10cc6f3d345c792dfc3
am zehenthof,"Am Zehenthof in Gunzburg, Germany",48.4408636,10.3265455,1,,,,,,,Wells,"Am Zehenthof in Gunzburg, Germany",,german_fires_gunzburg_locations,a388082f52a785437b515126cbd311a8,german_fires_gunzburg_locations__a388082f52a785437b515126cbd311a8
am ausseren stadtbach,"Am ausseren Stadtbach in Gunzburg, Germany",48.4477986,10.2947609,1,,,,,,,Refinery,"Am ausseren Stadtbach in Gunzburg, Germany",,german_fires_gunzburg_locations,502d5504c04b1fe166c3995dfc2b856a,german_fires_gunzburg_locations__502d5504c04b1fe166c3995dfc2b856a
amselstr.,"Amselstr. in Gunzburg, Germany",48.4506538,10.2907597,1,,,,,,,IndustryTerm,"Amselstr. in Gunzburg, Germany",,german_fires_gunzburg_locations,d72853b6a5e55a4efe66c4d9c840578e,german_fires_gunzburg_locations__d72853b6a5e55a4efe66c4d9c840578e
an der gunz,"An der Gunz in Gunzburg, Germany",48.4584288,10.2756223,1,,,,,,,CompanyKeyword,"An der Gunz in Gunzburg, Germany",,german_fires_gunzburg_locations,b7734a473023816855d981f958c49b49,german_fires_gunzburg_locations__b7734a473023816855d981f958c49b49
an der herrgottsruh,"An der Herrgottsruh in Gunzburg, Germany",48.4463163,10.280168,1,,,,,,,CompanyKeyword,"An der Herrgottsruh in Gunzburg, Germany",,german_fires_gunzburg_locations,5b9e5e61375ac246b18386fb41d39869,german_fires_gunzburg_locations__5b9e5e61375ac246b18386fb41d39869
an der kapuzinermauer,"An der Kapuzinermauer in Gunzburg, Germany",48.4525347,10.2786342,1,,,,,,,Wells,"An der Kapuzinermauer in Gunzburg, Germany",,german_fires_gunzburg_locations,cc2f8bd91b9f7f90a839f388f27e3b01,german_fires_gunzburg_locations__cc2f8bd91b9f7f90a839f388f27e3b01
an der lindengewanne,"An der Lindengewanne in Gunzburg, Germany",48.4586229,10.3088094,1,,,,,,,Exec,"An der Lindengewanne in Gunzburg, Germany",,german_fires_gunzburg_locations,3dca81bc2fec451bc3278ad96c71aa9e,german_fires_gunzburg_locations__3dca81bc2fec451bc3278ad96c71aa9e
an der muhle,"An der Muhle in Gunzburg, Germany",48.4516149,10.2689818,1,,,,,,,Exec,"An der Muhle in Gunzburg, Germany",,german_fires_gunzburg_locations,994165ef8a4a7f37dee4a41a1c6c274c,german_fires_gunzburg_locations__994165ef8a4a7f37dee4a41a1c6c274c
an der rutschl,"An der Rutschl in Gunzburg, Germany",48.4424239,10.2677584,1,,,,,,,News,"An der Rutschl in Gunzburg, Germany",,german_fires_gunzburg_locations,1c73ab4838044918773ea03790d4c8b7,german_fires_gunzburg_locations__1c73ab4838044918773ea03790d4c8b7
an der schaferwiese,"An der Schaferwiese in Gunzburg, Germany",48.4609661,10.3007057,1,,,,,,,Legislator,"An der Schaferwiese in Gunzburg, Germany",,german_fires_gunzburg_locations,20e7041d324c28a69a615312d39e401b,german_fires_gunzburg_locations__20e7041d324c28a69a615312d39e401b
an der wiedenlach,"An der Wiedenlach in Gunzburg, Germany",48.5123236,10.2576827,1,,,,,,,IndustryTerm,"An der Wiedenlach in Gunzburg, Germany",,german_fires_gunzburg_locations,15056e9d2c2ec7dc12c7a122c83651c2,german_fires_gunzburg_locations__15056e9d2c2ec7dc12c7a122c83651c2
anna-seghers-str.,"Anna-Seghers-Str. in Gunzburg, Germany",48.4516292,10.3138255,1,,,,,,,Keyphrase,"Anna-Seghers-Str. in Gunzburg, Germany",,german_fires_gunzburg_locations,7078a5b22aeb520757d47444eb274c65,german_fires_gunzburg_locations__7078a5b22aeb520757d47444eb274c65
annastr.,"Annastr. in Gunzburg, Germany",48.443585,10.2871142,1,,,,,,,ForeignMinister,"Annastr. in Gunzburg, Germany",,german_fires_gunzburg_locations,2e03cdfa69cd6e4b213a372fe9e248ef,german_fires_gunzburg_locations__2e03cdfa69cd6e4b213a372fe9e248ef
anton-gunther-str.,"Anton-Gunther-Str. in Gunzburg, Germany",48.4471459,10.2669105,1,,,,,,,News,"Anton-Gunther-Str. in Gunzburg, Germany",,german_fires_gunzburg_locations,7f195e7b77b1b4a7410261d33085a02b,german_fires_gunzburg_locations__7f195e7b77b1b4a7410261d33085a02b
aplabildweg,"Aplabildweg in Gunzburg, Germany",48.4548387,10.2591823,1,,,,,,,DiplomaticFacilities,"Aplabildweg in Gunzburg, Germany",,german_fires_gunzburg_locations,25c8d9fe9df2e3e1d9823f2a976088c6,german_fires_gunzburg_locations__25c8d9fe9df2e3e1d9823f2a976088c6
apostelstr.,"Apostelstr. in Gunzburg, Germany",48.4589434,10.2790354,1,,,,,,,ForeignMinister,"Apostelstr. in Gunzburg, Germany",,german_fires_gunzburg_locations,bbf8dca78f18d22708296bb3fb18ce35,german_fires_gunzburg_locations__bbf8dca78f18d22708296bb3fb18ce35
apostelweg,"Apostelweg in Gunzburg, Germany",48.459248,10.2781138,1,,,,,,,ForeignMinister,"Apostelweg in Gunzburg, Germany",,german_fires_gunzburg_locations,91c19646280d46a433e0220feca5bbe0,german_fires_gunzburg_locations__91c19646280d46a433e0220feca5bbe0
argonstr.,"Argonstr. in Gunzburg, Germany",48.4444057,10.2829115,1,,,,,,,Consulates,"Argonstr. in Gunzburg, Germany",,german_fires_gunzburg_locations,007f1fa62a6ce4f642f55e7ee45fa47b,german_fires_gunzburg_locations__007f1fa62a6ce4f642f55e7ee45fa47b
asternweg,"Asternweg in Gunzburg, Germany",48.4425819,10.3201869,1,,,,,,,Diplomat,"Asternweg in Gunzburg, Germany",,german_fires_gunzburg_locations,b1862946b886b5bc312a84f6be0bf571,german_fires_gunzburg_locations__b1862946b886b5bc312a84f6be0bf571
auf dem bruhl,"Auf dem Bruhl in Gunzburg, Germany",48.4418798,10.2808883,1,,,,,,,Refinery,"Auf dem Bruhl in Gunzburg, Germany",,german_fires_gunzburg_locations,4637684aa52be447788639d2cec2379a,german_fires_gunzburg_locations__4637684aa52be447788639d2cec2379a
auf dem gries,"Auf dem Gries in Gunzburg, Germany",48.4525676,10.2705047,1,,,,,,,Person,"Auf dem Gries in Gunzburg, Germany",,german_fires_gunzburg_locations,172389ea9cf2aa92bf1ce5e86c427b9e,german_fires_gunzburg_locations__172389ea9cf2aa92bf1ce5e86c427b9e
auf der bleiche,"Auf der Bleiche in Gunzburg, Germany",48.4524835,10.2726067,1,,,,,,,Legislator,"Auf der Bleiche in Gunzburg, Germany",,german_fires_gunzburg_locations,a2e05582a807a908162b23438b21d167,german_fires_gunzburg_locations__a2e05582a807a908162b23438b21d167
auf der hagenweide,"Auf der Hagenweide in Gunzburg, Germany",48.4492948,10.2714922,1,,,,,,,Organization,"Auf der Hagenweide in Gunzburg, Germany",,german_fires_gunzburg_locations,f85728faf5bfcbeb476413f48f23d9f4,german_fires_gunzburg_locations__f85728faf5bfcbeb476413f48f23d9f4
auf der weide,"Auf der Weide in Gunzburg, Germany",48.4385824,10.2752959,1,,,,,,,Refinery,"Auf der Weide in Gunzburg, Germany",,german_fires_gunzburg_locations,6f01a3631f9baebdda17b89b9ad578d0,german_fires_gunzburg_locations__6f01a3631f9baebdda17b89b9ad578d0
augsburger str.,"Augsburger Str. in Gunzburg, Germany",48.4525955,10.2911914,1,,,,,,,Pipeline,"Augsburger Str. in Gunzburg, Germany",,german_fires_gunzburg_locations,cd106a6bd3c1be349fdd1a821d87bbc8,german_fires_gunzburg_locations__cd106a6bd3c1be349fdd1a821d87bbc8
autohof gunzburg,"Autohof Gunzburg in Gunzburg, Germany",48.4274192,10.2876398,1,,,,,,,CompanyKeyword,"Autohof Gunzburg in Gunzburg, Germany",,german_fires_gunzburg_locations,5b0ba23642eca8e3d4c414c27f9a3551,german_fires_gunzburg_locations__5b0ba23642eca8e3d4c414c27f9a3551
autohof gunzburg (nord),"Autohof Gunzburg (Nord) in Gunzburg, Germany",48.4274192,10.2876398,1,,,,,,,Keyphrase,"Autohof Gunzburg (Nord) in Gunzburg, Germany",,german_fires_gunzburg_locations,4286e9eb102cc9c4fe0a81e8d406ac85,german_fires_gunzburg_locations__4286e9eb102cc9c4fe0a81e8d406ac85
autohof gunzburg (sud),"Autohof Gunzburg (Sud) in Gunzburg, Germany",48.4274192,10.2876398,1,,,,,,,FTO,"Autohof Gunzburg (Sud) in Gunzburg, Germany",,german_fires_gunzburg_locations,238a3880feafaa4c827d55f852f38d76,german_fires_gunzburg_locations__238a3880feafaa4c827d55f852f38d76
auweg,"Auweg in Gunzburg, Germany",48.4619611,10.2800341,1,,,,,,,Shipping,"Auweg in Gunzburg, Germany",,german_fires_gunzburg_locations,b86b25e2bf45e6f2ae0d5027317ed975,german_fires_gunzburg_locations__b86b25e2bf45e6f2ae0d5027317ed975
azzostr.,"Azzostr. in Gunzburg, Germany",48.4498016,10.2651751,1,,,,,,,Pipeline,"Azzostr. in Gunzburg, Germany",,german_fires_gunzburg_locations,3bd7aa13bbd86ce91cc12f721d1a0636,german_fires_gunzburg_locations__3bd7aa13bbd86ce91cc12f721d1a0636
bachtalstr.,"Bachtalstr. in Gunzburg, Germany",48.443016,10.2862309,1,,,,,,,FTO,"Bachtalstr. in Gunzburg, Germany",,german_fires_gunzburg_locations,fd274257ba050fdbb848bf7feeda77e9,german_fires_gunzburg_locations__fd274257ba050fdbb848bf7feeda77e9
bahnhofplatz,"Bahnhofplatz in Gunzburg, Germany",48.4599526,10.278519,1,,,,,,,News,"Bahnhofplatz in Gunzburg, Germany",,german_fires_gunzburg_locations,7e3e176058388f5d8e7035b5568ba837,german_fires_gunzburg_locations__7e3e176058388f5d8e7035b5568ba837
bahnhofstr.,"Bahnhofstr. in Gunzburg, Germany",48.4588102,10.2796052,1,,,,,,,Keyphrase,"Bahnhofstr. in Gunzburg, Germany",,german_fires_gunzburg_locations,abc5b5f7a8b1983e243ca9b1cfe1269b,german_fires_gunzburg_locations__abc5b5f7a8b1983e243ca9b1cfe1269b
beethovenstr.,"Beethovenstr. in Gunzburg, Germany",48.4576977,10.2854258,1,,,,,,,ForeignMinister,"Beethovenstr. in Gunzburg, Germany",,german_fires_gunzburg_locations,2493e8c693fd83733d468ef6315c38e0,german_fires_gunzburg_locations__2493e8c693fd83733d468ef6315c38e0
beim meister,"Beim Meister in Gunzburg, Germany",48.4558219,10.2626477,1,,,,,,,IndustryTerm,"Beim Meister in Gunzburg, Germany",,german_fires_gunzburg_locations,adbed8b1efafd42837298b498a78bfa8,german_fires_gunzburg_locations__adbed8b1efafd42837298b498a78bfa8
beim wuhr,"Beim Wuhr in Gunzburg, Germany",48.4344341,10.2708613,1,,,,,,,CompanyKeyword,"Beim Wuhr in Gunzburg, Germany",,german_fires_gunzburg_locations,126aa130ebe50ed3d77b27f9551954b5,german_fires_gunzburg_locations__126aa130ebe50ed3d77b27f9551954b5
belvederestr.,"Belvederestr. in Gunzburg, Germany",48.4543783,10.2855985,1,,,,,,,LegislativeCommittee,"Belvederestr. in Gunzburg, Germany",,german_fires_gunzburg_locations,cb10cef99825065fe4995cd2c951831c,german_fires_gunzburg_locations__cb10cef99825065fe4995cd2c951831c
bergstr.,"Bergstr. in Gunzburg, Germany",48.45821,10.3023101,1,,,,,,,AAEntity,"Bergstr. in Gunzburg, Germany",,german_fires_gunzburg_locations,1cb3dbc7463ed9b68b42fd227d643494,german_fires_gunzburg_locations__1cb3dbc7463ed9b68b42fd227d643494
bertolt-brecht-str.,"Bertolt-Brecht-Str. in Gunzburg, Germany",48.4506453,10.3125818,1,,,,,,,Consulates,"Bertolt-Brecht-Str. in Gunzburg, Germany",,german_fires_gunzburg_locations,599467af19d2bd767b09a3a85545b2b1,german_fires_gunzburg_locations__599467af19d2bd767b09a3a85545b2b1
bgm.-johann-muller-str.,"Bgm.-Johann-Muller-Str. in Gunzburg, Germany",48.4641341,10.3009687,1,,,,,,,Consulates,"Bgm.-Johann-Muller-Str. in Gunzburg, Germany",,german_fires_gunzburg_locations,fa3709520e1f7c485709818fa07b7137,german_fires_gunzburg_locations__fa3709520e1f7c485709818fa07b7137
bgm.-landmann-platz,"Bgm.-Landmann-Platz in Gunzburg, Germany",48.4546352,10.2783497,1,,,,,,,News,"Bgm.-Landmann-Platz in Gunzburg, Germany",,german_fires_gunzburg_locations,fd8c0b5bc7b8ffc7a201eeb94d0d82c6,german_fires_gunzburg_locations__fd8c0b5bc7b8ffc7a201eeb94d0d82c6
bgm.-sommer-str.,"Bgm.-Sommer-Str. in Gunzburg, Germany",48.4333426,10.2704725,1,,,,,,,Wells,"Bgm.-Sommer-Str. in Gunzburg, Germany",,german_fires_gunzburg_locations,21957586918d03472aaa8409e351d96d,german_fires_gunzburg_locations__21957586918d03472aaa8409e351d96d
birkenfeldweg,"Birkenfeldweg in Gunzburg, Germany",48.4483121,10.293062,1,,,,,,,ForeignMinister,"Birkenfeldweg in Gunzburg, Germany",,german_fires_gunzburg_locations,c54e1f029ce2c04bc6fcf87dee1e3baa,german_fires_gunzburg_locations__c54e1f029ce2c04bc6fcf87dee1e3baa
birketstr.,"Birketstr. in Gunzburg, Germany",48.4485132,10.2963168,1,,,,,,,Shipping,"Birketstr. in Gunzburg, Germany",,german_fires_gunzburg_locations,6f322464ea9ac14ecc10684a72ba1840,german_fires_gunzburg_locations__6f322464ea9ac14ecc10684a72ba1840
bismarckstr.,"Bismarckstr. in Gunzburg, Germany",48.4520101,10.2796122,1,,,,,,,AAEntity,"Bismarckstr. in Gunzburg, Germany",,german_fires_gunzburg_locations,8240a213bfe82d273b0a237586ed60e7,german_fires_gunzburg_locations__8240a213bfe82d273b0a237586ed60e7
blumenstr.,"Blumenstr. in Gunzburg, Germany",48.4517663,10.2654816,1,,,,,,,CompanyKeyword,"Blumenstr. in Gunzburg, Germany",,german_fires_gunzburg_locations,c711c926c166dddef68073c58143ae9f,german_fires_gunzburg_locations__c711c926c166dddef68073c58143ae9f
brahmsstr.,"Brahmsstr. in Gunzburg, Germany",48.4542334,10.2876596,1,,,,,,,Keyphrase,"Brahmsstr. in Gunzburg, Germany",,german_fires_gunzburg_locations,0c2b57192ff4eb5826b7e8a87a5bcbbd,german_fires_gunzburg_locations__0c2b57192ff4eb5826b7e8a87a5bcbbd
brentanostr.,"Brentanostr. in Gunzburg, Germany",48.4508275,10.2844527,1,,,,,,,LegislativeCommittee,"Brentanostr. in Gunzburg, Germany",,german_fires_gunzburg_locations,dc8198d9837b2722ba75848a1704c042,german_fires_gunzburg_locations__dc8198d9837b2722ba75848a1704c042
brunnengasse,"Brunnengasse in Gunzburg, Germany",48.4548325,10.2690773,1,,,,,,,ForeignMinistry,"Brunnengasse in Gunzburg, Germany",,german_fires_gunzburg_locations,6a8f0425504b86d183a80cb7d720d3e4,german_fires_gunzburg_locations__6a8f0425504b86d183a80cb7d720d3e4
brunnenmahd,"Brunnenmahd in Gunzburg, Germany",48.4792973,10.2685384,1,,,,,,,Diplomat,"Brunnenmahd in Gunzburg, Germany",,german_fires_gunzburg_locations,d12a584ec82de6812041d8ca7ed10f22,german_fires_gunzburg_locations__d12a584ec82de6812041d8ca7ed10f22
brunnenweg,"Brunnenweg in Gunzburg, Germany",48.4603272,10.3006404,1,,,,,,,Media,"Brunnenweg in Gunzburg, Germany",,german_fires_gunzburg_locations,b83f991ed66c6060e659a30c04b24b1e,german_fires_gunzburg_locations__b83f991ed66c6060e659a30c04b24b1e
bruhlstr.,"Bruhlstr. in Gunzburg, Germany",48.4240924,10.2995343,1,,,,,,,Refinery,"Bruhlstr. in Gunzburg, Germany",,german_fires_gunzburg_locations,faee26e8c9dff63f2f47c30a2188d3a2,german_fires_gunzburg_locations__faee26e8c9dff63f2f47c30a2188d3a2
bruhlweg,"Bruhlweg in Gunzburg, Germany",48.508614,10.2596833,1,,,,,,,Keyphrase,"Bruhlweg in Gunzburg, Germany",,german_fires_gunzburg_locations,1e1556f6b0f90a779dd9bc9fca54b6b4,german_fires_gunzburg_locations__1e1556f6b0f90a779dd9bc9fca54b6b4
bubesheimer str.,"Bubesheimer Str. in Gunzburg, Germany",48.4373023,10.2669879,1,,,,,,,AAEntity,"Bubesheimer Str. in Gunzburg, Germany",,german_fires_gunzburg_locations,a9e6dcb270388ace9fb9cd9a43b8df15,german_fires_gunzburg_locations__a9e6dcb270388ace9fb9cd9a43b8df15
buchenweg,"Buchenweg in Gunzburg, Germany",48.4444647,10.269272,1,,,,,,,FTO,"Buchenweg in Gunzburg, Germany",,german_fires_gunzburg_locations,d999a559c89278fa869286f70b3c9110,german_fires_gunzburg_locations__d999a559c89278fa869286f70b3c9110
bottgerstr.,"Bottgerstr. in Gunzburg, Germany",48.4712316,10.2677617,1,,,,,,,Wells,"Bottgerstr. in Gunzburg, Germany",,german_fires_gunzburg_locations,3c494f8357a990b20a824621afe6ec5c,german_fires_gunzburg_locations__3c494f8357a990b20a824621afe6ec5c
christa-wall-str.,"Christa-Wall-Str. in Gunzburg, Germany",48.4502634,10.2829677,1,,,,,,,FTO,"Christa-Wall-Str. in Gunzburg, Germany",,german_fires_gunzburg_locations,f1e401261add7383d1e847a6bf845716,german_fires_gunzburg_locations__f1e401261add7383d1e847a6bf845716
christian-frank-weg,"Christian-Frank-Weg in Gunzburg, Germany",48.4518493,10.2678238,1,,,,,,,CompanyKeyword,"Christian-Frank-Weg in Gunzburg, Germany",,german_fires_gunzburg_locations,8d6e6786d14dd8bcd4d3ce48828a896e,german_fires_gunzburg_locations__8d6e6786d14dd8bcd4d3ce48828a896e
christoph-rodt-str.,"Christoph-Rodt-Str. in Gunzburg, Germany",48.2999389,10.3556713,1,,,,,,,Person,"Christoph-Rodt-Str. in Gunzburg, Germany",,german_fires_gunzburg_locations,88ae08097fee991621ba0a93f3cebf4c,german_fires_gunzburg_locations__88ae08097fee991621ba0a93f3cebf4c
clotzstr.,"Clotzstr. in Gunzburg, Germany",48.4514091,10.2728634,1,,,,,,,Legislator,"Clotzstr. in Gunzburg, Germany",,german_fires_gunzburg_locations,5d5701582587e2b93de574be877073ad,german_fires_gunzburg_locations__5d5701582587e2b93de574be877073ad
dahlienweg,"Dahlienweg in Gunzburg, Germany",48.4427449,10.3212825,1,,,,,,,FTO,"Dahlienweg in Gunzburg, Germany",,german_fires_gunzburg_locations,0ab15480d161fbb63c668c64a7b027f6,german_fires_gunzburg_locations__0ab15480d161fbb63c668c64a7b027f6
daimlerstr.,"Daimlerstr. in Gunzburg, Germany",48.4761588,10.2725941,1,,,,,,,IndustryTerm,"Daimlerstr. in Gunzburg, Germany",,german_fires_gunzburg_locations,8a81bf5429e49829919aefba2abb9939,german_fires_gunzburg_locations__8a81bf5429e49829919aefba2abb9939
damaschkestr.,"Damaschkestr. in Gunzburg, Germany",48.4514642,10.2641689,1,,,,,,,Legislator,"Damaschkestr. in Gunzburg, Germany",,german_fires_gunzburg_locations,c476d208c6bf2a717914c8f7dbd9d857,german_fires_gunzburg_locations__c476d208c6bf2a717914c8f7dbd9d857
danziger str.,"Danziger Str. in Gunzburg, Germany",48.4478356,10.2694137,1,,,,,,,Consulates,"Danziger Str. in Gunzburg, Germany",,german_fires_gunzburg_locations,0f3daff7fcc1344aa48c04a3efd1b401,german_fires_gunzburg_locations__0f3daff7fcc1344aa48c04a3efd1b401
deffinger weg,"Deffinger Weg in Gunzburg, Germany",48.4404228,10.3170338,1,,,,,,,Person,"Deffinger Weg in Gunzburg, Germany",,german_fires_gunzburg_locations,f0a088a98eda0217585583b289be1a0c,german_fires_gunzburg_locations__f0a088a98eda0217585583b289be1a0c
denzinger str.,"Denzinger Str. in Gunzburg, Germany",48.439099,10.2718732,1,,,,,,,AAEntity,"Denzinger Str. in Gunzburg, Germany",,german_fires_gunzburg_locations,14f1be539b6c0708042240071ba577eb,german_fires_gunzburg_locations__14f1be539b6c0708042240071ba577eb
deutsch-zepling-str.,"Deutsch-Zepling-Str. in Gunzburg, Germany",48.4943651,10.251465,1,,,,,,,ForeignMinister,"Deutsch-Zepling-Str. in Gunzburg, Germany",,german_fires_gunzburg_locations,0ef8e027f4c82810f5607eeebe72f5d8,german_fires_gunzburg_locations__0ef8e027f4c82810f5607eeebe72f5d8
dillinger str.,"Dillinger Str. in Gunzburg, Germany",48.4663819,10.2847212,1,,,,,,,Shipping,"Dillinger Str. in Gunzburg, Germany",,german_fires_gunzburg_locations,f8d56c986c1e6b30d27d63db6a2d2e0b,german_fires_gunzburg_locations__f8d56c986c1e6b30d27d63db6a2d2e0b
dominikus-zimmermann-str.,"Dominikus-Zimmermann-Str. in Gunzburg, Germany",48.4562869,10.2766763,1,,,,,,,Refinery,"Dominikus-Zimmermann-Str. in Gunzburg, Germany",,german_fires_gunzburg_locations,dfebb6beb5c5ae51a4f944fb935fed60,german_fires_gunzburg_locations__dfebb6beb5c5ae51a4f944fb935fed60
donaubrunnenweg,"Donaubrunnenweg in Gunzburg, Germany",48.4554031,10.2691945,1,,,,,,,Pipeline,"Donaubrunnenweg in Gunzburg, Germany",,german_fires_gunzburg_locations,d3932b1cbc404ea5993af3e014594540,german_fires_gunzburg_locations__d3932b1cbc404ea5993af3e014594540
donaugasse,"Donaugasse in Gunzburg, Germany",48.4546738,10.267459,1,,,,,,,Organization,"Donaugasse in Gunzburg, Germany",,german_fires_gunzburg_locations,63aa39d5789ee1f9469ea4dad54c557f,german_fires_gunzburg_locations__63aa39d5789ee1f9469ea4dad54c557f
donaustr.,"Donaustr. in Gunzburg, Germany",48.4658554,10.3013977,1,,,,,,,Legislator,"Donaustr. in Gunzburg, Germany",,german_fires_gunzburg_locations,b967001d969ee95ebcf6803b1a087ed0,german_fires_gunzburg_locations__b967001d969ee95ebcf6803b1a087ed0
dorngasse,"Dorngasse in Gunzburg, Germany",48.4527712,10.2679089,1,,,,,,,Shipping,"Dorngasse in Gunzburg, Germany",,german_fires_gunzburg_locations,bf19369c707f604c3742fc184233119c,german_fires_gunzburg_locations__bf19369c707f604c3742fc184233119c
dossenbergerstr.,"Dossenbergerstr. in Gunzburg, Germany",48.4488405,10.2940917,1,,,,,,,Consulates,"Dossenbergerstr. in Gunzburg, Germany",,german_fires_gunzburg_locations,19054738c95cdf8fc82bea2343811581,german_fires_gunzburg_locations__19054738c95cdf8fc82bea2343811581
dr.-birner-str.,"Dr.-Birner-Str. in Gunzburg, Germany",48.4453992,10.2687606,1,,,,,,,Pipeline,"Dr.-Birner-Str. in Gunzburg, Germany",,german_fires_gunzburg_locations,418f416286d0720ce9a87579fadb6a3d,german_fires_gunzburg_locations__418f416286d0720ce9a87579fadb6a3d
dr.-friton-str.,"Dr.-Friton-Str. in Gunzburg, Germany",48.451567,10.3227428,1,,,,,,,Shipping,"Dr.-Friton-Str. in Gunzburg, Germany",,german_fires_gunzburg_locations,49f7458b67a89cf691b5702875a2541b,german_fires_gunzburg_locations__49f7458b67a89cf691b5702875a2541b
dreirosenberg,"Dreirosenberg in Gunzburg, Germany",48.4571203,10.2825078,1,,,,,,,space,"Dreirosenberg in Gunzburg, Germany",,german_fires_gunzburg_locations,fffc2d8c5f64c20a7b0c011a59b93da1,german_fires_gunzburg_locations__fffc2d8c5f64c20a7b0c011a59b93da1
drillgasse,"Drillgasse in Gunzburg, Germany",48.4526212,10.2669429,1,,,,,,,Person,"Drillgasse in Gunzburg, Germany",,german_fires_gunzburg_locations,7b6a87d1ebfc875a15558980b4330e00,german_fires_gunzburg_locations__7b6a87d1ebfc875a15558980b4330e00
drosselweg,"Drosselweg in Gunzburg, Germany",48.4491358,10.2951138,1,,,,,,,Organization,"Drosselweg in Gunzburg, Germany",,german_fires_gunzburg_locations,94a250265e2079fe790f8412dfe5833e,german_fires_gunzburg_locations__94a250265e2079fe790f8412dfe5833e
durerstr.,"Durerstr. in Gunzburg, Germany",48.4486856,10.2979618,1,,,,,,,IndustryTerm,"Durerstr. in Gunzburg, Germany",,german_fires_gunzburg_locations,e5fe181f704d5dd80a38cb45910e44da,german_fires_gunzburg_locations__e5fe181f704d5dd80a38cb45910e44da
eberlingasse,"Eberlingasse in Gunzburg, Germany",48.4549244,10.2768158,1,,,,,,,Person,"Eberlingasse in Gunzburg, Germany",,german_fires_gunzburg_locations,9bbfa1815b114b485bf430588cca3b7f,german_fires_gunzburg_locations__9bbfa1815b114b485bf430588cca3b7f
edlhardstr.,"Edlhardstr. in Gunzburg, Germany",48.4494958,10.264348,1,,,,,,,DiplomaticFacilities,"Edlhardstr. in Gunzburg, Germany",,german_fires_gunzburg_locations,4b0e2ce45632be095efa665fa5a8b709,german_fires_gunzburg_locations__4b0e2ce45632be095efa665fa5a8b709
egelseegasse,"Egelseegasse in Gunzburg, Germany",48.4510631,10.2758148,1,,,,,,,space,"Egelseegasse in Gunzburg, Germany",,german_fires_gunzburg_locations,984271fdf807ab4ed257c3330e46b4b2,german_fires_gunzburg_locations__984271fdf807ab4ed257c3330e46b4b2
egerlander weg,"Egerlander Weg in Gunzburg, Germany",48.4493594,10.2672338,1,,,,,,,LegislativeCommittee,"Egerlander Weg in Gunzburg, Germany",,german_fires_gunzburg_locations,1b51d8cf293eb2672f7503bbb52b7ba0,german_fires_gunzburg_locations__1b51d8cf293eb2672f7503bbb52b7ba0
eichendorffstr.,"Eichendorffstr. in Gunzburg, Germany",48.4475544,10.2666853,1,,,,,,,Organization,"Eichendorffstr. in Gunzburg, Germany",,german_fires_gunzburg_locations,8577dc35f969efc28259ac41246ca966,german_fires_gunzburg_locations__8577dc35f969efc28259ac41246ca966
eichenweg,"Eichenweg in Gunzburg, Germany",48.4501979,10.3164714,1,,,,,,,Organization,"Eichenweg in Gunzburg, Germany",,german_fires_gunzburg_locations,6c7f573ef514c249440abac26071a5dd,german_fires_gunzburg_locations__6c7f573ef514c249440abac26071a5dd
eisenhausgasse,"Eisenhausgasse in Gunzburg, Germany",48.4551785,10.2786431,1,,,,,,,Exec,"Eisenhausgasse in Gunzburg, Germany",,german_fires_gunzburg_locations,bb98f483098d96553b056f311fb15ee5,german_fires_gunzburg_locations__bb98f483098d96553b056f311fb15ee5
eisenlauerstr.,"Eisenlauerstr. in Gunzburg, Germany",48.4491318,10.2918431,1,,,,,,,Shipping,"Eisenlauerstr. in Gunzburg, Germany",,german_fires_gunzburg_locations,a5d438f1f9ab43ada62d8c2b59b6e4aa,german_fires_gunzburg_locations__a5d438f1f9ab43ada62d8c2b59b6e4aa
elsa-brandstrom-str.,"Elsa-Brandstrom-Str. in Gunzburg, Germany",48.44803,10.29596,1,,,,,,,CompanyKeyword,"Elsa-Brandstrom-Str. in Gunzburg, Germany",,german_fires_gunzburg_locations,abe73138eeaeff3cf114bbc75288ac3c,german_fires_gunzburg_locations__abe73138eeaeff3cf114bbc75288ac3c
enderlestr.,"Enderlestr. in Gunzburg, Germany",48.4554478,10.2616911,1,,,,,,,Shipping,"Enderlestr. in Gunzburg, Germany",,german_fires_gunzburg_locations,6a55d50483227b8e0f3cba422c627ab0,german_fires_gunzburg_locations__6a55d50483227b8e0f3cba422c627ab0
enzianstr.,"Enzianstr. in Gunzburg, Germany",48.4509459,10.2951887,1,,,,,,,LegislativeCommittee,"Enzianstr. in Gunzburg, Germany",,german_fires_gunzburg_locations,8fb0b4d29b9d2aaccb1676bd7bb5511a,german_fires_gunzburg_locations__8fb0b4d29b9d2aaccb1676bd7bb5511a
erlenbadweg,"Erlenbadweg in Gunzburg, Germany",48.45696,10.2814045,1,,,,,,,News,"Erlenbadweg in Gunzburg, Germany",,german_fires_gunzburg_locations,734501002b6dee640d5c0b996ca006c2,german_fires_gunzburg_locations__734501002b6dee640d5c0b996ca006c2
erzherzog-ferdinand-str.,"Erzherzog-Ferdinand-Str. in Gunzburg, Germany",48.4499317,10.2797697,1,,,,,,,ForeignMinister,"Erzherzog-Ferdinand-Str. in Gunzburg, Germany",,german_fires_gunzburg_locations,d5382cf9b925a2f3dc8753e651754bd9,german_fires_gunzburg_locations__d5382cf9b925a2f3dc8753e651754bd9
eythstr.,"Eythstr. in Gunzburg, Germany",48.4498164,10.2920669,1,,,,,,,Wells,"Eythstr. in Gunzburg, Germany",,german_fires_gunzburg_locations,f3a8a8929a394625cff40f8b3487abcc,german_fires_gunzburg_locations__f3a8a8929a394625cff40f8b3487abcc
fabystr.,"Fabystr. in Gunzburg, Germany",48.4513641,10.2887912,1,,,,,,,IndustryTerm,"Fabystr. in Gunzburg, Germany",,german_fires_gunzburg_locations,22358ebf3bd519561663aacfb5b25191,german_fires_gunzburg_locations__22358ebf3bd519561663aacfb5b25191
ferdinand-porsche-str.,"Ferdinand-Porsche-Str. in Gunzburg, Germany",48.4255125,10.2868159,1,,,,,,,Exec,"Ferdinand-Porsche-Str. in Gunzburg, Germany",,german_fires_gunzburg_locations,2c005fe266446fa546458c68d77ac349,german_fires_gunzburg_locations__2c005fe266446fa546458c68d77ac349
feuchtmayerstr.,"Feuchtmayerstr. in Gunzburg, Germany",48.4546675,10.283444,1,,,,,,,FTO,"Feuchtmayerstr. in Gunzburg, Germany",,german_fires_gunzburg_locations,1925f8c0c10257fad14fb8de3bacf922,german_fires_gunzburg_locations__1925f8c0c10257fad14fb8de3bacf922
feuerbachstr.,"Feuerbachstr. in Gunzburg, Germany",48.4504945,10.2986374,1,,,,,,,CompanyKeyword,"Feuerbachstr. in Gunzburg, Germany",,german_fires_gunzburg_locations,d0725d3deea31fbb73c715f4da9160cb,german_fires_gunzburg_locations__d0725d3deea31fbb73c715f4da9160cb
fichtestr.,"Fichtestr. in Gunzburg, Germany",48.4506365,10.2975969,1,,,,,,,Legislator,"Fichtestr. in Gunzburg, Germany",,german_fires_gunzburg_locations,0df6e6c88e0f5b4bd88b09a2d6e7da57,german_fires_gunzburg_locations__0df6e6c88e0f5b4bd88b09a2d6e7da57
finkenweg,"Finkenweg in Gunzburg, Germany",48.440645,10.3222628,1,,,,,,,Shipping,"Finkenweg in Gunzburg, Germany",,german_fires_gunzburg_locations,af6f5fa98d65365993a18461bef227ae,german_fires_gunzburg_locations__af6f5fa98d65365993a18461bef227ae
fliederweg,"Fliederweg in Gunzburg, Germany",48.4443716,10.2676198,1,,,,,,,Person,"Fliederweg in Gunzburg, Germany",,german_fires_gunzburg_locations,4aeb39b5987f90cd1358e89bae461501,german_fires_gunzburg_locations__4aeb39b5987f90cd1358e89bae461501
flurstr.,"Flurstr. in Gunzburg, Germany",48.5125262,10.2589113,1,,,,,,,AAEntity,"Flurstr. in Gunzburg, Germany",,german_fires_gunzburg_locations,ae71531697995918d6313d1ca593d96e,german_fires_gunzburg_locations__ae71531697995918d6313d1ca593d96e
franz-lorenz-str.,"Franz-Lorenz-Str. in Gunzburg, Germany",48.4495068,10.2623003,1,,,,,,,Shipping,"Franz-Lorenz-Str. in Gunzburg, Germany",,german_fires_gunzburg_locations,5b849161c49ae5c627ee03caf058ba2c,german_fires_gunzburg_locations__5b849161c49ae5c627ee03caf058ba2c
frauengasschen,"Frauengasschen in Gunzburg, Germany",48.4563552,10.2773681,1,,,,,,,DiplomaticFacilities,"Frauengasschen in Gunzburg, Germany",,german_fires_gunzburg_locations,1dd8dd5c367dee2e998f393dc99e63c8,german_fires_gunzburg_locations__1dd8dd5c367dee2e998f393dc99e63c8
frauenplatz,"Frauenplatz in Gunzburg, Germany",48.4564947,10.2771969,1,,,,,,,DiplomaticFacilities,"Frauenplatz in Gunzburg, Germany",,german_fires_gunzburg_locations,6143b1010c1f8b0d27bc0b7ca67c4329,german_fires_gunzburg_locations__6143b1010c1f8b0d27bc0b7ca67c4329
friedhofweg,"Friedhofweg in Gunzburg, Germany",48.4377354,10.2988805,1,,,,,,,News,"Friedhofweg in Gunzburg, Germany",,german_fires_gunzburg_locations,0ba2a56443b57c02cd895437ea3c1c3c,german_fires_gunzburg_locations__0ba2a56443b57c02cd895437ea3c1c3c
fruhlingstr.,"Fruhlingstr. in Gunzburg, Germany",48.4240924,10.2995343,1,,,,,,,Person,"Fruhlingstr. in Gunzburg, Germany",,german_fires_gunzburg_locations,ae08a8ce826264d31718e6e10f7d37c3,german_fires_gunzburg_locations__ae08a8ce826264d31718e6e10f7d37c3
fohrenweg,"Fohrenweg in Gunzburg, Germany",48.4472906,10.296336,1,,,,,,,Organization,"Fohrenweg in Gunzburg, Germany",,german_fires_gunzburg_locations,516d8831faa4f20336de8ff8fe76328e,german_fires_gunzburg_locations__516d8831faa4f20336de8ff8fe76328e
gartenstr.,"Gartenstr. in Gunzburg, Germany",48.4240924,10.2995343,1,,,,,,,Person,"Gartenstr. in Gunzburg, Germany",,german_fires_gunzburg_locations,251df16c385f7375447e41f4d303947e,german_fires_gunzburg_locations__251df16c385f7375447e41f4d303947e
geisloherweg,"Geisloherweg in Gunzburg, Germany",48.4518424,10.2898353,1,,,,,,,CompanyKeyword,"Geisloherweg in Gunzburg, Germany",,german_fires_gunzburg_locations,415e8fa77c34f926edcbe67f633ce4aa,german_fires_gunzburg_locations__415e8fa77c34f926edcbe67f633ce4aa
georg-elser-str.,"Georg-Elser-Str. in Gunzburg, Germany",48.445371,10.2858027,1,,,,,,,IndustryTerm,"Georg-Elser-Str. in Gunzburg, Germany",,german_fires_gunzburg_locations,01c132a70837f9dd4c8e24fbecbcb227,german_fires_gunzburg_locations__01c132a70837f9dd4c8e24fbecbcb227
georg-lacher-str.,"Georg-Lacher-Str. in Gunzburg, Germany",48.4628937,10.3011657,1,,,,,,,ForeignMinister,"Georg-Lacher-Str. in Gunzburg, Germany",,german_fires_gunzburg_locations,09d6cb83c06fd8cb45db38cd32ad13b2,german_fires_gunzburg_locations__09d6cb83c06fd8cb45db38cd32ad13b2
gerhart-hauptmann-str.,"Gerhart-Hauptmann-Str. in Gunzburg, Germany",48.4471367,10.2657492,1,,,,,,,FTO,"Gerhart-Hauptmann-Str. in Gunzburg, Germany",,german_fires_gunzburg_locations,7246a0bca3f36c80c4ca15e6aaa0f300,german_fires_gunzburg_locations__7246a0bca3f36c80c4ca15e6aaa0f300
gernbeckstr.,"Gernbeckstr. in Gunzburg, Germany",48.4356588,10.302194,1,,,,,,,Exec,"Gernbeckstr. in Gunzburg, Germany",,german_fires_gunzburg_locations,5295b288631e6f9ae00cc3158d68c931,german_fires_gunzburg_locations__5295b288631e6f9ae00cc3158d68c931
geschwister-scholl-str.,"Geschwister-Scholl-Str. in Gunzburg, Germany",48.4460152,10.2868025,1,,,,,,,Legislator,"Geschwister-Scholl-Str. in Gunzburg, Germany",,german_fires_gunzburg_locations,bfa4de4df40d40f55daa826e72786105,german_fires_gunzburg_locations__bfa4de4df40d40f55daa826e72786105
goethestr.,"Goethestr. in Gunzburg, Germany",48.4498824,10.2845151,1,,,,,,,Shipping,"Goethestr. in Gunzburg, Germany",,german_fires_gunzburg_locations,5c4d5fa7f8d47bd4f62fb2c9c8dd5b29,german_fires_gunzburg_locations__5c4d5fa7f8d47bd4f62fb2c9c8dd5b29
graf-berthold-str.,"Graf-Berthold-Str. in Gunzburg, Germany",48.4592763,10.3112508,1,,,,,,,space,"Graf-Berthold-Str. in Gunzburg, Germany",,german_fires_gunzburg_locations,8095ca6d77ac6ab245b49eecd11a6a1e,german_fires_gunzburg_locations__8095ca6d77ac6ab245b49eecd11a6a1e
gustav-freytag-str.,"Gustav-Freytag-Str. in Gunzburg, Germany",48.4472057,10.2649125,1,,,,,,,Refinery,"Gustav-Freytag-Str. in Gunzburg, Germany",,german_fires_gunzburg_locations,6afda253902640420c2193db31ca661f,german_fires_gunzburg_locations__6afda253902640420c2193db31ca661f
gassele,"Gassele in Gunzburg, Germany",48.4606471,10.3057571,1,,,,,,,Refinery,"Gassele in Gunzburg, Germany",,german_fires_gunzburg_locations,4f21dc10a4ee62ec7fcb0288d435001f,german_fires_gunzburg_locations__4f21dc10a4ee62ec7fcb0288d435001f
gunzburger str.,"Gunzburger Str. in Gunzburg, Germany",48.4616075,10.2998018,1,,,,,,,Keyphrase,"Gunzburger Str. in Gunzburg, Germany",,german_fires_gunzburg_locations,7f9522ca0c4848153c74d923688a16e0,german_fires_gunzburg_locations__7f9522ca0c4848153c74d923688a16e0
hallstattweg,"Hallstattweg in Gunzburg, Germany",48.4461188,10.2993903,1,,,,,,,AAEntity,"Hallstattweg in Gunzburg, Germany",,german_fires_gunzburg_locations,f267d0aaa42418123c27733ce8d75eff,german_fires_gunzburg_locations__f267d0aaa42418123c27733ce8d75eff
hannerstr.,"Hannerstr. in Gunzburg, Germany",48.4513057,10.2814195,1,,,,,,,IndustryTerm,"Hannerstr. in Gunzburg, Germany",,german_fires_gunzburg_locations,13fde13f11cfb958c1de8d458f0feb5f,german_fires_gunzburg_locations__13fde13f11cfb958c1de8d458f0feb5f
hans-watzlik-str.,"Hans-Watzlik-Str. in Gunzburg, Germany",48.4471367,10.2657492,1,,,,,,,IndustryTerm,"Hans-Watzlik-Str. in Gunzburg, Germany",,german_fires_gunzburg_locations,2b29b1af6551dd481810221571908bb3,german_fires_gunzburg_locations__2b29b1af6551dd481810221571908bb3
hardtfeld,"Hardtfeld in Gunzburg, Germany",48.4596736,10.3041561,1,,,,,,,Wells,"Hardtfeld in Gunzburg, Germany",,german_fires_gunzburg_locations,375592e328cf2e907b975524c0a3f9a3,german_fires_gunzburg_locations__375592e328cf2e907b975524c0a3f9a3
hasengasse,"Hasengasse in Gunzburg, Germany",48.45422,10.2701138,1,,,,,,,News,"Hasengasse in Gunzburg, Germany",,german_fires_gunzburg_locations,12ae2382dc409d77ae5ba02cf95395e2,german_fires_gunzburg_locations__12ae2382dc409d77ae5ba02cf95395e2
hauffstr.,"Hauffstr. in Gunzburg, Germany",48.4506796,10.3104144,1,,,,,,,AAEntity,"Hauffstr. in Gunzburg, Germany",,german_fires_gunzburg_locations,0b73a4c3fa26431464e002e01368461a,german_fires_gunzburg_locations__0b73a4c3fa26431464e002e01368461a
hauptstr.,"Hauptstr. in Gunzburg, Germany",48.4353662,10.2975089,1,,,,,,,Pipeline,"Hauptstr. in Gunzburg, Germany",,german_fires_gunzburg_locations,745289bffda12c6a7aaf13ce080905a7,german_fires_gunzburg_locations__745289bffda12c6a7aaf13ce080905a7
hebelstr.,"Hebelstr. in Gunzburg, Germany",48.4516388,10.3101197,1,,,,,,,Keyphrase,"Hebelstr. in Gunzburg, Germany",,german_fires_gunzburg_locations,e1ac2d42e5ba09408b39ee0c3ead1654,german_fires_gunzburg_locations__e1ac2d42e5ba09408b39ee0c3ead1654
hechtgasse,"Hechtgasse in Gunzburg, Germany",48.4555354,10.2766425,1,,,,,,,ForeignMinister,"Hechtgasse in Gunzburg, Germany",,german_fires_gunzburg_locations,226b74adfdb85c416c7257dc33944c11,german_fires_gunzburg_locations__226b74adfdb85c416c7257dc33944c11
heckengasse,"Heckengasse in Gunzburg, Germany",48.4346456,10.2964818,1,,,,,,,Organization,"Heckengasse in Gunzburg, Germany",,german_fires_gunzburg_locations,cf266f8578119017b6a1a581d45ea5ed,german_fires_gunzburg_locations__cf266f8578119017b6a1a581d45ea5ed
heidenheimer str.,"Heidenheimer Str. in Gunzburg, Germany",48.4752792,10.2618831,1,,,,,,,Exec,"Heidenheimer Str. in Gunzburg, Germany",,german_fires_gunzburg_locations,bd8da2afa6322d57684a37efa1d0d129,german_fires_gunzburg_locations__bd8da2afa6322d57684a37efa1d0d129
heinrich-boll-str.,"Heinrich-Boll-Str. in Gunzburg, Germany",48.4518997,10.3132727,1,,,,,,,News,"Heinrich-Boll-Str. in Gunzburg, Germany",,german_fires_gunzburg_locations,a6b3c24a7fc00f338be82415753815c1,german_fires_gunzburg_locations__a6b3c24a7fc00f338be82415753815c1
heinrichstr.,"Heinrichstr. in Gunzburg, Germany",48.4518028,10.265697,1,,,,,,,ForeignMinister,"Heinrichstr. in Gunzburg, Germany",,german_fires_gunzburg_locations,8027ad7b09b0a83cdb8bbfd4372a8978,german_fires_gunzburg_locations__8027ad7b09b0a83cdb8bbfd4372a8978
hendrik-lorentz-str.,"Hendrik-Lorentz-Str. in Gunzburg, Germany",48.4241433,10.2864383,1,,,,,,,ForeignMinister,"Hendrik-Lorentz-Str. in Gunzburg, Germany",,german_fires_gunzburg_locations,2a746467cfc67d7a46680adba5595773,german_fires_gunzburg_locations__2a746467cfc67d7a46680adba5595773
herderinweg,"Herderinweg in Gunzburg, Germany",48.4840907,10.2936902,1,,,,,,,Diplomat,"Herderinweg in Gunzburg, Germany",,german_fires_gunzburg_locations,dfadd550da4dac4b4325276cbc77d0aa,german_fires_gunzburg_locations__dfadd550da4dac4b4325276cbc77d0aa
hermann-hesse-str.,"Hermann-Hesse-Str. in Gunzburg, Germany",48.4514258,10.3120848,1,,,,,,,CompanyKeyword,"Hermann-Hesse-Str. in Gunzburg, Germany",,german_fires_gunzburg_locations,e5fbc4fe5d0a5e13fda1b6d257d46fef,german_fires_gunzburg_locations__e5fbc4fe5d0a5e13fda1b6d257d46fef
hermannstr.,"Hermannstr. in Gunzburg, Germany",48.4523279,10.2651917,1,,,,,,,space,"Hermannstr. in Gunzburg, Germany",,german_fires_gunzburg_locations,d2b829ee00a17ea1d9f4e4a8c1c3c07e,german_fires_gunzburg_locations__d2b829ee00a17ea1d9f4e4a8c1c3c07e
herrenberg,"Herrenberg in Gunzburg, Germany",48.4619974,10.3086454,1,,,,,,,News,"Herrenberg in Gunzburg, Germany",,german_fires_gunzburg_locations,1efd4df2922355a64b061979ce79089a,german_fires_gunzburg_locations__1efd4df2922355a64b061979ce79089a
hinter dem bach,"Hinter dem Bach in Gunzburg, Germany",48.4532996,10.2650531,1,,,,,,,Exec,"Hinter dem Bach in Gunzburg, Germany",,german_fires_gunzburg_locations,fcb9a30b7e80c4de94d73325eb0d2e0c,german_fires_gunzburg_locations__fcb9a30b7e80c4de94d73325eb0d2e0c
hinter den garten,"Hinter den Garten in Gunzburg, Germany",48.4437343,10.2845154,1,,,,,,,Keyphrase,"Hinter den Garten in Gunzburg, Germany",,german_fires_gunzburg_locations,d8cddb2814b5c0bf448f993cb91680bd,german_fires_gunzburg_locations__d8cddb2814b5c0bf448f993cb91680bd
hockergasse,"Hockergasse in Gunzburg, Germany",48.4541074,10.2726551,1,,,,,,,Shipping,"Hockergasse in Gunzburg, Germany",,german_fires_gunzburg_locations,308b3af56bb0628e576d144dbeb08365,german_fires_gunzburg_locations__308b3af56bb0628e576d144dbeb08365
hofgartenweg,"Hofgartenweg in Gunzburg, Germany",48.4531232,10.2776075,1,,,,,,,ForeignMinister,"Hofgartenweg in Gunzburg, Germany",,german_fires_gunzburg_locations,1963e1f4f64e289274ac1dac944e1cdc,german_fires_gunzburg_locations__1963e1f4f64e289274ac1dac944e1cdc
hofgasse,"Hofgasse in Gunzburg, Germany",48.4550208,10.2770865,1,,,,,,,Shipping,"Hofgasse in Gunzburg, Germany",,german_fires_gunzburg_locations,d42a86a0ad2422f665058ee428f65ea1,german_fires_gunzburg_locations__d42a86a0ad2422f665058ee428f65ea1
holbeinstr.,"Holbeinstr. in Gunzburg, Germany",48.4477154,10.2980607,1,,,,,,,Consulates,"Holbeinstr. in Gunzburg, Germany",,german_fires_gunzburg_locations,feb4af98efecb58f793270a71c4a7ebf,german_fires_gunzburg_locations__feb4af98efecb58f793270a71c4a7ebf
holderlinstr.,"Holderlinstr. in Gunzburg, Germany",48.4491275,10.2842673,1,,,,,,,LegislativeCommittee,"Holderlinstr. in Gunzburg, Germany",,german_fires_gunzburg_locations,379f4ddde3eebc620f2238ea6bddd00b,german_fires_gunzburg_locations__379f4ddde3eebc620f2238ea6bddd00b
ichenhauser str.,"Ichenhauser Str. in Gunzburg, Germany",48.4481778,10.2796026,1,,,,,,,DiplomaticFacilities,"Ichenhauser Str. in Gunzburg, Germany",,german_fires_gunzburg_locations,ffd1826617256847619cfff938459ff9,german_fires_gunzburg_locations__ffd1826617256847619cfff938459ff9
im gehag,"Im Gehag in Gunzburg, Germany",48.4631019,10.3078237,1,,,,,,,Exec,"Im Gehag in Gunzburg, Germany",,german_fires_gunzburg_locations,40ae41cf97f5050742b1f21c9e7b800c,german_fires_gunzburg_locations__40ae41cf97f5050742b1f21c9e7b800c
im gnadenfeld,"Im Gnadenfeld in Gunzburg, Germany",48.4685262,10.2905063,1,,,,,,,Exec,"Im Gnadenfeld in Gunzburg, Germany",,german_fires_gunzburg_locations,c1d979b7f4c4a7067f5eac47b4686b2c,german_fires_gunzburg_locations__c1d979b7f4c4a7067f5eac47b4686b2c
im gunztal,"Im Gunztal in Gunzburg, Germany",48.4448484,10.2786661,1,,,,,,,Refinery,"Im Gunztal in Gunzburg, Germany",,german_fires_gunzburg_locations,f6bf24a2f739e771df05a16bd37792a9,german_fires_gunzburg_locations__f6bf24a2f739e771df05a16bd37792a9
im jacklbauernfeld,"Im Jacklbauernfeld in Gunzburg, Germany",48.4577566,10.3108008,1,,,,,,,News,"Im Jacklbauernfeld in Gunzburg, Germany",,german_fires_gunzburg_locations,0ad6c1adae56aee3a191aabfe95a60e2,german_fires_gunzburg_locations__0ad6c1adae56aee3a191aabfe95a60e2
im wasserburger ried,"Im Wasserburger Ried in Gunzburg, Germany",48.4338164,10.2727846,1,,,,,,,Organization,"Im Wasserburger Ried in Gunzburg, Germany",,german_fires_gunzburg_locations,a982a604fb3d63c4cfe5d38eb41431a2,german_fires_gunzburg_locations__a982a604fb3d63c4cfe5d38eb41431a2
im winkel,"Im Winkel in Gunzburg, Germany",48.4592921,10.306629,1,,,,,,,AAEntity,"Im Winkel in Gunzburg, Germany",,german_fires_gunzburg_locations,720718fde0be400bae1b9c5a93025acd,german_fires_gunzburg_locations__720718fde0be400bae1b9c5a93025acd
imhofstr.,"Imhofstr. in Gunzburg, Germany",48.4434183,10.2792807,1,,,,,,,LegislativeCommittee,"Imhofstr. in Gunzburg, Germany",,german_fires_gunzburg_locations,a56342408fe06a457eb0c6beec31a59c,german_fires_gunzburg_locations__a56342408fe06a457eb0c6beec31a59c
immelmannstr.,"Immelmannstr. in Gunzburg, Germany",48.4492526,10.2863843,1,,,,,,,IndustryTerm,"Immelmannstr. in Gunzburg, Germany",,german_fires_gunzburg_locations,efb787eaa44893cb61dd273b74200824,german_fires_gunzburg_locations__efb787eaa44893cb61dd273b74200824
in der gmeind,"In der Gmeind in Gunzburg, Germany",48.4643852,10.2765358,1,,,,,,,CompanyKeyword,"In der Gmeind in Gunzburg, Germany",,german_fires_gunzburg_locations,88571d5bb1706c0e678ef143abd6c51e,german_fires_gunzburg_locations__88571d5bb1706c0e678ef143abd6c51e
in der hetz,"In der Hetz in Gunzburg, Germany",48.476773,10.2580369,1,,,,,,,CompanyKeyword,"In der Hetz in Gunzburg, Germany",,german_fires_gunzburg_locations,50a52f00e2682cfe19e3250d581068c0,german_fires_gunzburg_locations__50a52f00e2682cfe19e3250d581068c0
ingeborg-bachmann-weg,"Ingeborg-Bachmann-Weg in Gunzburg, Germany",48.4519756,10.3142631,1,,,,,,,Diplomat,"Ingeborg-Bachmann-Weg in Gunzburg, Germany",,german_fires_gunzburg_locations,f9fe52a6fd315133f3e08e383701bf8e,german_fires_gunzburg_locations__f9fe52a6fd315133f3e08e383701bf8e
institutstr.,"Institutstr. in Gunzburg, Germany",48.456038,10.2759839,1,,,,,,,ForeignMinister,"Institutstr. in Gunzburg, Germany",,german_fires_gunzburg_locations,a259f0cd0fd00863f141cd3cf87c35f6,german_fires_gunzburg_locations__a259f0cd0fd00863f141cd3cf87c35f6
jahnstr.,"Jahnstr. in Gunzburg, Germany",48.4538689,10.2792336,1,,,,,,,Person,"Jahnstr. in Gunzburg, Germany",,german_fires_gunzburg_locations,84ad6d8ed58eb89ba7f2986bae791554,german_fires_gunzburg_locations__84ad6d8ed58eb89ba7f2986bae791554
johann-kempter-str.,"Johann-Kempter-Str. in Gunzburg, Germany",48.452335,10.3200428,1,,,,,,,DiplomaticFacilities,"Johann-Kempter-Str. in Gunzburg, Germany",,german_fires_gunzburg_locations,8e9052496228e0cc2db0e15d5faaf874,german_fires_gunzburg_locations__8e9052496228e0cc2db0e15d5faaf874
johann-litzel-str.,"Johann-Litzel-Str. in Gunzburg, Germany",48.4503577,10.3156063,1,,,,,,,Legislator,"Johann-Litzel-Str. in Gunzburg, Germany",,german_fires_gunzburg_locations,e588c70ab7abd1fae217419269e4071c,german_fires_gunzburg_locations__e588c70ab7abd1fae217419269e4071c
johann-sauter-str.,"Johann-Sauter-Str. in Gunzburg, Germany",48.4630713,10.3110781,1,,,,,,,Exec,"Johann-Sauter-Str. in Gunzburg, Germany",,german_fires_gunzburg_locations,b4afa98fa04628f2ef2f990fe7d77402,german_fires_gunzburg_locations__b4afa98fa04628f2ef2f990fe7d77402
johannes-eck-str.,"Johannes-Eck-Str. in Gunzburg, Germany",48.448565,10.2949632,1,,,,,,,space,"Johannes-Eck-Str. in Gunzburg, Germany",,german_fires_gunzburg_locations,21131aad06607e9798f899c55cd6833a,german_fires_gunzburg_locations__21131aad06607e9798f899c55cd6833a
josef-haas-str.,"Josef-Haas-Str. in Gunzburg, Germany",48.4547499,10.2881404,1,,,,,,,AAEntity,"Josef-Haas-Str. in Gunzburg, Germany",,german_fires_gunzburg_locations,e3762f9ee3e31561a6d0e5e4b9901023,german_fires_gunzburg_locations__e3762f9ee3e31561a6d0e5e4b9901023
josef-kuhn-str.,"Josef-Kuhn-Str. in Gunzburg, Germany",48.4457404,10.2872485,1,,,,,,,ForeignMinister,"Josef-Kuhn-Str. in Gunzburg, Germany",,german_fires_gunzburg_locations,f71f8c80ab11d1a646f33d2adc118a65,german_fires_gunzburg_locations__f71f8c80ab11d1a646f33d2adc118a65
judenweg,"Judenweg in Gunzburg, Germany",48.454626,10.3089698,1,,,,,,,ForeignMinistry,"Judenweg in Gunzburg, Germany",,german_fires_gunzburg_locations,88aec3b2c0cd76e7a88b2bbb8e8673c8,german_fires_gunzburg_locations__88aec3b2c0cd76e7a88b2bbb8e8673c8
junkersstr.,"Junkersstr. in Gunzburg, Germany",48.4726296,10.2679193,1,,,,,,,Exec,"Junkersstr. in Gunzburg, Germany",,german_fires_gunzburg_locations,a7efccf9ae82c11e62956617f2b603b5,german_fires_gunzburg_locations__a7efccf9ae82c11e62956617f2b603b5
jagerndorfer str.,"Jagerndorfer Str. in Gunzburg, Germany",48.4484653,10.2694166,1,,,,,,,Refinery,"Jagerndorfer Str. in Gunzburg, Germany",,german_fires_gunzburg_locations,0f20f324e5f0a723dcb89cec022e45d7,german_fires_gunzburg_locations__0f20f324e5f0a723dcb89cec022e45d7
kammerweg,"Kammerweg in Gunzburg, Germany",48.4670889,10.2939437,1,,,,,,,Refinery,"Kammerweg in Gunzburg, Germany",,german_fires_gunzburg_locations,2be8bcac6cbf02c37e02fd5b6bb856ca,german_fires_gunzburg_locations__2be8bcac6cbf02c37e02fd5b6bb856ca
kantstr.,"Kantstr. in Gunzburg, Germany",48.4513118,10.2982735,1,,,,,,,ForeignMinistry,"Kantstr. in Gunzburg, Germany",,german_fires_gunzburg_locations,f2c0c762a3bfa8fdaf6e490090dba230,german_fires_gunzburg_locations__f2c0c762a3bfa8fdaf6e490090dba230
kapellenweg,"Kapellenweg in Gunzburg, Germany",48.4465731,10.2785528,1,,,,,,,Consulates,"Kapellenweg in Gunzburg, Germany",,german_fires_gunzburg_locations,1c3280043f8b8a1d2200e05bc615ae91,german_fires_gunzburg_locations__1c3280043f8b8a1d2200e05bc615ae91
kappenzipfel,"Kappenzipfel in Gunzburg, Germany",48.456674,10.2725493,1,,,,,,,ForeignMinister,"Kappenzipfel in Gunzburg, Germany",,german_fires_gunzburg_locations,45ca0e804a86dfc21ecfe4a6317481ed,german_fires_gunzburg_locations__45ca0e804a86dfc21ecfe4a6317481ed
kapuzinergasse,"Kapuzinergasse in Gunzburg, Germany",48.4547078,10.27744,1,,,,,,,IndustryTerm,"Kapuzinergasse in Gunzburg, Germany",,german_fires_gunzburg_locations,3a864f7212fd39f9dc8a911b9421ee17,german_fires_gunzburg_locations__3a864f7212fd39f9dc8a911b9421ee17
karl-danner-str.,"Karl-Danner-Str. in Gunzburg, Germany",48.4430425,10.2805502,1,,,,,,,LegislativeCommittee,"Karl-Danner-Str. in Gunzburg, Germany",,german_fires_gunzburg_locations,bc55d451db680feb2b65380db3a2061f,german_fires_gunzburg_locations__bc55d451db680feb2b65380db3a2061f
karl-mengele-str.,"Karl-Mengele-Str. in Gunzburg, Germany",48.444647,10.2869136,1,,,,,,,Consulates,"Karl-Mengele-Str. in Gunzburg, Germany",,german_fires_gunzburg_locations,7a9e08eb37f0185d122ad319bcf4f61b,german_fires_gunzburg_locations__7a9e08eb37f0185d122ad319bcf4f61b
karlsbader weg,"Karlsbader Weg in Gunzburg, Germany",48.4499273,10.2674733,1,,,,,,,Shipping,"Karlsbader Weg in Gunzburg, Germany",,german_fires_gunzburg_locations,cdf49d12a2ce795afe51b83108d0ed9e,german_fires_gunzburg_locations__cdf49d12a2ce795afe51b83108d0ed9e
kimmerle-ring,"Kimmerle-Ring in Gunzburg, Germany",48.4288331,10.2976306,1,,,,,,,IndustryTerm,"Kimmerle-Ring in Gunzburg, Germany",,german_fires_gunzburg_locations,cb176de372926920e171f7398baf5838,german_fires_gunzburg_locations__cb176de372926920e171f7398baf5838
kirchstr.,"Kirchstr. in Gunzburg, Germany",48.4627465,10.3036162,1,,,,,,,Shipping,"Kirchstr. in Gunzburg, Germany",,german_fires_gunzburg_locations,51255bdea43e0e5c1d7190ca02df8e76,german_fires_gunzburg_locations__51255bdea43e0e5c1d7190ca02df8e76
kirnerstr.,"Kirnerstr. in Gunzburg, Germany",48.4492436,10.297838,1,,,,,,,AAEntity,"Kirnerstr. in Gunzburg, Germany",,german_fires_gunzburg_locations,ae2b48363fd0d3d1f25027a399d0d817,german_fires_gunzburg_locations__ae2b48363fd0d3d1f25027a399d0d817
klingelstr.,"Klingelstr. in Gunzburg, Germany",48.4510385,10.2776771,1,,,,,,,Diplomat,"Klingelstr. in Gunzburg, Germany",,german_fires_gunzburg_locations,48bfcdba0219300401e9f647da61c4ee,german_fires_gunzburg_locations__48bfcdba0219300401e9f647da61c4ee
kohlstattweg,"Kohlstattweg in Gunzburg, Germany",48.4620703,10.3060882,1,,,,,,,News,"Kohlstattweg in Gunzburg, Germany",,german_fires_gunzburg_locations,cd99290e30dd5fc1f44a55f2de9daa31,german_fires_gunzburg_locations__cd99290e30dd5fc1f44a55f2de9daa31
kornblumenstr.,"Kornblumenstr. in Gunzburg, Germany",48.4511014,10.2928924,1,,,,,,,AAEntity,"Kornblumenstr. in Gunzburg, Germany",,german_fires_gunzburg_locations,a9032d14996aff4ffa830718514e5b20,german_fires_gunzburg_locations__a9032d14996aff4ffa830718514e5b20
krankenhausstr.,"Krankenhausstr. in Gunzburg, Germany",48.4504809,10.2804919,1,,,,,,,IndustryTerm,"Krankenhausstr. in Gunzburg, Germany",,german_fires_gunzburg_locations,c4622cc1524b8c010716322d9025a84e,german_fires_gunzburg_locations__c4622cc1524b8c010716322d9025a84e
krokusweg,"Krokusweg in Gunzburg, Germany",48.4509486,10.29666,1,,,,,,,Consulates,"Krokusweg in Gunzburg, Germany",,german_fires_gunzburg_locations,2e98f9a0ab83058d4fa32f1575c5fedc,german_fires_gunzburg_locations__2e98f9a0ab83058d4fa32f1575c5fedc
kruckenbergstr.,"Kruckenbergstr. in Gunzburg, Germany",48.4418837,10.3221121,1,,,,,,,Legislator,"Kruckenbergstr. in Gunzburg, Germany",,german_fires_gunzburg_locations,f6032e6e632f50cd2c6c2ebd998ac3db,german_fires_gunzburg_locations__f6032e6e632f50cd2c6c2ebd998ac3db
krummer weg,"Krummer Weg in Gunzburg, Germany",48.4747891,10.2579649,1,,,,,,,LegislativeCommittee,"Krummer Weg in Gunzburg, Germany",,german_fires_gunzburg_locations,a5745ee83cdbe68c450040804fcd68ad,german_fires_gunzburg_locations__a5745ee83cdbe68c450040804fcd68ad
kuhberg,"Kuhberg in Gunzburg, Germany",48.4569066,10.2752992,1,,,,,,,AAEntity,"Kuhberg in Gunzburg, Germany",,german_fires_gunzburg_locations,4db8775a04b3cf2b63e1afbbade8cf73,german_fires_gunzburg_locations__4db8775a04b3cf2b63e1afbbade8cf73
kurzer weg,"Kurzer Weg in Gunzburg, Germany",48.4473655,10.2816272,1,,,,,,,Shipping,"Kurzer Weg in Gunzburg, Germany",,german_fires_gunzburg_locations,51ac36d570d4da0ef09a024b6ecdf55d,german_fires_gunzburg_locations__51ac36d570d4da0ef09a024b6ecdf55d
kutschenweg,"Kutschenweg in Gunzburg, Germany",48.5101806,10.2558394,1,,,,,,,Pipeline,"Kutschenweg in Gunzburg, Germany",,german_fires_gunzburg_locations,7a15bae5b0c428046b3a295e75fced5c,german_fires_gunzburg_locations__7a15bae5b0c428046b3a295e75fced5c
konigsberger str.,"Konigsberger Str. in Gunzburg, Germany",48.4460327,10.2689278,1,,,,,,,FTO,"Konigsberger Str. in Gunzburg, Germany",,german_fires_gunzburg_locations,df408a6ab13a7113c46b50b104013ce5,german_fires_gunzburg_locations__df408a6ab13a7113c46b50b104013ce5
konigswiesenweg,"Konigswiesenweg in Gunzburg, Germany",48.4509361,10.2654165,1,,,,,,,Consulates,"Konigswiesenweg in Gunzburg, Germany",,german_fires_gunzburg_locations,e36ee0631d22c81cb813b295017cf71f,german_fires_gunzburg_locations__e36ee0631d22c81cb813b295017cf71f
kotzbergweg,"Kotzbergweg in Gunzburg, Germany",48.4390814,10.2673175,1,,,,,,,Wells,"Kotzbergweg in Gunzburg, Germany",,german_fires_gunzburg_locations,55f04e240334f2dea8fe3907137d6fde,german_fires_gunzburg_locations__55f04e240334f2dea8fe3907137d6fde
kotzer weg,"Kotzer Weg in Gunzburg, Germany",48.446771,10.2678705,1,,,,,,,Refinery,"Kotzer Weg in Gunzburg, Germany",,german_fires_gunzburg_locations,f2686ba2a3a196d1e6379ea6cf35b371,german_fires_gunzburg_locations__f2686ba2a3a196d1e6379ea6cf35b371
kuhlbachweg,"Kuhlbachweg in Gunzburg, Germany",48.4426218,10.268514,1,,,,,,,space,"Kuhlbachweg in Gunzburg, Germany",,german_fires_gunzburg_locations,69bb8befb46fe13bc378bd49723b1459,german_fires_gunzburg_locations__69bb8befb46fe13bc378bd49723b1459
langer staudenweg,"Langer Staudenweg in Gunzburg, Germany",48.4743241,10.2554545,1,,,,,,,ForeignMinister,"Langer Staudenweg in Gunzburg, Germany",,german_fires_gunzburg_locations,43e08b53b7acf2d930638283f6a0923a,german_fires_gunzburg_locations__43e08b53b7acf2d930638283f6a0923a
langerseeweg,"Langerseeweg in Gunzburg, Germany",48.4744466,10.304279,1,,,,,,,Exec,"Langerseeweg in Gunzburg, Germany",,german_fires_gunzburg_locations,f10f63f1c817157d52a5ca94600a00ab,german_fires_gunzburg_locations__f10f63f1c817157d52a5ca94600a00ab
legoland allee,"LEGOLAND Allee in Gunzburg, Germany",48.4272753,10.2966926,1,,,,,,,ForeignMinistry,"LEGOLAND Allee in Gunzburg, Germany",,german_fires_gunzburg_locations,61e6b5545b392d64fa3ab6d84d8cdc19,german_fires_gunzburg_locations__61e6b5545b392d64fa3ab6d84d8cdc19
leibistr.,"Leibistr. in Gunzburg, Germany",48.4703229,10.2498976,1,,,,,,,Media,"Leibistr. in Gunzburg, Germany",,german_fires_gunzburg_locations,5f48f1aee1fcf1184ecc46993aa036f2,german_fires_gunzburg_locations__5f48f1aee1fcf1184ecc46993aa036f2
leirenfeldweg,"Leirenfeldweg in Gunzburg, Germany",48.448884,10.3188815,1,,,,,,,CompanyKeyword,"Leirenfeldweg in Gunzburg, Germany",,german_fires_gunzburg_locations,1988abdf93773d01698d677d82b468e1,german_fires_gunzburg_locations__1988abdf93773d01698d677d82b468e1
leitenweg,"Leitenweg in Gunzburg, Germany",48.4409169,10.2814596,1,,,,,,,Wells,"Leitenweg in Gunzburg, Germany",,german_fires_gunzburg_locations,6667b8fe8fa966a8efd321742cacf4b1,german_fires_gunzburg_locations__6667b8fe8fa966a8efd321742cacf4b1
lenbachstr.,"Lenbachstr. in Gunzburg, Germany",48.446753,10.2985622,1,,,,,,,Person,"Lenbachstr. in Gunzburg, Germany",,german_fires_gunzburg_locations,92846524188f48c9c008b01da6c1a48b,german_fires_gunzburg_locations__92846524188f48c9c008b01da6c1a48b
lerchenweg,"Lerchenweg in Gunzburg, Germany",48.4408587,10.3209041,1,,,,,,,DiplomaticFacilities,"Lerchenweg in Gunzburg, Germany",,german_fires_gunzburg_locations,bb18dbbd33222a0fae66782d4e450133,german_fires_gunzburg_locations__bb18dbbd33222a0fae66782d4e450133
libellenweg,"Libellenweg in Gunzburg, Germany",48.4344341,10.2708613,1,,,,,,,Consulates,"Libellenweg in Gunzburg, Germany",,german_fires_gunzburg_locations,cedbb49bb91307157011d84062984d32,german_fires_gunzburg_locations__cedbb49bb91307157011d84062984d32
liebermannstr.,"Liebermannstr. in Gunzburg, Germany",48.4474612,10.2984326,1,,,,,,,Shipping,"Liebermannstr. in Gunzburg, Germany",,german_fires_gunzburg_locations,fa0e8d76b460bc732a05de828f5ca2b6,german_fires_gunzburg_locations__fa0e8d76b460bc732a05de828f5ca2b6
lilienweg,"Lilienweg in Gunzburg, Germany",48.4515255,10.2928354,1,,,,,,,Consulates,"Lilienweg in Gunzburg, Germany",,german_fires_gunzburg_locations,cb996a9dab224d664adc60e61ab8f49f,german_fires_gunzburg_locations__cb996a9dab224d664adc60e61ab8f49f
limbacher weg,"Limbacher Weg in Gunzburg, Germany",48.4415635,10.3288322,1,,,,,,,Pipeline,"Limbacher Weg in Gunzburg, Germany",,german_fires_gunzburg_locations,5b5f13f5a6fa62d8bf4dc72ac491d0ae,german_fires_gunzburg_locations__5b5f13f5a6fa62d8bf4dc72ac491d0ae
lindenstr.,"Lindenstr. in Gunzburg, Germany",48.4361549,10.2956937,1,,,,,,,Shipping,"Lindenstr. in Gunzburg, Germany",,german_fires_gunzburg_locations,3c8eabb99ea94bd39252163500e8b209,german_fires_gunzburg_locations__3c8eabb99ea94bd39252163500e8b209
lochfelbenstr.,"Lochfelbenstr. in Gunzburg, Germany",48.470154,10.2753871,1,,,,,,,ForeignMinister,"Lochfelbenstr. in Gunzburg, Germany",,german_fires_gunzburg_locations,8f2c2a939d278ee571b9b36e2ba230f8,german_fires_gunzburg_locations__8f2c2a939d278ee571b9b36e2ba230f8
lohnholzweg,"Lohnholzweg in Gunzburg, Germany",48.4525973,10.3171545,1,,,,,,,Refinery,"Lohnholzweg in Gunzburg, Germany",,german_fires_gunzburg_locations,6bb322e74d460cf177f4f04e277319ca,german_fires_gunzburg_locations__6bb322e74d460cf177f4f04e277319ca
lorenz-gotz-weg,"Lorenz-Gotz-Weg in Gunzburg, Germany",48.4403813,10.2688811,1,,,,,,,Person,"Lorenz-Gotz-Weg in Gunzburg, Germany",,german_fires_gunzburg_locations,ec5d195cd6c2a443e39078e36f3320a4,german_fires_gunzburg_locations__ec5d195cd6c2a443e39078e36f3320a4
ludwig-dirr-str.,"Ludwig-Dirr-Str. in Gunzburg, Germany",48.4522983,10.3219,1,,,,,,,Refinery,"Ludwig-Dirr-Str. in Gunzburg, Germany",,german_fires_gunzburg_locations,62fbb464a62ebe90f9b87f5014eaf690,german_fires_gunzburg_locations__62fbb464a62ebe90f9b87f5014eaf690
ludwig-heilmeyer-str.,"Ludwig-Heilmeyer-Str. in Gunzburg, Germany",48.4537364,10.2936396,1,,,,,,,Wells,"Ludwig-Heilmeyer-Str. in Gunzburg, Germany",,german_fires_gunzburg_locations,825258992dd2367e40573a9ebe5810d1,german_fires_gunzburg_locations__825258992dd2367e40573a9ebe5810d1
lussstrassle,"Lussstrassle in Gunzburg, Germany",48.4727475,10.2482907,1,,,,,,,Organization,"Lussstrassle in Gunzburg, Germany",,german_fires_gunzburg_locations,cd679621841032dbd2673f488e871f18,german_fires_gunzburg_locations__cd679621841032dbd2673f488e871f18
lussweg,"Lussweg in Gunzburg, Germany",48.4785985,10.2587714,1,,,,,,,FTO,"Lussweg in Gunzburg, Germany",,german_fires_gunzburg_locations,cc0ae97e4e44378480746f553b435685,german_fires_gunzburg_locations__cc0ae97e4e44378480746f553b435685
lowenbrunnenweg,"Lowenbrunnenweg in Gunzburg, Germany",48.4595719,10.2848395,1,,,,,,,Shipping,"Lowenbrunnenweg in Gunzburg, Germany",,german_fires_gunzburg_locations,b9edf19701c1a52dcaa8dacb6383433b,german_fires_gunzburg_locations__b9edf19701c1a52dcaa8dacb6383433b
maria-theresia-str.,"Maria-Theresia-Str. in Gunzburg, Germany",48.4581752,10.2786186,1,,,,,,,space,"Maria-Theresia-Str. in Gunzburg, Germany",,german_fires_gunzburg_locations,4e52c6f312e6b471b16aed3f3ff29566,german_fires_gunzburg_locations__4e52c6f312e6b471b16aed3f3ff29566
markgraf-karl-str.,"Markgraf-Karl-Str. in Gunzburg, Germany",48.4512773,10.2791537,1,,,,,,,AAEntity,"Markgraf-Karl-Str. in Gunzburg, Germany",,german_fires_gunzburg_locations,d0d93f2653520e7e1bf73c4cd827478d,german_fires_gunzburg_locations__d0d93f2653520e7e1bf73c4cd827478d
markgrafenweg,"Markgrafenweg in Gunzburg, Germany",48.4524675,10.2770954,1,,,,,,,Media,"Markgrafenweg in Gunzburg, Germany",,german_fires_gunzburg_locations,f23d3e6e59487e5de6c1a4021286f5cc,german_fires_gunzburg_locations__f23d3e6e59487e5de6c1a4021286f5cc
marktplatz,"Marktplatz in Gunzburg, Germany",48.4555002,10.2765014,1,,,,,,,ForeignMinistry,"Marktplatz in Gunzburg, Germany",,german_fires_gunzburg_locations,0b97d91fa0951273a7bc98cec88b1587,german_fires_gunzburg_locations__0b97d91fa0951273a7bc98cec88b1587
mathias-weishaupt-str.,"Mathias-Weishaupt-Str. in Gunzburg, Germany",48.4454602,10.2886171,1,,,,,,,ForeignMinistry,"Mathias-Weishaupt-Str. in Gunzburg, Germany",,german_fires_gunzburg_locations,8eacaea9b6aaa069673230c8c68d69cf,german_fires_gunzburg_locations__8eacaea9b6aaa069673230c8c68d69cf
max-planck-str.,"Max-Planck-Str. in Gunzburg, Germany",48.4726527,10.2766537,1,,,,,,,DiplomaticFacilities,"Max-Planck-Str. in Gunzburg, Germany",,german_fires_gunzburg_locations,39831b05ce7a91f40ab02a474cff3786,german_fires_gunzburg_locations__39831b05ce7a91f40ab02a474cff3786
mengesweg,"Mengesweg in Gunzburg, Germany",48.4467384,10.2611172,1,,,,,,,Organization,"Mengesweg in Gunzburg, Germany",,german_fires_gunzburg_locations,fa5f208d17c23f508a87b0bf45a74602,german_fires_gunzburg_locations__fa5f208d17c23f508a87b0bf45a74602
michelerstr.,"Michelerstr. in Gunzburg, Germany",48.4450733,10.2810154,1,,,,,,,IndustryTerm,"Michelerstr. in Gunzburg, Germany",,german_fires_gunzburg_locations,efced981a870740ed3dbbfb0c57939c3,german_fires_gunzburg_locations__efced981a870740ed3dbbfb0c57939c3
mittelriedstr.,"Mittelriedstr. in Gunzburg, Germany",48.479611,10.264622,1,,,,,,,Consulates,"Mittelriedstr. in Gunzburg, Germany",,german_fires_gunzburg_locations,0dd9afa1afb5248ce32036b9dd3e4801,german_fires_gunzburg_locations__0dd9afa1afb5248ce32036b9dd3e4801
mittelstr.,"Mittelstr. in Gunzburg, Germany",48.4359737,10.2969201,1,,,,,,,Pipeline,"Mittelstr. in Gunzburg, Germany",,german_fires_gunzburg_locations,4a670777a5d4279b1f5386a0893176b2,german_fires_gunzburg_locations__4a670777a5d4279b1f5386a0893176b2
molostr.,"Molostr. in Gunzburg, Germany",48.4508936,10.2886226,1,,,,,,,FTO,"Molostr. in Gunzburg, Germany",,german_fires_gunzburg_locations,0241d52645dc9a44cd50628cdae6d402,german_fires_gunzburg_locations__0241d52645dc9a44cd50628cdae6d402
moosstr.,"Moosstr. in Gunzburg, Germany",48.4812986,10.2824232,1,,,,,,,News,"Moosstr. in Gunzburg, Germany",,german_fires_gunzburg_locations,f39383ffd6f8a1d6dc71eaf7889f780d,german_fires_gunzburg_locations__f39383ffd6f8a1d6dc71eaf7889f780d
motzenseeweg,"Motzenseeweg in Gunzburg, Germany",48.469669,10.2697548,1,,,,,,,Refinery,"Motzenseeweg in Gunzburg, Germany",,german_fires_gunzburg_locations,e83d4f7f66b9a4a8146740314ab50fe7,german_fires_gunzburg_locations__e83d4f7f66b9a4a8146740314ab50fe7
mozartring,"Mozartring in Gunzburg, Germany",48.4588588,10.2835605,1,,,,,,,Legislator,"Mozartring in Gunzburg, Germany",,german_fires_gunzburg_locations,7d33643c16b9a80a97265dfc6bb8b353,german_fires_gunzburg_locations__7d33643c16b9a80a97265dfc6bb8b353
morikestr.,"Morikestr. in Gunzburg, Germany",48.4240924,10.2995343,1,,,,,,,Legislator,"Morikestr. in Gunzburg, Germany",,german_fires_gunzburg_locations,afba678ebde2d5f18e7210c429821af3,german_fires_gunzburg_locations__afba678ebde2d5f18e7210c429821af3
mosle,"Mosle in Gunzburg, Germany",48.4608877,10.3089387,1,,,,,,,Media,"Mosle in Gunzburg, Germany",,german_fires_gunzburg_locations,0687ea4d6701b66386270f2082aa3ee3,german_fires_gunzburg_locations__0687ea4d6701b66386270f2082aa3ee3
muhlberg,"Muhlberg in Gunzburg, Germany",48.4387462,10.2711167,1,,,,,,,DiplomaticFacilities,"Muhlberg in Gunzburg, Germany",,german_fires_gunzburg_locations,09d663cfb8dcf8190060f6862668106f,german_fires_gunzburg_locations__09d663cfb8dcf8190060f6862668106f
muhlgasse,"Muhlgasse in Gunzburg, Germany",48.4531157,10.268796,1,,,,,,,CompanyKeyword,"Muhlgasse in Gunzburg, Germany",,german_fires_gunzburg_locations,17caae827eb2e44ce850c1bcac096985,german_fires_gunzburg_locations__17caae827eb2e44ce850c1bcac096985
muhlweg,"Muhlweg in Gunzburg, Germany",48.444792,10.2841301,1,,,,,,,Legislator,"Muhlweg in Gunzburg, Germany",,german_fires_gunzburg_locations,fdff9969dbc67ddbfc6444b5c7d7d7fc,german_fires_gunzburg_locations__fdff9969dbc67ddbfc6444b5c7d7d7fc
munzgasse,"Munzgasse in Gunzburg, Germany",48.4545745,10.2770669,1,,,,,,,Wells,"Munzgasse in Gunzburg, Germany",,german_fires_gunzburg_locations,7d1eb5e4d551f569bc4a2ede570abbde,german_fires_gunzburg_locations__7d1eb5e4d551f569bc4a2ede570abbde
nelkenweg,"Nelkenweg in Gunzburg, Germany",48.4503547,10.2968075,1,,,,,,,LegislativeCommittee,"Nelkenweg in Gunzburg, Germany",,german_fires_gunzburg_locations,773e76e3837ad80b3e06fe522aee92b9,german_fires_gunzburg_locations__773e76e3837ad80b3e06fe522aee92b9
nordstr.,"Nordstr. in Gunzburg, Germany",48.4367635,10.2969856,1,,,,,,,CompanyKeyword,"Nordstr. in Gunzburg, Germany",,german_fires_gunzburg_locations,04187b844fca79a0dffee46536da0125,german_fires_gunzburg_locations__04187b844fca79a0dffee46536da0125
nornheimer berg,"Nornheimer Berg in Gunzburg, Germany",48.4578168,10.3064825,1,,,,,,,LegislativeCommittee,"Nornheimer Berg in Gunzburg, Germany",,german_fires_gunzburg_locations,cdcb696b74035fbf65ae3030f5ca6221,german_fires_gunzburg_locations__cdcb696b74035fbf65ae3030f5ca6221
nornheimer str.,"Nornheimer Str. in Gunzburg, Germany",48.457065,10.3062591,1,,,,,,,Shipping,"Nornheimer Str. in Gunzburg, Germany",,german_fires_gunzburg_locations,6b8b4875b6d9fab497d728632309748d,german_fires_gunzburg_locations__6b8b4875b6d9fab497d728632309748d
nusser-von-nusseck-str.,"Nusser-von-Nusseck-Str. in Gunzburg, Germany",48.4498164,10.2920669,1,,,,,,,Pipeline,"Nusser-von-Nusseck-Str. in Gunzburg, Germany",,german_fires_gunzburg_locations,35d0efa36d1aadf06d617ccb57ce385f,german_fires_gunzburg_locations__35d0efa36d1aadf06d617ccb57ce385f
nordliches gunztal,"Nordliches Gunztal in Gunzburg, Germany",48.4467318,10.277604,1,,,,,,,DiplomaticFacilities,"Nordliches Gunztal in Gunzburg, Germany",,german_fires_gunzburg_locations,6d72188770f227696d73a78219181ec2,german_fires_gunzburg_locations__6d72188770f227696d73a78219181ec2
obere dorfstr.,"Obere Dorfstr. in Gunzburg, Germany",48.4360664,10.2931899,1,,,,,,,LegislativeCommittee,"Obere Dorfstr. in Gunzburg, Germany",,german_fires_gunzburg_locations,e6420f3b36062577e9fad9a664a31f38,german_fires_gunzburg_locations__e6420f3b36062577e9fad9a664a31f38
oberer deffinger weg,"Oberer Deffinger Weg in Gunzburg, Germany",48.4419823,10.3114191,1,,,,,,,Keyphrase,"Oberer Deffinger Weg in Gunzburg, Germany",,german_fires_gunzburg_locations,780a8d7dcc3d3640cce2c04e1aaf21c2,german_fires_gunzburg_locations__780a8d7dcc3d3640cce2c04e1aaf21c2
oberer leinheimer weg,"Oberer Leinheimer Weg in Gunzburg, Germany",48.4405363,10.3034978,1,,,,,,,AAEntity,"Oberer Leinheimer Weg in Gunzburg, Germany",,german_fires_gunzburg_locations,02fa85d15a089b5f2de81e14398a1bc6,german_fires_gunzburg_locations__02fa85d15a089b5f2de81e14398a1bc6
oberer rothelgrabenweg,"Oberer Rothelgrabenweg in Gunzburg, Germany",48.4810656,10.2550936,1,,,,,,,ForeignMinistry,"Oberer Rothelgrabenweg in Gunzburg, Germany",,german_fires_gunzburg_locations,fbcf761f4121bf704d7f71ec5b85a35e,german_fires_gunzburg_locations__fbcf761f4121bf704d7f71ec5b85a35e
oberes erlenbad,"Oberes Erlenbad in Gunzburg, Germany",48.4552014,10.2839736,1,,,,,,,space,"Oberes Erlenbad in Gunzburg, Germany",,german_fires_gunzburg_locations,3ab27ba32bbe8ad2b52d5465a6b1bd34,german_fires_gunzburg_locations__3ab27ba32bbe8ad2b52d5465a6b1bd34
oberes hardtfeld,"Oberes Hardtfeld in Gunzburg, Germany",48.4575069,10.3054494,1,,,,,,,Shipping,"Oberes Hardtfeld in Gunzburg, Germany",,german_fires_gunzburg_locations,5e6464d5640bcc91313b9ecc3e1c6526,german_fires_gunzburg_locations__5e6464d5640bcc91313b9ecc3e1c6526
oberndorfer str.,"Oberndorfer Str. in Gunzburg, Germany",48.4520325,10.2877725,1,,,,,,,News,"Oberndorfer Str. in Gunzburg, Germany",,german_fires_gunzburg_locations,80118a92766b23b7a209b1f7d00b1022,german_fires_gunzburg_locations__80118a92766b23b7a209b1f7d00b1022
ortsstr.,"Ortsstr. in Gunzburg, Germany",48.4376788,10.2709606,1,,,,,,,News,"Ortsstr. in Gunzburg, Germany",,german_fires_gunzburg_locations,1d4779c7a39ad2beee57b14e9619858d,german_fires_gunzburg_locations__1d4779c7a39ad2beee57b14e9619858d
otto-geiselhart-str.,"Otto-Geiselhart-Str. in Gunzburg, Germany",48.4565647,10.2807538,1,,,,,,,Keyphrase,"Otto-Geiselhart-Str. in Gunzburg, Germany",,german_fires_gunzburg_locations,dd4b3fca2c8c804a601ce255745abbfc,german_fires_gunzburg_locations__dd4b3fca2c8c804a601ce255745abbfc
otto-lilienthal-weg,"Otto-Lilienthal-Weg in Gunzburg, Germany",48.48641,10.2843673,1,,,,,,,LegislativeCommittee,"Otto-Lilienthal-Weg in Gunzburg, Germany",,german_fires_gunzburg_locations,e02997f0f0b0badb402c0db707058541,german_fires_gunzburg_locations__e02997f0f0b0badb402c0db707058541
ottostr.,"Ottostr. in Gunzburg, Germany",48.4525143,10.2648059,1,,,,,,,DiplomaticFacilities,"Ottostr. in Gunzburg, Germany",,german_fires_gunzburg_locations,82351552195e94b9638bd7e4ec23213c,german_fires_gunzburg_locations__82351552195e94b9638bd7e4ec23213c
pappelweg,"Pappelweg in Gunzburg, Germany",48.4447061,10.2690731,1,,,,,,,FTO,"Pappelweg in Gunzburg, Germany",,german_fires_gunzburg_locations,41c8cf823617482bdd899a02c789eaec,german_fires_gunzburg_locations__41c8cf823617482bdd899a02c789eaec
parkplatz auweg,"Parkplatz Auweg in Gunzburg, Germany",48.4610905,10.2770197,1,,,,,,,Shipping,"Parkplatz Auweg in Gunzburg, Germany",,german_fires_gunzburg_locations,b975aeadcb9392eec809d5b6080ab275,german_fires_gunzburg_locations__b975aeadcb9392eec809d5b6080ab275
parkstr.,"Parkstr. in Gunzburg, Germany",48.4563345,10.2865261,1,,,,,,,Media,"Parkstr. in Gunzburg, Germany",,german_fires_gunzburg_locations,920b7076101933571c8a8766a05c623c,german_fires_gunzburg_locations__920b7076101933571c8a8766a05c623c
paul-auer-str.,"Paul-Auer-Str. in Gunzburg, Germany",48.4457027,10.2659841,1,,,,,,,ForeignMinistry,"Paul-Auer-Str. in Gunzburg, Germany",,german_fires_gunzburg_locations,e9d9efd49e653c7dc558507fa2bb9d00,german_fires_gunzburg_locations__e9d9efd49e653c7dc558507fa2bb9d00
pestalozzistr.,"Pestalozzistr. in Gunzburg, Germany",48.4518991,10.2735754,1,,,,,,,ForeignMinistry,"Pestalozzistr. in Gunzburg, Germany",,german_fires_gunzburg_locations,b93bd7e3a25c0fea98cb2084f0f26032,german_fires_gunzburg_locations__b93bd7e3a25c0fea98cb2084f0f26032
peter-henlein-str.,"Peter-Henlein-Str. in Gunzburg, Germany",48.4736587,10.2736141,1,,,,,,,Legislator,"Peter-Henlein-Str. in Gunzburg, Germany",,german_fires_gunzburg_locations,f4e32891b0c954ee31dd530301a114c1,german_fires_gunzburg_locations__f4e32891b0c954ee31dd530301a114c1
pfarrer-bunz-str.,"Pfarrer-Bunz-Str. in Gunzburg, Germany",48.459526,10.3090357,1,,,,,,,Legislator,"Pfarrer-Bunz-Str. in Gunzburg, Germany",,german_fires_gunzburg_locations,e22a416ad85430880367b736d6fd2a0c,german_fires_gunzburg_locations__e22a416ad85430880367b736d6fd2a0c
pfarrgasse,"Pfarrgasse in Gunzburg, Germany",48.5099693,10.2584416,1,,,,,,,AAEntity,"Pfarrgasse in Gunzburg, Germany",,german_fires_gunzburg_locations,dcff08f5b76a2439903e933c8062fd48,german_fires_gunzburg_locations__dcff08f5b76a2439903e933c8062fd48
pfarrhofplatz,"Pfarrhofplatz in Gunzburg, Germany",48.4556512,10.270993,1,,,,,,,AAEntity,"Pfarrhofplatz in Gunzburg, Germany",,german_fires_gunzburg_locations,58b8c679bf1579642ef10b59409f1113,german_fires_gunzburg_locations__58b8c679bf1579642ef10b59409f1113
pfluggasse,"Pfluggasse in Gunzburg, Germany",48.4555554,10.278392,1,,,,,,,FTO,"Pfluggasse in Gunzburg, Germany",,german_fires_gunzburg_locations,05c9d2a56a3ece813cfa6834dc6c5e56,german_fires_gunzburg_locations__05c9d2a56a3ece813cfa6834dc6c5e56
philippine-welser-str.,"Philippine-Welser-Str. in Gunzburg, Germany",48.4494041,10.2951568,1,,,,,,,Exec,"Philippine-Welser-Str. in Gunzburg, Germany",,german_fires_gunzburg_locations,ad6b967c27bfe66a18cde25f883228d4,german_fires_gunzburg_locations__ad6b967c27bfe66a18cde25f883228d4
pointgasse,"Pointgasse in Gunzburg, Germany",48.4520675,10.2688224,1,,,,,,,Wells,"Pointgasse in Gunzburg, Germany",,german_fires_gunzburg_locations,84843c8de79802520dca722e651f86f4,german_fires_gunzburg_locations__84843c8de79802520dca722e651f86f4
postgasse,"Postgasse in Gunzburg, Germany",48.4557224,10.2751764,1,,,,,,,Organization,"Postgasse in Gunzburg, Germany",,german_fires_gunzburg_locations,578058d69719811a85ff69c5cb19f950,german_fires_gunzburg_locations__578058d69719811a85ff69c5cb19f950
radwinkel,"Radwinkel in Gunzburg, Germany",48.4554698,10.2747098,1,,,,,,,Legislator,"Radwinkel in Gunzburg, Germany",,german_fires_gunzburg_locations,185a56ca4e10164ffe4c460729f2ac3a,german_fires_gunzburg_locations__185a56ca4e10164ffe4c460729f2ac3a
raiserstr.,"Raiserstr. in Gunzburg, Germany",48.4540356,10.2612311,1,,,,,,,Diplomat,"Raiserstr. in Gunzburg, Germany",,german_fires_gunzburg_locations,845ddc75e8ce41a5886e2e0750a70a4c,german_fires_gunzburg_locations__845ddc75e8ce41a5886e2e0750a70a4c
ramschwagstr.,"Ramschwagstr. in Gunzburg, Germany",48.4495432,10.2934836,1,,,,,,,AAEntity,"Ramschwagstr. in Gunzburg, Germany",,german_fires_gunzburg_locations,f286f38888ba3dc632a6442e09bcc5af,german_fires_gunzburg_locations__f286f38888ba3dc632a6442e09bcc5af
rathausgasse,"Rathausgasse in Gunzburg, Germany",48.4545697,10.2756766,1,,,,,,,AAEntity,"Rathausgasse in Gunzburg, Germany",,german_fires_gunzburg_locations,f72b7c93e83bc5557dd856f56772a4d2,german_fires_gunzburg_locations__f72b7c93e83bc5557dd856f56772a4d2
rebaystr.,"Rebaystr. in Gunzburg, Germany",48.4480723,10.287799,1,,,,,,,space,"Rebaystr. in Gunzburg, Germany",,german_fires_gunzburg_locations,6d978e5b430a8289b35458c53e94c319,german_fires_gunzburg_locations__6d978e5b430a8289b35458c53e94c319
reichenberger str.,"Reichenberger Str. in Gunzburg, Germany",48.448819,10.2693991,1,,,,,,,ForeignMinistry,"Reichenberger Str. in Gunzburg, Germany",,german_fires_gunzburg_locations,88a8496786c80a581273b546ac652316,german_fires_gunzburg_locations__88a8496786c80a581273b546ac652316
reindlstr.,"Reindlstr. in Gunzburg, Germany",48.450176,10.262575,1,,,,,,,Organization,"Reindlstr. in Gunzburg, Germany",,german_fires_gunzburg_locations,9c6846010e2f1c6dae61dfc7d6702eef,german_fires_gunzburg_locations__9c6846010e2f1c6dae61dfc7d6702eef
reinertstr.,"Reinertstr. in Gunzburg, Germany",48.4513887,10.2804364,1,,,,,,,News,"Reinertstr. in Gunzburg, Germany",,german_fires_gunzburg_locations,c4bf65ecb2fe76e2681e2ad5b0ac7929,german_fires_gunzburg_locations__c4bf65ecb2fe76e2681e2ad5b0ac7929
reisenburger weg,"Reisenburger Weg in Gunzburg, Germany",48.4412394,10.2992902,1,,,,,,,DiplomaticFacilities,"Reisenburger Weg in Gunzburg, Germany",,german_fires_gunzburg_locations,c99bae9860fb7122d5b67b6b2fa40d76,german_fires_gunzburg_locations__c99bae9860fb7122d5b67b6b2fa40d76
reisensburger str.,"Reisensburger Str. in Gunzburg, Germany",48.4614165,10.2878243,1,,,,,,,ForeignMinister,"Reisensburger Str. in Gunzburg, Germany",,german_fires_gunzburg_locations,ea93ac3342495d42ba3780a32e45c74c,german_fires_gunzburg_locations__ea93ac3342495d42ba3780a32e45c74c
riedlerweg,"Riedlerweg in Gunzburg, Germany",48.4789596,10.2646713,1,,,,,,,Shipping,"Riedlerweg in Gunzburg, Germany",,german_fires_gunzburg_locations,1c93aa2ccbb6423da3f60b5668048961,german_fires_gunzburg_locations__1c93aa2ccbb6423da3f60b5668048961
riedstr.,"Riedstr. in Gunzburg, Germany",48.4772999,10.2729102,1,,,,,,,Keyphrase,"Riedstr. in Gunzburg, Germany",,german_fires_gunzburg_locations,eaf66c84572611e5ab049d37719cb06a,german_fires_gunzburg_locations__eaf66c84572611e5ab049d37719cb06a
riemgrabenallee,"Riemgrabenallee in Gunzburg, Germany",48.4502681,10.2937654,1,,,,,,,Diplomat,"Riemgrabenallee in Gunzburg, Germany",,german_fires_gunzburg_locations,fdbf7be52d805c86b085f3d2a67e5858,german_fires_gunzburg_locations__fdbf7be52d805c86b085f3d2a67e5858
riemweg,"Riemweg in Gunzburg, Germany",48.4500846,10.2973701,1,,,,,,,FTO,"Riemweg in Gunzburg, Germany",,german_fires_gunzburg_locations,067f18b3d28c5c1ba55d9589b495a5ef,german_fires_gunzburg_locations__067f18b3d28c5c1ba55d9589b495a5ef
riemwiesenweg,"Riemwiesenweg in Gunzburg, Germany",48.449638,10.3154355,1,,,,,,,FTO,"Riemwiesenweg in Gunzburg, Germany",,german_fires_gunzburg_locations,500128d321c250f6fee043c1e2e7df64,german_fires_gunzburg_locations__500128d321c250f6fee043c1e2e7df64
ringstr.,"Ringstr. in Gunzburg, Germany",48.4605442,10.3105517,1,,,,,,,Keyphrase,"Ringstr. in Gunzburg, Germany",,german_fires_gunzburg_locations,01717206c11e3d472617e2d548b5e10e,german_fires_gunzburg_locations__01717206c11e3d472617e2d548b5e10e
rinnweg,"Rinnweg in Gunzburg, Germany",48.4522941,10.2648939,1,,,,,,,Shipping,"Rinnweg in Gunzburg, Germany",,german_fires_gunzburg_locations,da8d2d75e4bbd421970d829f9680bc1c,german_fires_gunzburg_locations__da8d2d75e4bbd421970d829f9680bc1c
robert-koch-str.,"Robert-Koch-Str. in Gunzburg, Germany",48.4527621,10.2959795,1,,,,,,,DiplomaticFacilities,"Robert-Koch-Str. in Gunzburg, Germany",,german_fires_gunzburg_locations,a2198c17d185789b627a82fd09b1db44,german_fires_gunzburg_locations__a2198c17d185789b627a82fd09b1db44
roland-hauser-str.,"Roland-Hauser-Str. in Gunzburg, Germany",48.4488144,10.2612538,1,,,,,,,DiplomaticFacilities,"Roland-Hauser-Str. in Gunzburg, Germany",,german_fires_gunzburg_locations,bcd30920b02512fbe0bf801fe1704a06,german_fires_gunzburg_locations__bcd30920b02512fbe0bf801fe1704a06
rosengasschen,"Rosengasschen in Gunzburg, Germany",48.455533,10.2807722,1,,,,,,,Organization,"Rosengasschen in Gunzburg, Germany",,german_fires_gunzburg_locations,1226f30ea34dd84bb93a17fc32145159,german_fires_gunzburg_locations__1226f30ea34dd84bb93a17fc32145159
rudolf-diesel-str.,"Rudolf-Diesel-Str. in Gunzburg, Germany",48.4736866,10.2711308,1,,,,,,,Person,"Rudolf-Diesel-Str. in Gunzburg, Germany",,german_fires_gunzburg_locations,88e50a6fdfd29e7283297f78109f4775,german_fires_gunzburg_locations__88e50a6fdfd29e7283297f78109f4775
russbaumweg,"Russbaumweg in Gunzburg, Germany",48.4373252,10.2692481,1,,,,,,,Diplomat,"Russbaumweg in Gunzburg, Germany",,german_fires_gunzburg_locations,8db333f7c4f833145c198276987700bc,german_fires_gunzburg_locations__8db333f7c4f833145c198276987700bc
romergasse,"Romergasse in Gunzburg, Germany",48.455183,10.2647217,1,,,,,,,Organization,"Romergasse in Gunzburg, Germany",,german_fires_gunzburg_locations,10010c4675dc0d5942e8a92e9de55f6d,german_fires_gunzburg_locations__10010c4675dc0d5942e8a92e9de55f6d
rontgenstr.,"Rontgenstr. in Gunzburg, Germany",48.4715864,10.2731872,1,,,,,,,AAEntity,"Rontgenstr. in Gunzburg, Germany",,german_fires_gunzburg_locations,bb3c62bb1160e18a92e816f03b8a29cd,german_fires_gunzburg_locations__bb3c62bb1160e18a92e816f03b8a29cd
schellingstr.,"Schellingstr. in Gunzburg, Germany",48.4507965,10.2995479,1,,,,,,,Wells,"Schellingstr. in Gunzburg, Germany",,german_fires_gunzburg_locations,69bba5e1029526426aa425f9896b0f4e,german_fires_gunzburg_locations__69bba5e1029526426aa425f9896b0f4e
scherisberg,"Scherisberg in Gunzburg, Germany",48.4518216,10.2770105,1,,,,,,,Media,"Scherisberg in Gunzburg, Germany",,german_fires_gunzburg_locations,482e74310f480464f2e0279a5069a70a,german_fires_gunzburg_locations__482e74310f480464f2e0279a5069a70a
schiesshausweg,"Schiesshausweg in Gunzburg, Germany",48.4588504,10.2764303,1,,,,,,,Exec,"Schiesshausweg in Gunzburg, Germany",,german_fires_gunzburg_locations,18e8a935cd351b407f49ad89127e1875,german_fires_gunzburg_locations__18e8a935cd351b407f49ad89127e1875
schillerstr.,"Schillerstr. in Gunzburg, Germany",48.4490712,10.2817144,1,,,,,,,DiplomaticFacilities,"Schillerstr. in Gunzburg, Germany",,german_fires_gunzburg_locations,46075b517c51921b62fdd76c6b70ab23,german_fires_gunzburg_locations__46075b517c51921b62fdd76c6b70ab23
schlachthausstr.,"Schlachthausstr. in Gunzburg, Germany",48.4580547,10.2757921,1,,,,,,,Person,"Schlachthausstr. in Gunzburg, Germany",,german_fires_gunzburg_locations,bb1b61d2cf8ef07ed22dee77d75c9b28,german_fires_gunzburg_locations__bb1b61d2cf8ef07ed22dee77d75c9b28
schlehdornstr.,"Schlehdornstr. in Gunzburg, Germany",48.4514401,10.2951474,1,,,,,,,CompanyKeyword,"Schlehdornstr. in Gunzburg, Germany",,german_fires_gunzburg_locations,4f02c265a4fe44136de1f8abe5395c55,german_fires_gunzburg_locations__4f02c265a4fe44136de1f8abe5395c55
schleiermacherstr.,"Schleiermacherstr. in Gunzburg, Germany",48.4505506,10.2985245,1,,,,,,,Media,"Schleiermacherstr. in Gunzburg, Germany",,german_fires_gunzburg_locations,36ecae94f11382932a77dd984d425676,german_fires_gunzburg_locations__36ecae94f11382932a77dd984d425676
schlesier weg,"Schlesier Weg in Gunzburg, Germany",48.4488139,10.266844,1,,,,,,,LegislativeCommittee,"Schlesier Weg in Gunzburg, Germany",,german_fires_gunzburg_locations,d5212e052281adc6c535ff65f63c6365,german_fires_gunzburg_locations__d5212e052281adc6c535ff65f63c6365
schlossplatz,"Schlossplatz in Gunzburg, Germany",48.4543697,10.2759903,1,,,,,,,Refinery,"Schlossplatz in Gunzburg, Germany",,german_fires_gunzburg_locations,c208162f6420f84391ba750348a261ec,german_fires_gunzburg_locations__c208162f6420f84391ba750348a261ec
schmalzgruble,"Schmalzgruble in Gunzburg, Germany",48.4594861,10.3147842,1,,,,,,,space,"Schmalzgruble in Gunzburg, Germany",,german_fires_gunzburg_locations,9341b68a9f581c89c5ac995ea3873f13,german_fires_gunzburg_locations__9341b68a9f581c89c5ac995ea3873f13
schmiedgasse,"Schmiedgasse in Gunzburg, Germany",48.4550761,10.2739463,1,,,,,,,Consulates,"Schmiedgasse in Gunzburg, Germany",,german_fires_gunzburg_locations,30f05f059be203336fdbef0ac5817b59,german_fires_gunzburg_locations__30f05f059be203336fdbef0ac5817b59
schmiedlweg,"Schmiedlweg in Gunzburg, Germany",48.4445841,10.3001524,1,,,,,,,Media,"Schmiedlweg in Gunzburg, Germany",,german_fires_gunzburg_locations,051eafe8631fc46d50382b7cc4a43a3f,german_fires_gunzburg_locations__051eafe8631fc46d50382b7cc4a43a3f
schopfelerstr.,"Schopfelerstr. in Gunzburg, Germany",48.4500194,10.2629339,1,,,,,,,Wells,"Schopfelerstr. in Gunzburg, Germany",,german_fires_gunzburg_locations,f7d22e4322a611794efc81c361b6ffdf,german_fires_gunzburg_locations__f7d22e4322a611794efc81c361b6ffdf
schreberstr.,"Schreberstr. in Gunzburg, Germany",48.4519728,10.2628544,1,,,,,,,Refinery,"Schreberstr. in Gunzburg, Germany",,german_fires_gunzburg_locations,111af97bf41f8cf3dae96f0f5f25a88a,german_fires_gunzburg_locations__111af97bf41f8cf3dae96f0f5f25a88a
schulstr.,"Schulstr. in Gunzburg, Germany",48.4240924,10.2995343,1,,,,,,,Exec,"Schulstr. in Gunzburg, Germany",,german_fires_gunzburg_locations,b9a1afa6624f3610d591612600fbbbe6,german_fires_gunzburg_locations__b9a1afa6624f3610d591612600fbbbe6
schulweg,"Schulweg in Gunzburg, Germany",48.435276,10.2676055,1,,,,,,,Wells,"Schulweg in Gunzburg, Germany",,german_fires_gunzburg_locations,105187043a256e7149365c87c96ee6e6,german_fires_gunzburg_locations__105187043a256e7149365c87c96ee6e6
schumannstr.,"Schumannstr. in Gunzburg, Germany",48.4544096,10.2879878,1,,,,,,,ForeignMinistry,"Schumannstr. in Gunzburg, Germany",,german_fires_gunzburg_locations,9ce4b6b63ed5172e83b1fc348f0b1f1a,german_fires_gunzburg_locations__9ce4b6b63ed5172e83b1fc348f0b1f1a
schwarzackerstr.,"Schwarzackerstr. in Gunzburg, Germany",48.4240924,10.2995343,1,,,,,,,IndustryTerm,"Schwarzackerstr. in Gunzburg, Germany",,german_fires_gunzburg_locations,507534be2f4ea2889f43a575adb15d7e,german_fires_gunzburg_locations__507534be2f4ea2889f43a575adb15d7e
schoblstr.,"Schoblstr. in Gunzburg, Germany",48.4522473,10.2746298,1,,,,,,,Media,"Schoblstr. in Gunzburg, Germany",,german_fires_gunzburg_locations,1d63ce8c9051c9d336b359f3e5a8896b,german_fires_gunzburg_locations__1d63ce8c9051c9d336b359f3e5a8896b
schutzenstr.,"Schutzenstr. in Gunzburg, Germany",48.4572933,10.2774363,1,,,,,,,Wells,"Schutzenstr. in Gunzburg, Germany",,german_fires_gunzburg_locations,1dc53f340ac954c84355cb1cd99574d1,german_fires_gunzburg_locations__1dc53f340ac954c84355cb1cd99574d1
sedanstr.,"Sedanstr. in Gunzburg, Germany",48.4538602,10.2808735,1,,,,,,,space,"Sedanstr. in Gunzburg, Germany",,german_fires_gunzburg_locations,5cc752d49967ff1acc43df37f9584b1b,german_fires_gunzburg_locations__5cc752d49967ff1acc43df37f9584b1b
serafin-stotter-str.,"Serafin-Stotter-Str. in Gunzburg, Germany",48.450564,10.2895685,1,,,,,,,Media,"Serafin-Stotter-Str. in Gunzburg, Germany",,german_fires_gunzburg_locations,e93c3565b0f40f34df619bfcadcd41c2,german_fires_gunzburg_locations__e93c3565b0f40f34df619bfcadcd41c2
sieben-tannen-weg,"Sieben-Tannen-Weg in Gunzburg, Germany",48.4596166,10.3054154,1,,,,,,,Consulates,"Sieben-Tannen-Weg in Gunzburg, Germany",,german_fires_gunzburg_locations,53c0fd24f76f413c105a3ecd0503c13c,german_fires_gunzburg_locations__53c0fd24f76f413c105a3ecd0503c13c
siebenburger str.,"Siebenburger Str. in Gunzburg, Germany",48.5064822,10.2452265,1,,,,,,,ForeignMinister,"Siebenburger Str. in Gunzburg, Germany",,german_fires_gunzburg_locations,3f1c578e59d572962c21c56d1fc917d5,german_fires_gunzburg_locations__3f1c578e59d572962c21c56d1fc917d5
siedlerstr.,"Siedlerstr. in Gunzburg, Germany",48.4412281,10.2692648,1,,,,,,,IndustryTerm,"Siedlerstr. in Gunzburg, Germany",,german_fires_gunzburg_locations,be067ca2634aad543ce9ebb12d1626b3,german_fires_gunzburg_locations__be067ca2634aad543ce9ebb12d1626b3
siedlungsstr.,"Siedlungsstr. in Gunzburg, Germany",48.4361494,10.2914213,1,,,,,,,News,"Siedlungsstr. in Gunzburg, Germany",,german_fires_gunzburg_locations,44212dc01a9fe8a08e164a4ea95cd8d6,german_fires_gunzburg_locations__44212dc01a9fe8a08e164a4ea95cd8d6
siemensstr.,"Siemensstr. in Gunzburg, Germany",48.4604224,10.2812672,1,,,,,,,News,"Siemensstr. in Gunzburg, Germany",,german_fires_gunzburg_locations,f449127d776d7b1c2ff8b2710a17a22b,german_fires_gunzburg_locations__f449127d776d7b1c2ff8b2710a17a22b
silcherstr.,"Silcherstr. in Gunzburg, Germany",48.4434034,10.285753,1,,,,,,,Legislator,"Silcherstr. in Gunzburg, Germany",,german_fires_gunzburg_locations,0deccb7e9653e51e043231594daf3161,german_fires_gunzburg_locations__0deccb7e9653e51e043231594daf3161
silvergreen-str.,"Silvergreen-Str. in Gunzburg, Germany",48.4292895,10.2991204,1,,,,,,,Person,"Silvergreen-Str. in Gunzburg, Germany",,german_fires_gunzburg_locations,0ca14e12b18d4faafec72abf4b2c301c,german_fires_gunzburg_locations__0ca14e12b18d4faafec72abf4b2c301c
sixengasschen,"Sixengasschen in Gunzburg, Germany",48.4631947,10.3038627,1,,,,,,,Media,"Sixengasschen in Gunzburg, Germany",,german_fires_gunzburg_locations,0d778ae6f8e23626e0fd8f14633d8867,german_fires_gunzburg_locations__0d778ae6f8e23626e0fd8f14633d8867
sonnenstr.,"Sonnenstr. in Gunzburg, Germany",48.4472038,10.2835312,1,,,,,,,Wells,"Sonnenstr. in Gunzburg, Germany",,german_fires_gunzburg_locations,9db19b038b681bfc5d7033e42daf395b,german_fires_gunzburg_locations__9db19b038b681bfc5d7033e42daf395b
sophienstr.,"Sophienstr. in Gunzburg, Germany",48.4521401,10.2809928,1,,,,,,,IndustryTerm,"Sophienstr. in Gunzburg, Germany",,german_fires_gunzburg_locations,c3fcca04db9c6acb7356d15d50faa324,german_fires_gunzburg_locations__c3fcca04db9c6acb7356d15d50faa324
spielplatzstr.,"Spielplatzstr. in Gunzburg, Germany",48.4343626,10.2951955,1,,,,,,,space,"Spielplatzstr. in Gunzburg, Germany",,german_fires_gunzburg_locations,dd86ecd39ac8e1e2ab7d8acf20f9e40a,german_fires_gunzburg_locations__dd86ecd39ac8e1e2ab7d8acf20f9e40a
spitalgasse,"Spitalgasse in Gunzburg, Germany",48.453596,10.2737304,1,,,,,,,IndustryTerm,"Spitalgasse in Gunzburg, Germany",,german_fires_gunzburg_locations,c4473049c030d02f6ea347e8e9163eda,german_fires_gunzburg_locations__c4473049c030d02f6ea347e8e9163eda
spitzberg,"Spitzberg in Gunzburg, Germany",48.4629563,10.2984216,1,,,,,,,Person,"Spitzberg in Gunzburg, Germany",,german_fires_gunzburg_locations,353a246dacbb273a1ce304a2dcb68ade,german_fires_gunzburg_locations__353a246dacbb273a1ce304a2dcb68ade
spitzwegstr.,"Spitzwegstr. in Gunzburg, Germany",48.4478037,10.2991653,1,,,,,,,Media,"Spitzwegstr. in Gunzburg, Germany",,german_fires_gunzburg_locations,a191bf13cf54ffb9d23e22d1bc12e7c0,german_fires_gunzburg_locations__a191bf13cf54ffb9d23e22d1bc12e7c0
st.-blasius-str.,"St.-Blasius-Str. in Gunzburg, Germany",48.4414581,10.3249907,1,,,,,,,ForeignMinistry,"St.-Blasius-Str. in Gunzburg, Germany",,german_fires_gunzburg_locations,fed535d539ae015a1d899184c174eff9,german_fires_gunzburg_locations__fed535d539ae015a1d899184c174eff9
st.-erhard-str.,"St.-Erhard-Str. in Gunzburg, Germany",48.4515492,10.3146314,1,,,,,,,News,"St.-Erhard-Str. in Gunzburg, Germany",,german_fires_gunzburg_locations,1f6279e2c89f772bd7898ca3b13b8d55,german_fires_gunzburg_locations__1f6279e2c89f772bd7898ca3b13b8d55
st.-leonhard-weg,"St.-Leonhard-Weg in Gunzburg, Germany",48.460996,10.3111995,1,,,,,,,FTO,"St.-Leonhard-Weg in Gunzburg, Germany",,german_fires_gunzburg_locations,f5d1b50dbc70d7a653690a42e6711757,german_fires_gunzburg_locations__f5d1b50dbc70d7a653690a42e6711757
st.-sixtus-str.,"St.-Sixtus-Str. in Gunzburg, Germany",48.4602569,10.3012833,1,,,,,,,Wells,"St.-Sixtus-Str. in Gunzburg, Germany",,german_fires_gunzburg_locations,30cb6471db4cc4edb0924d1bb119dec9,german_fires_gunzburg_locations__30cb6471db4cc4edb0924d1bb119dec9
st.-ulrich-str.,"St.-Ulrich-Str. in Gunzburg, Germany",48.4347642,10.2996216,1,,,,,,,Keyphrase,"St.-Ulrich-Str. in Gunzburg, Germany",,german_fires_gunzburg_locations,0fe8008d0d7d15d4904c6559e24677b6,german_fires_gunzburg_locations__0fe8008d0d7d15d4904c6559e24677b6
st.-vitus-str.,"St.-Vitus-Str. in Gunzburg, Germany",48.5099596,10.257403,1,,,,,,,News,"St.-Vitus-Str. in Gunzburg, Germany",,german_fires_gunzburg_locations,a83985f27c2189ac614a9a7ab55efcd8,german_fires_gunzburg_locations__a83985f27c2189ac614a9a7ab55efcd8
stadtberg,"Stadtberg in Gunzburg, Germany",48.4546616,10.2729546,1,,,,,,,Organization,"Stadtberg in Gunzburg, Germany",,german_fires_gunzburg_locations,126778b55f97a19d86979b18140c3ee9,german_fires_gunzburg_locations__126778b55f97a19d86979b18140c3ee9
starengriesweg,"Starengriesweg in Gunzburg, Germany",48.467529,10.2711232,1,,,,,,,Consulates,"Starengriesweg in Gunzburg, Germany",,german_fires_gunzburg_locations,8516ea30369ce9ea48fd2b4e443c5eaf,german_fires_gunzburg_locations__8516ea30369ce9ea48fd2b4e443c5eaf
stegerwaldstr.,"Stegerwaldstr. in Gunzburg, Germany",48.4474108,10.2972586,1,,,,,,,AAEntity,"Stegerwaldstr. in Gunzburg, Germany",,german_fires_gunzburg_locations,675b21767c60eb0813adcdcb997a2cd0,german_fires_gunzburg_locations__675b21767c60eb0813adcdcb997a2cd0
steinerne furch,"Steinerne Furch in Gunzburg, Germany",48.4819201,10.2565746,1,,,,,,,Wells,"Steinerne Furch in Gunzburg, Germany",,german_fires_gunzburg_locations,572a020c96f7fab9ce140f933544ce59,german_fires_gunzburg_locations__572a020c96f7fab9ce140f933544ce59
steppachweg,"Steppachweg in Gunzburg, Germany",48.4528357,10.2836262,1,,,,,,,ForeignMinistry,"Steppachweg in Gunzburg, Germany",,german_fires_gunzburg_locations,fffe2e981176695dc6b80cace2a845f2,german_fires_gunzburg_locations__fffe2e981176695dc6b80cace2a845f2
sternberger str.,"Sternberger Str. in Gunzburg, Germany",48.4480142,10.2671383,1,,,,,,,Media,"Sternberger Str. in Gunzburg, Germany",,german_fires_gunzburg_locations,6fe04738f566c408127d49f0d8fdcb75,german_fires_gunzburg_locations__6fe04738f566c408127d49f0d8fdcb75
sternwinkel,"Sternwinkel in Gunzburg, Germany",48.4553237,10.2743453,1,,,,,,,Diplomat,"Sternwinkel in Gunzburg, Germany",,german_fires_gunzburg_locations,3933f3d184ba1f76635a63cfa5f15939,german_fires_gunzburg_locations__3933f3d184ba1f76635a63cfa5f15939
stettiner str.,"Stettiner Str. in Gunzburg, Germany",48.4481429,10.2694201,1,,,,,,,Shipping,"Stettiner Str. in Gunzburg, Germany",,german_fires_gunzburg_locations,f8b51c7be2e6db6e18f3cfdfa2142c9c,german_fires_gunzburg_locations__f8b51c7be2e6db6e18f3cfdfa2142c9c
sudstr.,"Sudstr. in Gunzburg, Germany",48.4240924,10.2995343,1,,,,,,,ForeignMinistry,"Sudstr. in Gunzburg, Germany",,german_fires_gunzburg_locations,727a4e33d7dce6f65f60109bd171374a,german_fires_gunzburg_locations__727a4e33d7dce6f65f60109bd171374a
tainzostr.,"Tainzostr. in Gunzburg, Germany",48.4441896,10.2802226,1,,,,,,,Media,"Tainzostr. in Gunzburg, Germany",,german_fires_gunzburg_locations,7ce801ac8007f1b9d6dc16f16aa5fdc1,german_fires_gunzburg_locations__7ce801ac8007f1b9d6dc16f16aa5fdc1
therese-huber-str.,"Therese-Huber-Str. in Gunzburg, Germany",48.4553615,10.2597363,1,,,,,,,AAEntity,"Therese-Huber-Str. in Gunzburg, Germany",,german_fires_gunzburg_locations,ff2f04957182d903ecef836e7b882ad8,german_fires_gunzburg_locations__ff2f04957182d903ecef836e7b882ad8
