german_text,caption_text,lat,lon,.1,default location,default_lat,default_lon,.2,handle:einszweizweibot,ENTITY_LABEL,name,description,source,source_identifier,global_identifier
linz,"Linz, Austria",48.30694,14.28583,,,,,,,space,"Linz, Austria",,upper_austria_locations,ac2d6ddf3c2c5a5103ba11cc80f646e8,upper_austria_locations__ac2d6ddf3c2c5a5103ba11cc80f646e8
wels,"Wels, Austria",48.16542,14.03664,,,,,,,Organization,"Wels, Austria",,upper_austria_locations,d60370433fab8ada10c8e67899f1ca8b,upper_austria_locations__d60370433fab8ada10c8e67899f1ca8b
steyr,"Steyr, Austria",48.05009,14.41827,,,,,ss,,AAEntity,"Steyr, Austria",,upper_austria_locations,39aedc3ec205e3c692e756a802e19b4f,upper_austria_locations__39aedc3ec205e3c692e756a802e19b4f
braunau am inn,"Braunau am Inn, Austria",48.25573,13.04432,,,,,u,,FTO,"Braunau am Inn, Austria",,upper_austria_locations,f696f7842eea7d1ddfed69d5f18be87d,upper_austria_locations__f696f7842eea7d1ddfed69d5f18be87d
eferding,"Eferding, Austria",48.30879,14.02023,,,,,a,,CompanyKeyword,"Eferding, Austria",,upper_austria_locations,ebad01809b72ba17acce121479c4bf35,upper_austria_locations__ebad01809b72ba17acce121479c4bf35
freistadt,"Freistadt, Austria",48.50217,14.50201,,,,,o,,LegislativeCommittee,"Freistadt, Austria",,upper_austria_locations,6ac1894274846f4621572f210c47900a,upper_austria_locations__6ac1894274846f4621572f210c47900a
gmunden,"Gmunden, Austria",47.91839,13.79933,,,,,,,Shipping,"Gmunden, Austria",,upper_austria_locations,178840057449da1231f6886f2861a6f5,upper_austria_locations__178840057449da1231f6886f2861a6f5
grieskirchen,"Grieskirchen, Austria",48.23587,13.82617,,,,,,,Person,"Grieskirchen, Austria",,upper_austria_locations,27211c1a56d6fc6d8f5bec807b1bd0ef,upper_austria_locations__27211c1a56d6fc6d8f5bec807b1bd0ef
kirchdorf,"Kirchdorf, Austria",47.5573206,12.4474459,,,,,,,Organization,"Kirchdorf, Austria",,upper_austria_locations,6d59f576fd8c52fc2e6fd15cb591397b,upper_austria_locations__6d59f576fd8c52fc2e6fd15cb591397b
linz-land,"Linz-Land, Austria",48.1679636,14.2926786,,,,,,,Shipping,"Linz-Land, Austria",,upper_austria_locations,2880778ff44d4059c62e707fe7e9282b,upper_austria_locations__2880778ff44d4059c62e707fe7e9282b
perg,"Perg, Austria",48.24992,14.63474,,,,,,,Wells,"Perg, Austria",,upper_austria_locations,675a91978664ce392b6f792e61b06fff,upper_austria_locations__675a91978664ce392b6f792e61b06fff
ried im innkreis,"Ried im Innkreis, Austria",48.21272,13.49272,,,,,,,FTO,"Ried im Innkreis, Austria",,upper_austria_locations,6699e86bc0517cb3cca91ed453b05b6f,upper_austria_locations__6699e86bc0517cb3cca91ed453b05b6f
rohrbach,"Rohrbach, Austria",48.5724264,13.9892409,,,,,,,CompanyKeyword,"Rohrbach, Austria",,upper_austria_locations,28c8be115979823679443b5545c4b5cf,upper_austria_locations__28c8be115979823679443b5545c4b5cf
scharding,"Scharding, Austria",48.46051,13.43268,,,,,,,Pipeline,"Scharding, Austria",,upper_austria_locations,34a6dbe2659890bd2d2bcc1a34ebab6f,upper_austria_locations__34a6dbe2659890bd2d2bcc1a34ebab6f
steyr-land,"Steyr-Land, Austria",47.9159873,14.5224199,,,,,,,Exec,"Steyr-Land, Austria",,upper_austria_locations,eaacd974d04be38ec71276cbef84603b,upper_austria_locations__eaacd974d04be38ec71276cbef84603b
urfahr-umgebung,"Urfahr-Umgebung, Austria",48.4392995,14.2368317,,,,,,,Shipping,"Urfahr-Umgebung, Austria",,upper_austria_locations,2ca01129d2c7275556c0a6ae83fb6975,upper_austria_locations__2ca01129d2c7275556c0a6ae83fb6975
vocklabruck,"Vocklabruck, Austria",48.00334,13.65613,,,,,,,Keyphrase,"Vocklabruck, Austria",,upper_austria_locations,b296eb0028550769c77b96a720afa389,upper_austria_locations__b296eb0028550769c77b96a720afa389
wels-land,"Wels-Land, Austria",48.0861783,13.9750791,,,,,,,Diplomat,"Wels-Land, Austria",,upper_austria_locations,5793c7e15c30fcce966214b9ba6af216,upper_austria_locations__5793c7e15c30fcce966214b9ba6af216
abtsdorf,"Abtsdorf, Austria",47.90884,13.51193,,,,,,,IndustryTerm,"Abtsdorf, Austria",,upper_austria_locations,18685c69e27d0b79339cf1c799508ae2,upper_austria_locations__18685c69e27d0b79339cf1c799508ae2
ach,"Ach, Austria",48.15624,12.83716,,,,,,,Keyphrase,"Ach, Austria",,upper_austria_locations,eda74548323ec2abec3a2b50f2d8b515,upper_austria_locations__eda74548323ec2abec3a2b50f2d8b515
achenlohe,"Achenlohe, Austria",48.04667,13.19917,,,,,,,Refinery,"Achenlohe, Austria",,upper_austria_locations,febff3c30530dde2a9510cab3cae50f9,upper_austria_locations__febff3c30530dde2a9510cab3cae50f9
achleiten,"Achleiten, Austria",48.58092,13.51092,,,,,,,space,"Achleiten, Austria",,upper_austria_locations,bd7d741ff38a9be4240467d55618f71f,upper_austria_locations__bd7d741ff38a9be4240467d55618f71f
ackersberg,"Ackersberg, Austria",48.06965,13.53854,,,,,,,Shipping,"Ackersberg, Austria",,upper_austria_locations,689d4a07f69722426335e8f994fc3cbc,upper_austria_locations__689d4a07f69722426335e8f994fc3cbc
adenberg,"Adenberg, Austria",48.14386,12.9735099,,,,,,,FTO,"Adenberg, Austria",,upper_austria_locations,d371e13e6f6f56a6fe96e9b415de59cb,upper_austria_locations__d371e13e6f6f56a6fe96e9b415de59cb
adlhaming,"Adlhaming, Austria",48.01126,13.94666,,,,,,,Keyphrase,"Adlhaming, Austria",,upper_austria_locations,cb7f8d73b431db0203927575bf2d8286,upper_austria_locations__cb7f8d73b431db0203927575bf2d8286
adlwang,"Adlwang, Austria",47.9922947,14.2167646,,,,,,,Wells,"Adlwang, Austria",,upper_austria_locations,fa706f90fb3cc810a34bc33096e938a9,upper_austria_locations__fa706f90fb3cc810a34bc33096e938a9
afiesl,"Afiesl, Austria",48.5818421,14.1272352,,,,,,,Pipeline,"Afiesl, Austria",,upper_austria_locations,43eaf3eb64cc5265ab961c72a12960d4,upper_austria_locations__43eaf3eb64cc5265ab961c72a12960d4
ahorn,"Ahorn, Austria",48.5237638,14.1739521,,,,,,,Media,"Ahorn, Austria",,upper_austria_locations,36a0f3c8ecce0095a8123252c918ca1f,upper_austria_locations__36a0f3c8ecce0095a8123252c918ca1f
aich,"Aich, Austria",47.4229079,13.8215824,,,,,,,Diplomat,"Aich, Austria",,upper_austria_locations,d2c943643f9c939f4b81459efbce62bb,upper_austria_locations__d2c943643f9c939f4b81459efbce62bb
aichberg,"Aichberg, Austria",47.3821681,15.9733677,,,,,,,ForeignMinister,"Aichberg, Austria",,upper_austria_locations,c2fc3bf4359b402863e313d4a2d21dd4,upper_austria_locations__c2fc3bf4359b402863e313d4a2d21dd4
aichet,"Aichet, Austria",47.4229079,13.8215824,,,,,,,Refinery,"Aichet, Austria",,upper_austria_locations,6c6375bd9478de546cf654c7ef28ed27,upper_austria_locations__6c6375bd9478de546cf654c7ef28ed27
aichkirchen,"Aichkirchen, Austria",48.109667,13.7922189,,,,,,,Wells,"Aichkirchen, Austria",,upper_austria_locations,42fbd3570409e4327bb489a6f09a8985,upper_austria_locations__42fbd3570409e4327bb489a6f09a8985
aigen,"Aigen, Austria",47.7952027,13.0747395,,,,,,,Diplomat,"Aigen, Austria",,upper_austria_locations,226590588fbe6e8a1a3133616033ddef,upper_austria_locations__226590588fbe6e8a1a3133616033ddef
aigen-schlagl,"Aigen-Schlagl, Austria",48.6365753,13.9649762,,,,,,,Wells,"Aigen-Schlagl, Austria",,upper_austria_locations,cbafc06dda2bc2f749a4f7cde3f6b651,upper_austria_locations__cbafc06dda2bc2f749a4f7cde3f6b651
aiglbrechting,"Aiglbrechting, Austria",48.31069,13.56604,,,,,,,Person,"Aiglbrechting, Austria",,upper_austria_locations,efc5f6a633693168d577a8a8e401d0c8,upper_austria_locations__efc5f6a633693168d577a8a8e401d0c8
aistersheim,"Aistersheim, Austria",48.1869781,13.7418034,,,,,,,Diplomat,"Aistersheim, Austria",,upper_austria_locations,9fdfadb9e8404459526e43630fae32a2,upper_austria_locations__9fdfadb9e8404459526e43630fae32a2
alberndorf in der riedmark,"Alberndorf in der Riedmark, Austria",48.4073527,14.4187225,,,,,,,Wells,"Alberndorf in der Riedmark, Austria",,upper_austria_locations,b1659d2206463101c789a60e153f9f87,upper_austria_locations__b1659d2206463101c789a60e153f9f87
alkoven,"Alkoven, Austria",48.2873107,14.1084943,,,,,,,Person,"Alkoven, Austria",,upper_austria_locations,c1339d1496453a5a44013f174f21f0da,upper_austria_locations__c1339d1496453a5a44013f174f21f0da
allerheiligen im muhlkreis,"Allerheiligen im Muhlkreis, Austria",48.3020409,14.6508549,,,,,,,AAEntity,"Allerheiligen im Muhlkreis, Austria",,upper_austria_locations,2ed7d41e2733bbb87fc6216b58e4ab42,upper_austria_locations__2ed7d41e2733bbb87fc6216b58e4ab42
allersdorf,"Allersdorf, Austria",48.13265,14.93393,,,,,,,Exec,"Allersdorf, Austria",,upper_austria_locations,edadc7c661c90b77082b38c407c9eac4,upper_austria_locations__edadc7c661c90b77082b38c407c9eac4
allhaming,"Allhaming, Austria",48.1527076,14.1698692,,,,,,,Person,"Allhaming, Austria",,upper_austria_locations,556e6c1ceab6bfc2401ab0dab5635432,upper_austria_locations__556e6c1ceab6bfc2401ab0dab5635432
almegg,"Almegg, Austria",48.0705805,13.9204931,,,,,,,Exec,"Almegg, Austria",,upper_austria_locations,a18b4cb1b5278855d1aef96160e1e962,upper_austria_locations__a18b4cb1b5278855d1aef96160e1e962
altaist,"Altaist, Austria",48.3158,14.52621,,,,,,,AAEntity,"Altaist, Austria",,upper_austria_locations,28e6d59154f0378122c63cbce00ffe84,upper_austria_locations__28e6d59154f0378122c63cbce00ffe84
altenberg bei linz,"Altenberg bei Linz, Austria",48.3736086,14.3495882,,,,,,,Keyphrase,"Altenberg bei Linz, Austria",,upper_austria_locations,6afe35c1ffec69fd2d97b9557bacc6a4,upper_austria_locations__6afe35c1ffec69fd2d97b9557bacc6a4
altenburg,"Altenburg, Austria",48.64769,15.5905899,,,,,,,Wells,"Altenburg, Austria",,upper_austria_locations,3392fa73533cd2f95d4a17372b7d49cc,upper_austria_locations__3392fa73533cd2f95d4a17372b7d49cc
altendorf,"Altendorf, Austria",47.6590293,16.0154984,,,,,,,Diplomat,"Altendorf, Austria",,upper_austria_locations,c346eb9e0061cf1d78d095492904856a,upper_austria_locations__c346eb9e0061cf1d78d095492904856a
altenfelden,"Altenfelden, Austria",48.4855458,13.9701445,,,,,,,Person,"Altenfelden, Austria",,upper_austria_locations,e0109014806063a22b051957210290ad,upper_austria_locations__e0109014806063a22b051957210290ad
altenhof,"Altenhof, Austria",47.31427,13.08587,,,,,,,News,"Altenhof, Austria",,upper_austria_locations,4971a02056d312ce40fe64588c4acafa,upper_austria_locations__4971a02056d312ce40fe64588c4acafa
altenhof am hausruck,"Altenhof am Hausruck, Austria",48.13561,13.68655,,,,,,,News,"Altenhof am Hausruck, Austria",,upper_austria_locations,03067bbe260284ff11168481ae5d505c,upper_austria_locations__03067bbe260284ff11168481ae5d505c
altheim,"Altheim, Austria",48.2512662,13.2337163,,,,,,,ForeignMinister,"Altheim, Austria",,upper_austria_locations,628c4c02c7219fa2d528b43ba7948ac3,upper_austria_locations__628c4c02c7219fa2d528b43ba7948ac3
altmunster,"Altmunster, Austria",47.9011744,13.7678146,,,,,,,Keyphrase,"Altmunster, Austria",,upper_austria_locations,086f7a217b656b11a1b00998de98fb4f,upper_austria_locations__086f7a217b656b11a1b00998de98fb4f
altschwendt,"Altschwendt, Austria",48.3235463,13.6879421,,,,,,,Media,"Altschwendt, Austria",,upper_austria_locations,d01b3e009cd617406422d39155a4e288,upper_austria_locations__d01b3e009cd617406422d39155a4e288
amberg,"Amberg, Austria",48.35973,14.2145,,,,,,,DiplomaticFacilities,"Amberg, Austria",,upper_austria_locations,87d6412ed4283441002b1a118d49e023,upper_austria_locations__87d6412ed4283441002b1a118d49e023
amelreiching,"Amelreiching, Austria",48.50522,13.4879,,,,,,,LegislativeCommittee,"Amelreiching, Austria",,upper_austria_locations,acf13c3bd82502cbe28a2d114814360f,upper_austria_locations__acf13c3bd82502cbe28a2d114814360f
amesreith,"Amesreith, Austria",48.4935,14.65291,,,,,,,AAEntity,"Amesreith, Austria",,upper_austria_locations,cf8e52fddb9b3d214350f7fb5344eef9,upper_austria_locations__cf8e52fddb9b3d214350f7fb5344eef9
amesschlag,"Amesschlag, Austria",47.4177097,15.9938877,,,,,,,DiplomaticFacilities,"Amesschlag, Austria",,upper_austria_locations,4d35a0e09ba63091411aebfdf7276d1f,upper_austria_locations__4d35a0e09ba63091411aebfdf7276d1f
ampflwang im hausruckwald,"Ampflwang im Hausruckwald, Austria",48.0884684,13.5611601,,,,,,,AAEntity,"Ampflwang im Hausruckwald, Austria",,upper_austria_locations,dc8a06e55d331f1f70c3e3550d58f361,upper_austria_locations__dc8a06e55d331f1f70c3e3550d58f361
andorf,"Andorf, Austria",48.3710358,13.5738477,,,,,,,Media,"Andorf, Austria",,upper_austria_locations,96698bc1451bed3aa99ac2a34cb3a5d4,upper_austria_locations__96698bc1451bed3aa99ac2a34cb3a5d4
andrichsfurt,"Andrichsfurt, Austria",48.2656977,13.5254792,,,,,,,Legislator,"Andrichsfurt, Austria",,upper_austria_locations,514a1eb5dbff890d63247426c7727160,upper_austria_locations__514a1eb5dbff890d63247426c7727160
andrichsfurth,"Andrichsfurth, Austria",48.2656977,13.5254792,,,,,,,Refinery,"Andrichsfurth, Austria",,upper_austria_locations,feb769b11be7a70ac5fc930cf1386a67,upper_austria_locations__feb769b11be7a70ac5fc930cf1386a67
anger,"Anger, Austria",47.27461,15.69415,,,,,,,Wells,"Anger, Austria",,upper_austria_locations,56f72733e9eafac50604b96c90c246fc,upper_austria_locations__56f72733e9eafac50604b96c90c246fc
angsuss,"Angsuss, Austria",48.41116,13.62458,,,,,,,CompanyKeyword,"Angsuss, Austria",,upper_austria_locations,c4d01ea8ba16586c57724388a57d34f3,upper_austria_locations__c4d01ea8ba16586c57724388a57d34f3
annaberg,"Annaberg, Austria",47.8717277,15.3760583,,,,,,,space,"Annaberg, Austria",,upper_austria_locations,c3ddc04a471253bd859e15ec11732943,upper_austria_locations__c3ddc04a471253bd859e15ec11732943
ansfelden,"Ansfelden, Austria",48.2077278,14.2912729,,,,,,,Keyphrase,"Ansfelden, Austria",,upper_austria_locations,b0fe312feabec8c64d78f927b62812bf,upper_austria_locations__b0fe312feabec8c64d78f927b62812bf
antiesenhofen,"Antiesenhofen, Austria",48.3455699,13.4003035,,,,,,,Shipping,"Antiesenhofen, Austria",,upper_austria_locations,16b237ffc94bb18e523759ee37ca3de3,upper_austria_locations__16b237ffc94bb18e523759ee37ca3de3
anzing,"Anzing, Austria",48.247,15.85701,,,,,,,space,"Anzing, Austria",,upper_austria_locations,9a2292365256a4a1107f1bf781677ff9,upper_austria_locations__9a2292365256a4a1107f1bf781677ff9
apfenthal,"Apfenthal, Austria",48.15926,13.03657,,,,,,,Organization,"Apfenthal, Austria",,upper_austria_locations,2475e5c90fb8fb0ef3e9291469027ad2,upper_austria_locations__2475e5c90fb8fb0ef3e9291469027ad2
apfoltern,"Apfoltern, Austria",48.54375,14.48751,,,,,,,Diplomat,"Apfoltern, Austria",,upper_austria_locations,104849a5511b0d2b36767dd3422f500c,upper_austria_locations__104849a5511b0d2b36767dd3422f500c
arbing,"Arbing, Austria",48.2288995,14.7036942,,,,,,,FTO,"Arbing, Austria",,upper_austria_locations,2f7dbae7590cf781d0b41eb9a3d21ef8,upper_austria_locations__2f7dbae7590cf781d0b41eb9a3d21ef8
arling,"Arling, Austria",48.26104,13.59478,,,,,,,DiplomaticFacilities,"Arling, Austria",,upper_austria_locations,5d7fc5a6adb4f861e8144e187beeaa6c,upper_austria_locations__5d7fc5a6adb4f861e8144e187beeaa6c
arnreit,"Arnreit, Austria",48.5258601,13.9960133,,,,,,,DiplomaticFacilities,"Arnreit, Austria",,upper_austria_locations,6b20752597e6b027d52613a6f67915b5,upper_austria_locations__6b20752597e6b027d52613a6f67915b5
arzberg,"Arzberg, Austria",47.2488995,15.5190849,,,,,,,Media,"Arzberg, Austria",,upper_austria_locations,6f678b89c83457a1acff48e3b4bc7019,upper_austria_locations__6f678b89c83457a1acff48e3b4bc7019
aschach an der donau,"Aschach an der Donau, Austria",48.3641034,14.0193903,,,,,,,AAEntity,"Aschach an der Donau, Austria",,upper_austria_locations,a36633bff51c083d14bb2d07aff17c66,upper_austria_locations__a36633bff51c083d14bb2d07aff17c66
aschach an der steyr,"Aschach an der Steyr, Austria",48.0125931,14.3347014,,,,,,,Legislator,"Aschach an der Steyr, Austria",,upper_austria_locations,ec212c301ffb569b81c217d1f6037c7c,upper_austria_locations__ec212c301ffb569b81c217d1f6037c7c
aschau,"Aschau, Austria",47.26205,11.89366,,,,,,,ForeignMinistry,"Aschau, Austria",,upper_austria_locations,8b623f2ab80198dc3782c2c7cd5fafee,upper_austria_locations__8b623f2ab80198dc3782c2c7cd5fafee
aschenberg,"Aschenberg, Austria",48.49022,13.6366,,,,,,,ForeignMinister,"Aschenberg, Austria",,upper_austria_locations,9a024cd55b995c639f2aedd85983ffcc,upper_austria_locations__9a024cd55b995c639f2aedd85983ffcc
aschet,"Aschet, Austria",48.147514,14.019256,,,,,,,Keyphrase,"Aschet, Austria",,upper_austria_locations,0fc55fed7a98ce5a0d8bf85aee339132,upper_austria_locations__0fc55fed7a98ce5a0d8bf85aee339132
asing,"Asing, Austria",48.5324101,13.53126,,,,,,,Legislator,"Asing, Austria",,upper_austria_locations,c55c42a91c66db6a285cb0ce07b5fea7,upper_austria_locations__c55c42a91c66db6a285cb0ce07b5fea7
aspach,"Aspach, Austria",48.1823778,13.3027652,,,,,,,Pipeline,"Aspach, Austria",,upper_austria_locations,1ee356cb586c50fc397cd1354c1146e9,upper_austria_locations__1ee356cb586c50fc397cd1354c1146e9
asten,"Asten, Austria",48.2188234,14.4202806,,,,,,,LegislativeCommittee,"Asten, Austria",,upper_austria_locations,fa2353120a97ad5952d4df59af8d6ae5,upper_austria_locations__fa2353120a97ad5952d4df59af8d6ae5
atschenbach,"Atschenbach, Austria",48.21123,13.8646,,,,,,,Diplomat,"Atschenbach, Austria",,upper_austria_locations,5c340eb1baac5cca2d177ac644e939a9,upper_austria_locations__5c340eb1baac5cca2d177ac644e939a9
attersee am attersee,"Attersee am Attersee, Austria",47.9161072,13.5338605,,,,,,,Consulates,"Attersee am Attersee, Austria",,upper_austria_locations,5d01725a14600113f2e2768b41344346,upper_austria_locations__5d01725a14600113f2e2768b41344346
attnang-puchheim,"Attnang-Puchheim, Austria",48.0159024,13.7180408,,,,,,,space,"Attnang-Puchheim, Austria",,upper_austria_locations,9888aa9da67b36db605e4d0a7e4ea66a,upper_austria_locations__9888aa9da67b36db605e4d0a7e4ea66a
atzbach,"Atzbach, Austria",48.083176,13.7046453,,,,,,,Consulates,"Atzbach, Austria",,upper_austria_locations,baf5c08bb64e6c71673cd9f015791913,upper_austria_locations__baf5c08bb64e6c71673cd9f015791913
atzesberg,"Atzesberg, Austria",48.53903,13.8696999,,,,,,,News,"Atzesberg, Austria",,upper_austria_locations,a10ad0343494fb031816c57a6a73f449,upper_austria_locations__a10ad0343494fb031816c57a6a73f449
atzing,"Atzing, Austria",47.35721,12.79993,,,,,,,Exec,"Atzing, Austria",,upper_austria_locations,fec090c58a5c9b6e3345d743f1d707e3,upper_austria_locations__fec090c58a5c9b6e3345d743f1d707e3
au,"Au, Austria",47.3191926,9.9858329,,,,,,,Organization,"Au, Austria",,upper_austria_locations,89f04fabea4d85ae7981f90debfcd8cb,upper_austria_locations__89f04fabea4d85ae7981f90debfcd8cb
auberg,"Auberg, Austria",48.544107,14.0517042,,,,,,,Diplomat,"Auberg, Austria",,upper_austria_locations,67923dbed08d537db7617793665269b8,upper_austria_locations__67923dbed08d537db7617793665269b8
auerbach,"Auerbach, Austria",48.0649141,13.1083148,,,,,,,Exec,"Auerbach, Austria",,upper_austria_locations,ddf72ec6bf21cf5022b147ff4ff3e1e0,upper_austria_locations__ddf72ec6bf21cf5022b147ff4ff3e1e0
aurach am hongar,"Aurach am Hongar, Austria",47.9516435,13.6732772,,,,,,,Legislator,"Aurach am Hongar, Austria",,upper_austria_locations,22604e61d2af76efd76d8a5f4fda83de,upper_austria_locations__22604e61d2af76efd76d8a5f4fda83de
aurolzmunster,"Aurolzmunster, Austria",48.2476163,13.4561463,,,,,,,Exec,"Aurolzmunster, Austria",,upper_austria_locations,a0ba4a16d84da6865a2ae9b86b715d49,upper_austria_locations__a0ba4a16d84da6865a2ae9b86b715d49
ausserbreitenau,"Ausserbreitenau, Austria",47.87318,14.33042,,,,,,,Keyphrase,"Ausserbreitenau, Austria",,upper_austria_locations,9df49a1f2e5036ed07cf3e2a87600c10,upper_austria_locations__9df49a1f2e5036ed07cf3e2a87600c10
ausserpuhret,"Ausserpuhret, Austria",48.0224876,13.8387081,,,,,,,LegislativeCommittee,"Ausserpuhret, Austria",,upper_austria_locations,fed4f44bca1b5df63e1349533090c420,upper_austria_locations__fed4f44bca1b5df63e1349533090c420
axberg,"Axberg, Austria",48.25565,14.11372,,,,,,,Wells,"Axberg, Austria",,upper_austria_locations,bf1d9ea935b2a2d5e8f2f195f3f62e5c,upper_austria_locations__bf1d9ea935b2a2d5e8f2f195f3f62e5c
bachloh,"Bachloh, Austria",48.06785,13.8847,,,,,,,Legislator,"Bachloh, Austria",,upper_austria_locations,d9c523d6b238e736c16ac8b20c417130,upper_austria_locations__d9c523d6b238e736c16ac8b20c417130
bachmanning,"Bachmanning, Austria",48.1307026,13.7965181,,,,,,,Shipping,"Bachmanning, Austria",,upper_austria_locations,6150955f4f061d7c7e9cf7f35b989297,upper_austria_locations__6150955f4f061d7c7e9cf7f35b989297
backengraben,"Backengraben, Austria",47.94556,14.32884,,,,,,,ForeignMinister,"Backengraben, Austria",,upper_austria_locations,75e13d8fe51360ce8f1b14820b0d6b08,upper_austria_locations__75e13d8fe51360ce8f1b14820b0d6b08
bad goisern am hallstattersee,"Bad Goisern am Hallstattersee, Austria",47.6462201,13.6158884,,,,,,,Consulates,"Bad Goisern am Hallstattersee, Austria",,upper_austria_locations,f1716ecb978364c9923a5cb3b6abf92d,upper_austria_locations__f1716ecb978364c9923a5cb3b6abf92d
bad hall,"Bad Hall, Austria",48.0380697,14.2088574,,,,,,,Organization,"Bad Hall, Austria",,upper_austria_locations,9bd2e95aad88bfa233bbd2ca9c49f098,upper_austria_locations__9bd2e95aad88bfa233bbd2ca9c49f098
bad ischl,"Bad Ischl, Austria",47.7123805,13.6209459,,,,,,,IndustryTerm,"Bad Ischl, Austria",,upper_austria_locations,e4a7341bfa75e617b332cb918dde5891,upper_austria_locations__e4a7341bfa75e617b332cb918dde5891
bad kreuzen,"Bad Kreuzen, Austria",48.2671995,14.8077629,,,,,,,FTO,"Bad Kreuzen, Austria",,upper_austria_locations,a5744ce23d012eda34596140e832c915,upper_austria_locations__a5744ce23d012eda34596140e832c915
bad leonfelden,"Bad Leonfelden, Austria",48.5228052,14.2919642,,,,,,,Keyphrase,"Bad Leonfelden, Austria",,upper_austria_locations,28dcb824ff38fc7e32b8a845150ec01a,upper_austria_locations__28dcb824ff38fc7e32b8a845150ec01a
bad muhllacken,"Bad Muhllacken, Austria",48.36408,14.06433,,,,,,,Diplomat,"Bad Muhllacken, Austria",,upper_austria_locations,c3143de73a885ffcec77fdab131266d4,upper_austria_locations__c3143de73a885ffcec77fdab131266d4
bad schallerbach,"Bad Schallerbach, Austria",48.2313123,13.9200651,,,,,,,ForeignMinistry,"Bad Schallerbach, Austria",,upper_austria_locations,c72c6f18710b0372b06534ec22e0e552,upper_austria_locations__c72c6f18710b0372b06534ec22e0e552
bad wimsbach-neydharting,"Bad Wimsbach-Neydharting, Austria",48.0632067,13.9017771,,,,,,,Refinery,"Bad Wimsbach-Neydharting, Austria",,upper_austria_locations,891de1c4e09d99b24084dc9ef91c837c,upper_austria_locations__891de1c4e09d99b24084dc9ef91c837c
bad zell,"Bad Zell, Austria",48.3486,14.67137,,,,,,,LegislativeCommittee,"Bad Zell, Austria",,upper_austria_locations,daa10693523fadbde998b0ce000352de,upper_austria_locations__daa10693523fadbde998b0ce000352de
baumgarten,"Baumgarten, Austria",48.30886,16.86975,,,,,,,Wells,"Baumgarten, Austria",,upper_austria_locations,7f09e8f7f0f3b1f9a4fb25fe5bcb5f95,upper_austria_locations__7f09e8f7f0f3b1f9a4fb25fe5bcb5f95
baumgartenberg,"Baumgartenberg, Austria",48.2091315,14.7457884,,,,,,,Organization,"Baumgartenberg, Austria",,upper_austria_locations,439553f675eeb3e26bb54b5a1fea5ac1,upper_austria_locations__439553f675eeb3e26bb54b5a1fea5ac1
baumgarting,"Baumgarting, Austria",48.30886,16.86975,,,,,,,AAEntity,"Baumgarting, Austria",,upper_austria_locations,0e0a9b24d9551ee90fd6a84a9b769b18,upper_austria_locations__0e0a9b24d9551ee90fd6a84a9b769b18
berdetschlag,"Berdetschlag, Austria",48.67631,13.8804402,,,,,,,ForeignMinister,"Berdetschlag, Austria",,upper_austria_locations,b74b427a1d1754297afdcf78d7cbce10,upper_austria_locations__b74b427a1d1754297afdcf78d7cbce10
berg,"Berg, Austria",47.9409387,13.5242738,,,,,,,Person,"Berg, Austria",,upper_austria_locations,247d35746ace0c4fac0765cfacf2ffad,upper_austria_locations__247d35746ace0c4fac0765cfacf2ffad
berg im attergau,"Berg im Attergau, Austria",47.94159908,13.52393045,,,,,,,DiplomaticFacilities,"Berg im Attergau, Austria",,upper_austria_locations,f327cfc9de15e35db167ef46e2001736,upper_austria_locations__f327cfc9de15e35db167ef46e2001736
bergham,"Bergham, Austria",48.2812,14.23116,,,,,,,Refinery,"Bergham, Austria",,upper_austria_locations,c9637ec21f175400cc7462dce5d2a92d,upper_austria_locations__c9637ec21f175400cc7462dce5d2a92d
bergheim,"Bergheim, Austria",47.8464521,13.0356505,,,,,,,Organization,"Bergheim, Austria",,upper_austria_locations,704ef3cc07a15639e8e6559d2cc9fae0,upper_austria_locations__704ef3cc07a15639e8e6559d2cc9fae0
bernhardschlag,"Bernhardschlag, Austria",48.53283,14.24597,,,,,,,ForeignMinister,"Bernhardschlag, Austria",,upper_austria_locations,7e55957c315b6b34e5f85c6f56065a5c,upper_austria_locations__7e55957c315b6b34e5f85c6f56065a5c
biburg,"Biburg, Austria",48.19089,13.12085,,,,,,,News,"Biburg, Austria",,upper_austria_locations,5de185c132d8e55ca97f463240a7aec8,upper_austria_locations__5de185c132d8e55ca97f463240a7aec8
bierbaum,"Bierbaum, Austria",46.8292,15.7928699,,,,,,,Shipping,"Bierbaum, Austria",,upper_austria_locations,1482f50c8d425c6f20e978ea958b8197,upper_austria_locations__1482f50c8d425c6f20e978ea958b8197
blumau,"Blumau, Austria",47.1167946,16.0520392,,,,,,,Shipping,"Blumau, Austria",,upper_austria_locations,8e5747f71dd6e29003c60af7da93ec06,upper_austria_locations__8e5747f71dd6e29003c60af7da93ec06
bodendorf,"Bodendorf, Austria",47.11071,14.05979,,,,,,,Consulates,"Bodendorf, Austria",,upper_austria_locations,58e688b4432ba0639b4e980cfc5fbe60,upper_austria_locations__58e688b4432ba0639b4e980cfc5fbe60
bogendorf,"Bogendorf, Austria",46.68403,13.968,,,,,,,Person,"Bogendorf, Austria",,upper_austria_locations,4763565884b3a5499fbd0ea796c54ca5,upper_austria_locations__4763565884b3a5499fbd0ea796c54ca5
brandstatt,"Brandstatt, Austria",48.33351,14.02029,,,,,,,Organization,"Brandstatt, Austria",,upper_austria_locations,18663d919710971aad31d1f0e57e064b,upper_austria_locations__18663d919710971aad31d1f0e57e064b
brandstatten,"Brandstatten, Austria",48.27852,13.5398101,,,,,,,Organization,"Brandstatten, Austria",,upper_austria_locations,64ad4f20f191f83af7c96307ecd1bede,upper_austria_locations__64ad4f20f191f83af7c96307ecd1bede
brauchsdorf,"Brauchsdorf, Austria",48.43027,13.54772,,,,,,,AAEntity,"Brauchsdorf, Austria",,upper_austria_locations,d57996f7869672dd689f1d28ce4a1de3,upper_austria_locations__d57996f7869672dd689f1d28ce4a1de3
braunau am inn,"Braunau am Inn, Austria",48.25573,13.04432,,,,,,,Media,"Braunau am Inn, Austria",,upper_austria_locations,f696f7842eea7d1ddfed69d5f18be87d,upper_austria_locations__f696f7842eea7d1ddfed69d5f18be87d
brawinkl,"Brawinkl, Austria",48.3256,14.67047,,,,,,,AAEntity,"Brawinkl, Austria",,upper_austria_locations,eb9989c5aa9009c2e0cfb1a775ea56a0,upper_austria_locations__eb9989c5aa9009c2e0cfb1a775ea56a0
breiningsdorf,"Breiningsdorf, Austria",48.30812,13.55591,,,,,,,Media,"Breiningsdorf, Austria",,upper_austria_locations,6cf2969fece646fa97aeb203a73f10dd,upper_austria_locations__6cf2969fece646fa97aeb203a73f10dd
breitenau,"Breitenau, Austria",47.7336489,16.1424177,,,,,,,Wells,"Breitenau, Austria",,upper_austria_locations,5e402021854b7fed6f40f70490c4b83e,upper_austria_locations__5e402021854b7fed6f40f70490c4b83e
breitenried,"Breitenried, Austria",48.28237,13.60736,,,,,,,Shipping,"Breitenried, Austria",,upper_austria_locations,1d89c1a00d2f1fa7ac045b3e6a897679,upper_austria_locations__1d89c1a00d2f1fa7ac045b3e6a897679
brenning,"Brenning, Austria",48.24743627,13.5314658,,,,,,,Legislator,"Brenning, Austria",,upper_austria_locations,0557fd3e60f5dc892e3290cad6d384ec,upper_austria_locations__0557fd3e60f5dc892e3290cad6d384ec
bruck,"Bruck, Austria",47.40993,15.26861,,,,,,,AAEntity,"Bruck, Austria",,upper_austria_locations,031240b557810d39db6bb11e87689dd4,upper_austria_locations__031240b557810d39db6bb11e87689dd4
bruckmuhl,"Bruckmuhl, Austria",48.10495,13.6281,,,,,,,Organization,"Bruckmuhl, Austria",,upper_austria_locations,4c50feaa1bcbb21a4c2601a877de7b6f,upper_austria_locations__4c50feaa1bcbb21a4c2601a877de7b6f
brunnenthal,"Brunnenthal, Austria",48.4686381,13.4596532,,,,,,,ForeignMinistry,"Brunnenthal, Austria",,upper_austria_locations,087529742b71d6fb00364bc084242f45,upper_austria_locations__087529742b71d6fb00364bc084242f45
buchkirchen,"Buchkirchen, Austria",48.224177,14.0230975,,,,,,,FTO,"Buchkirchen, Austria",,upper_austria_locations,40d9a25b632cfa03869ed40a251c48a9,upper_austria_locations__40d9a25b632cfa03869ed40a251c48a9
buchschachen,"Buchschachen, Austria",47.31861,16.10203,,,,,,,Person,"Buchschachen, Austria",,upper_austria_locations,7e26b9d962ffbd960c9e53dfda9b2ea0,upper_austria_locations__7e26b9d962ffbd960c9e53dfda9b2ea0
burg,"Burg, Austria",47.482932,13.1889589,,,,,,,AAEntity,"Burg, Austria",,upper_austria_locations,65233f093bbeb370be07bb6cb6232e2e,upper_austria_locations__65233f093bbeb370be07bb6cb6232e2e
burgerding,"Burgerding, Austria",48.34544,13.59443,,,,,,,space,"Burgerding, Austria",,upper_austria_locations,d5af08f992c279e282277ed46f7a2376,upper_austria_locations__d5af08f992c279e282277ed46f7a2376
burgkirchen,"Burgkirchen, Austria",48.2028906,13.1008827,,,,,,,CompanyKeyword,"Burgkirchen, Austria",,upper_austria_locations,98d06bf5ae93fafb565166f8a3247141,upper_austria_locations__98d06bf5ae93fafb565166f8a3247141
christkindl,"Christkindl, Austria",48.032491,14.3817132,,,,,,,IndustryTerm,"Christkindl, Austria",,upper_austria_locations,19d9f699cf205251422bdeb3a56693ae,upper_austria_locations__19d9f699cf205251422bdeb3a56693ae
dachsberg,"Dachsberg, Austria",48.2950395,13.930455,,,,,,,News,"Dachsberg, Austria",,upper_austria_locations,1e4fc743e4a669fbcae3ac166e5ed43e,upper_austria_locations__1e4fc743e4a669fbcae3ac166e5ed43e
dambach,"Dambach, Austria",48.1462272,14.2188936,,,,,,,Organization,"Dambach, Austria",,upper_austria_locations,0eaa83aca9536ec24c4f3201c2cca548,upper_austria_locations__0eaa83aca9536ec24c4f3201c2cca548
damberg,"Damberg, Austria",48.26647,13.70827,,,,,,,News,"Damberg, Austria",,upper_austria_locations,277445ba94e3dd43cf22fcb552682cc2,upper_austria_locations__277445ba94e3dd43cf22fcb552682cc2
dauersdorf,"Dauersdorf, Austria",47.96107,14.13588,,,,,,,IndustryTerm,"Dauersdorf, Austria",,upper_austria_locations,5d1b91be766bd655c3bb0835eeedc8a9,upper_austria_locations__5d1b91be766bd655c3bb0835eeedc8a9
deising,"Deising, Austria",48.03347,13.85508,,,,,,,Refinery,"Deising, Austria",,upper_austria_locations,576e887acb25a647dc63d35f71d7aeeb,upper_austria_locations__576e887acb25a647dc63d35f71d7aeeb
desselbrunn,"Desselbrunn, Austria",48.0218958,13.7705842,,,,,,,ForeignMinister,"Desselbrunn, Austria",,upper_austria_locations,e7aa70050e4694e7dd12908af2c5d50a,upper_austria_locations__e7aa70050e4694e7dd12908af2c5d50a
diersbach,"Diersbach, Austria",48.4134258,13.5718146,,,,,,,Keyphrase,"Diersbach, Austria",,upper_austria_locations,e20a1eaa746ba47a9e8c032593189f6c,upper_austria_locations__e20a1eaa746ba47a9e8c032593189f6c
dietach,"Dietach, Austria",48.09029,14.4179105,,,,,,,LegislativeCommittee,"Dietach, Austria",,upper_austria_locations,9de03987c51a998a56fd7d3752f5aa26,upper_austria_locations__9de03987c51a998a56fd7d3752f5aa26
diethaming,"Diethaming, Austria",47.98536,13.85822,,,,,,,LegislativeCommittee,"Diethaming, Austria",,upper_austria_locations,b32129d8f812602884c690eb3cab7572,upper_austria_locations__b32129d8f812602884c690eb3cab7572
dietrichschlag,"Dietrichschlag, Austria",48.49513,14.2814101,,,,,,,space,"Dietrichschlag, Austria",,upper_austria_locations,56eac03f125575c9fbb010816682106d,upper_austria_locations__56eac03f125575c9fbb010816682106d
dietrichshofen,"Dietrichshofen, Austria",48.37291,13.4210101,,,,,,,ForeignMinistry,"Dietrichshofen, Austria",,upper_austria_locations,678f91dae6040c30ca7d80b9f3e46314,upper_austria_locations__678f91dae6040c30ca7d80b9f3e46314
dimbach,"Dimbach, Austria",48.3059518,14.90794,,,,,,,CompanyKeyword,"Dimbach, Austria",,upper_austria_locations,693b34d3285e235849f8b8ee4e6fbae9,upper_austria_locations__693b34d3285e235849f8b8ee4e6fbae9
dipersdorf,"Dipersdorf, Austria",47.99536,14.13298,,,,,,,Exec,"Dipersdorf, Austria",,upper_austria_locations,8d037f85946a5678dd1d940ac3cd7228,upper_austria_locations__8d037f85946a5678dd1d940ac3cd7228
dirisam,"Dirisam, Austria",48.19957,13.71316,,,,,,,Media,"Dirisam, Austria",,upper_austria_locations,de8bdcbbafe1171721cb0396edc2d6c1,upper_austria_locations__de8bdcbbafe1171721cb0396edc2d6c1
dirnberg,"Dirnberg, Austria",48.05439,14.07376,,,,,,,DiplomaticFacilities,"Dirnberg, Austria",,upper_austria_locations,b6155eec49b5f883cafcbf11f60c980c,upper_austria_locations__b6155eec49b5f883cafcbf11f60c980c
dorf,"Dorf, Austria",48.2789178,13.6286295,,,,,,,Refinery,"Dorf, Austria",,upper_austria_locations,3e8714f325b3badaac33d9404c304a5f,upper_austria_locations__3e8714f325b3badaac33d9404c304a5f
dorf an der pram,"Dorf an der Pram, Austria",48.2789178,13.6286295,,,,,,,Exec,"Dorf an der Pram, Austria",,upper_austria_locations,15138b3e00ad728875ca9a1e619b9928,upper_austria_locations__15138b3e00ad728875ca9a1e619b9928
dorfl,"Dorfl, Austria",46.79309,12.66624,,,,,,,IndustryTerm,"Dorfl, Austria",,upper_austria_locations,16b5267f1eeade720c7020bc183cc600,upper_austria_locations__16b5267f1eeade720c7020bc183cc600
dornbach,"Dornbach, Austria",48.231272,16.2804609,,,,,,,AAEntity,"Dornbach, Austria",,upper_austria_locations,acc5250d1d5bebcb4f3e6c3a511ef45f,upper_austria_locations__acc5250d1d5bebcb4f3e6c3a511ef45f
drautendorf,"Drautendorf, Austria",48.4436904,14.0545971,,,,,,,DiplomaticFacilities,"Drautendorf, Austria",,upper_austria_locations,68116e6f0f1df156731bfbff05030677,upper_austria_locations__68116e6f0f1df156731bfbff05030677
dreissgen,"Dreissgen, Austria",48.53008,14.48807,,,,,,,space,"Dreissgen, Austria",,upper_austria_locations,6569155c0e5fa0656c8ed54ed40b94ab,upper_austria_locations__6569155c0e5fa0656c8ed54ed40b94ab
droissendorf,"Droissendorf, Austria",48.07953,14.29788,,,,,,,Wells,"Droissendorf, Austria",,upper_austria_locations,92f3739e2da9210c4a8b9793930a5d60,upper_austria_locations__92f3739e2da9210c4a8b9793930a5d60
dulmeding,"Dulmeding, Austria",48.25831,13.46155,,,,,,,Exec,"Dulmeding, Austria",,upper_austria_locations,5324580c6c6e9083fa60de3fe83da847,upper_austria_locations__5324580c6c6e9083fa60de3fe83da847
ebelsberg,"Ebelsberg, Austria",48.2494492,14.3652037,,,,,,,LegislativeCommittee,"Ebelsberg, Austria",,upper_austria_locations,0e0f9a141d24b2ffd224a6cb24fd029c,upper_austria_locations__0e0f9a141d24b2ffd224a6cb24fd029c
eben,"Eben, Austria",47.4112642,13.394953,,,,,,,Organization,"Eben, Austria",,upper_austria_locations,f3d70123fe2ab85e3f5c500a4535f068,upper_austria_locations__f3d70123fe2ab85e3f5c500a4535f068
ebensee am traunsee,"Ebensee am Traunsee, Austria",47.8071383,13.779037,,,,,,,News,"Ebensee am Traunsee, Austria",,upper_austria_locations,f6c867752a665e8a7282067a772a2108,upper_austria_locations__f6c867752a665e8a7282067a772a2108
ebenzweier,"Ebenzweier, Austria",47.8949194,13.7614535,,,,,,,space,"Ebenzweier, Austria",,upper_austria_locations,55ade63e90740d2ad9bd26dd225c660c,upper_austria_locations__55ade63e90740d2ad9bd26dd225c660c
eberschwang,"Eberschwang, Austria",48.1545798,13.5613273,,,,,,,Wells,"Eberschwang, Austria",,upper_austria_locations,22beeafa973e1126d357b3532b2b1681,upper_austria_locations__22beeafa973e1126d357b3532b2b1681
eberstalzell,"Eberstalzell, Austria",48.0439107,13.9815714,,,,,,,IndustryTerm,"Eberstalzell, Austria",,upper_austria_locations,0ef5eba3991b9fa533b0318124cab93b,upper_austria_locations__0ef5eba3991b9fa533b0318124cab93b
eckerstorf,"Eckerstorf, Austria",48.51928,14.09914,,,,,,,Legislator,"Eckerstorf, Austria",,upper_austria_locations,05164bc5713ba8bbeeb6665c0d7e7bbb,upper_austria_locations__05164bc5713ba8bbeeb6665c0d7e7bbb
edermaning,"Edermaning, Austria",48.44903,13.50993,,,,,,,Consulates,"Edermaning, Austria",,upper_austria_locations,b690423e8c918d5c2f5630346d40fd29,upper_austria_locations__b690423e8c918d5c2f5630346d40fd29
edlbach,"Edlbach, Austria",47.7147796,14.3443193,,,,,,,Exec,"Edlbach, Austria",,upper_austria_locations,3f8616ad0748c127e13a8c366e566941,upper_austria_locations__3f8616ad0748c127e13a8c366e566941
edt,"Edt, Austria",48.1091883,13.8751081,,,,,,,Keyphrase,"Edt, Austria",,upper_austria_locations,faf5ed25f965262042699974c0c3ac8a,upper_austria_locations__faf5ed25f965262042699974c0c3ac8a
edt bei lambach,"Edt bei Lambach, Austria",48.10917,13.87512,,,,,,,space,"Edt bei Lambach, Austria",,upper_austria_locations,8d7457ee2817982cf7956a30e875f66b,upper_austria_locations__8d7457ee2817982cf7956a30e875f66b
eferding,"Eferding, Austria",48.30879,14.02023,,,,,,,Media,"Eferding, Austria",,upper_austria_locations,ebad01809b72ba17acce121479c4bf35,upper_austria_locations__ebad01809b72ba17acce121479c4bf35
eggelsberg,"Eggelsberg, Austria",48.07912,12.99091,,,,,,,Person,"Eggelsberg, Austria",,upper_austria_locations,482e7658685aadbc2e9dd87a4a5e24fb,upper_austria_locations__482e7658685aadbc2e9dd87a4a5e24fb
eggenberg,"Eggenberg, Austria",47.0688649,15.3920879,,,,,,,AAEntity,"Eggenberg, Austria",,upper_austria_locations,3628f72844be162601f72f2ed02f13b1,upper_austria_locations__3628f72844be162601f72f2ed02f13b1
eggendorf im traunkreis,"Eggendorf im Traunkreis, Austria",48.130452,14.1443761,,,,,,,DiplomaticFacilities,"Eggendorf im Traunkreis, Austria",,upper_austria_locations,ddb735ccfca1d1b446c0108c9f88c645,upper_austria_locations__ddb735ccfca1d1b446c0108c9f88c645
eggenham,"Eggenham, Austria",48.04533,12.92825,,,,,,,Wells,"Eggenham, Austria",,upper_austria_locations,1201eff8167d0b9ba1f90530c1aacc5f,upper_austria_locations__1201eff8167d0b9ba1f90530c1aacc5f
eggerding,"Eggerding, Austria",48.3479343,13.4774817,,,,,,,Keyphrase,"Eggerding, Austria",,upper_austria_locations,b303bb621c04f9815fc9b66e1b834036,upper_austria_locations__b303bb621c04f9815fc9b66e1b834036
eggersham,"Eggersham, Austria",48.48499,13.4890199,,,,,,,Exec,"Eggersham, Austria",,upper_austria_locations,b96a7414ef8ee02e59717927187fd333,upper_austria_locations__b96a7414ef8ee02e59717927187fd333
eggmair,"Eggmair, Austria",48.0231856,14.2385279,,,,,,,Legislator,"Eggmair, Austria",,upper_austria_locations,848250a394f6c8ec81807d7c364aecb3,upper_austria_locations__848250a394f6c8ec81807d7c364aecb3
ehrendorf,"Ehrendorf, Austria",48.7571517,14.9638573,,,,,,,CompanyKeyword,"Ehrendorf, Austria",,upper_austria_locations,55e979b4f55d4787c1eb10e439ca3028,upper_austria_locations__55e979b4f55d4787c1eb10e439ca3028
ehrenfeld,"Ehrenfeld, Austria",47.98991,13.7925499,,,,,,,space,"Ehrenfeld, Austria",,upper_austria_locations,a4ce7211d1635bf35c763f7c89997f58,upper_austria_locations__a4ce7211d1635bf35c763f7c89997f58
eibenstein,"Eibenstein, Austria",48.84612,15.5799,,,,,,,Consulates,"Eibenstein, Austria",,upper_austria_locations,a294e23da72aa3d50bcb0f23c56058a4,upper_austria_locations__a294e23da72aa3d50bcb0f23c56058a4
eichbichl,"Eichbichl, Austria",48.0904602,12.8057946,,,,,,,FTO,"Eichbichl, Austria",,upper_austria_locations,6cb74aedb8cc19e92f8e3a6090d56412,upper_austria_locations__6cb74aedb8cc19e92f8e3a6090d56412
eidenberg,"Eidenberg, Austria",48.39489,14.2334901,,,,,,,Person,"Eidenberg, Austria",,upper_austria_locations,2b0afec0cb8090485bd59a1d04c1eb4a,upper_austria_locations__2b0afec0cb8090485bd59a1d04c1eb4a
eidendorf,"Eidendorf, Austria",48.42746,14.13143,,,,,,,Shipping,"Eidendorf, Austria",,upper_austria_locations,4dea8ae5ebb0d4741d16c8af83b6ff11,upper_austria_locations__4dea8ae5ebb0d4741d16c8af83b6ff11
einsiedling,"Einsiedling, Austria",47.97838,13.94134,,,,,,,space,"Einsiedling, Austria",,upper_austria_locations,1fe298dc82740df45601bda0ffe1e03a,upper_austria_locations__1fe298dc82740df45601bda0ffe1e03a
eisenbirn,"Eisenbirn, Austria",48.4758,13.56041,,,,,,,CompanyKeyword,"Eisenbirn, Austria",,upper_austria_locations,c1fb32fe1791fa8c3d1983ef9fc2379b,upper_austria_locations__c1fb32fe1791fa8c3d1983ef9fc2379b
eitzing,"Eitzing, Austria",48.2403426,13.4298894,,,,,,,ForeignMinister,"Eitzing, Austria",,upper_austria_locations,899fa0fb4262499a368776b08a88486d,upper_austria_locations__899fa0fb4262499a368776b08a88486d
eizendorf,"Eizendorf, Austria",48.1949846,14.7722646,,,,,,,Exec,"Eizendorf, Austria",,upper_austria_locations,7a8163be023a1cb193b8c4d2b82717f0,upper_austria_locations__7a8163be023a1cb193b8c4d2b82717f0
ellreching,"Ellreching, Austria",48.251,13.28995,,,,,,,Wells,"Ellreching, Austria",,upper_austria_locations,065349d9739150e8923a43b620a0fd31,upper_austria_locations__065349d9739150e8923a43b620a0fd31
emprechting,"Emprechting, Austria",48.2107,13.5255,,,,,,,Media,"Emprechting, Austria",,upper_austria_locations,186a375f807423b314c1ccb514b121cd,upper_austria_locations__186a375f807423b314c1ccb514b121cd
emsenhub,"Emsenhub, Austria",47.98774,14.2274,,,,,,,Legislator,"Emsenhub, Austria",,upper_austria_locations,10d6929a28269a0e901deb98a22c99ea,upper_austria_locations__10d6929a28269a0e901deb98a22c99ea
engelhartszell,"Engelhartszell, Austria",48.5070212,13.7320782,,,,,,,LegislativeCommittee,"Engelhartszell, Austria",,upper_austria_locations,3b3722a5176975e249fe4d5ba487dafc,upper_austria_locations__3b3722a5176975e249fe4d5ba487dafc
engerwitzdorf,"Engerwitzdorf, Austria",48.3443226,14.442712,,,,,,,Diplomat,"Engerwitzdorf, Austria",,upper_austria_locations,6dd9484626a7a6cce6634f65536b29ba,upper_austria_locations__6dd9484626a7a6cce6634f65536b29ba
enns,"Enns, Austria",48.2130899,14.4752222,,,,,,,Organization,"Enns, Austria",,upper_austria_locations,e87937d1651ad9b2640d3ad9800bddd8,upper_austria_locations__e87937d1651ad9b2640d3ad9800bddd8
entholz,"Entholz, Austria",48.42512,13.68177,,,,,,,CompanyKeyword,"Entholz, Austria",,upper_austria_locations,08a07c022691f0b9815905c6a56bd449,upper_austria_locations__08a07c022691f0b9815905c6a56bd449
enzendorf,"Enzendorf, Austria",47.30473,15.97192,,,,,,,News,"Enzendorf, Austria",,upper_austria_locations,6025b1de56943a7a7c6ca182f7e4829f,upper_austria_locations__6025b1de56943a7a7c6ca182f7e4829f
enzenkirchen,"Enzenkirchen, Austria",48.3884056,13.6432509,,,,,,,Diplomat,"Enzenkirchen, Austria",,upper_austria_locations,7ccd35e10927e195364f8d63e8f301ce,upper_austria_locations__7ccd35e10927e195364f8d63e8f301ce
enzing,"Enzing, Austria",48.33928,13.74669,,,,,,,DiplomaticFacilities,"Enzing, Austria",,upper_austria_locations,7fda07ac73ae1a0719dc4f633b1bafe9,upper_austria_locations__7fda07ac73ae1a0719dc4f633b1bafe9
erdmannsdorf,"Erdmannsdorf, Austria",48.44266,14.61069,,,,,,,ForeignMinistry,"Erdmannsdorf, Austria",,upper_austria_locations,f1a491a422bb4d1378faeddc8f94bd3a,upper_austria_locations__f1a491a422bb4d1378faeddc8f94bd3a
erlach,"Erlach, Austria",47.7272183,16.2144358,,,,,,,Wells,"Erlach, Austria",,upper_austria_locations,b034d62c33a0ec5f4f1ed72c888f674e,upper_austria_locations__b034d62c33a0ec5f4f1ed72c888f674e
ernsting,"Ernsting, Austria",48.05134,12.85298,,,,,,,ForeignMinistry,"Ernsting, Austria",,upper_austria_locations,f168beedb20368daae92d1568fbd1a88,upper_austria_locations__f168beedb20368daae92d1568fbd1a88
eschenau im hausruckkreis,"Eschenau im Hausruckkreis, Austria",48.3891202,13.8217718,,,,,,,IndustryTerm,"Eschenau im Hausruckkreis, Austria",,upper_austria_locations,e9c5204b867ddce62f8fb1df3b67285e,upper_austria_locations__e9c5204b867ddce62f8fb1df3b67285e
esternberg,"Esternberg, Austria",48.5437126,13.5720844,,,,,,,Legislator,"Esternberg, Austria",,upper_austria_locations,985f7822b94de6f0cddc4dffcdb8f146,upper_austria_locations__985f7822b94de6f0cddc4dffcdb8f146
ettenau,"Ettenau, Austria",48.0779613,12.7876663,,,,,,,Shipping,"Ettenau, Austria",,upper_austria_locations,8a9b123cce23902827d663eff91d5c2d,upper_austria_locations__8a9b123cce23902827d663eff91d5c2d
fading,"Fading, Austria",46.92895,15.38877,,,,,,,IndustryTerm,"Fading, Austria",,upper_austria_locations,3a2881e942ba3ea6fa03ad6621872bdf,upper_austria_locations__3a2881e942ba3ea6fa03ad6621872bdf
fahrenberg,"Fahrenberg, Austria",47.6961449,14.3757695,,,,,,,space,"Fahrenberg, Austria",,upper_austria_locations,a7312d31f3340da05bac7d4659b9e09c,upper_austria_locations__a7312d31f3340da05bac7d4659b9e09c
fallsbach,"Fallsbach, Austria",48.15019,13.93452,,,,,,,DiplomaticFacilities,"Fallsbach, Austria",,upper_austria_locations,2689b3f8523f1bb59e71710ad3cb0c34,upper_austria_locations__2689b3f8523f1bb59e71710ad3cb0c34
fantaberg,"Fantaberg, Austria",47.94531,13.62203,,,,,,,Media,"Fantaberg, Austria",,upper_austria_locations,27f26319d4e186dbfdd06cb6429ad4de,upper_austria_locations__27f26319d4e186dbfdd06cb6429ad4de
feichta,"Feichta, Austria",48.15071,13.26799,,,,,,,News,"Feichta, Austria",,upper_austria_locations,d107eaa203c51ff69a2091fbd837601e,upper_austria_locations__d107eaa203c51ff69a2091fbd837601e
feichtenberg,"Feichtenberg, Austria",47.95221,13.94035,,,,,,,Organization,"Feichtenberg, Austria",,upper_austria_locations,f32fbf634cb2ddf2806ec249405122e4,upper_austria_locations__f32fbf634cb2ddf2806ec249405122e4
feldegg,"Feldegg, Austria",48.23664,13.59536,,,,,,,ForeignMinistry,"Feldegg, Austria",,upper_austria_locations,4b055dc83731b5ccee27eba0dd2adfa4,upper_austria_locations__4b055dc83731b5ccee27eba0dd2adfa4
feldham,"Feldham, Austria",48.01236,13.91479,,,,,,,Pipeline,"Feldham, Austria",,upper_austria_locations,307e53be1c19fbb912188222866c6088,upper_austria_locations__307e53be1c19fbb912188222866c6088
feldkirchen an der donau,"Feldkirchen an der Donau, Austria",48.3442573,14.0522349,,,,,,,ForeignMinister,"Feldkirchen an der Donau, Austria",,upper_austria_locations,f771dd8adf40b59e62bb63fea38c7389,upper_austria_locations__f771dd8adf40b59e62bb63fea38c7389
feldkirchen bei mattighofen,"Feldkirchen bei Mattighofen, Austria",48.0690066,13.0451531,,,,,,,Keyphrase,"Feldkirchen bei Mattighofen, Austria",,upper_austria_locations,9eb0dd6d451a532c5f82c3b24f91ff48,upper_austria_locations__9eb0dd6d451a532c5f82c3b24f91ff48
feldsdorf,"Feldsdorf, Austria",48.40823,14.17394,,,,,,,ForeignMinister,"Feldsdorf, Austria",,upper_austria_locations,af7993176c24f080d50ba34adc424c66,upper_austria_locations__af7993176c24f080d50ba34adc424c66
felling,"Felling, Austria",48.4717,15.4231,,,,,,,Shipping,"Felling, Austria",,upper_austria_locations,2437db0a17dc63eb8dd23e243d21f452,upper_austria_locations__2437db0a17dc63eb8dd23e243d21f452
fernbach,"Fernbach, Austria",48.18342,14.37971,,,,,,,Person,"Fernbach, Austria",,upper_austria_locations,aa3a05bf735af99236fdaf771058cbb2,upper_austria_locations__aa3a05bf735af99236fdaf771058cbb2
feyregg,"Feyregg, Austria",48.0303553,14.1888531,,,,,,,Person,"Feyregg, Austria",,upper_austria_locations,46f666fccc744e8090a710faafa83743,upper_austria_locations__46f666fccc744e8090a710faafa83743
fierling,"Fierling, Austria",48.05153,14.1615599,,,,,,,Organization,"Fierling, Austria",,upper_austria_locations,e9b77625baa992fd237f5706c993d855,upper_austria_locations__e9b77625baa992fd237f5706c993d855
finklham,"Finklham, Austria",48.24711,13.9779,,,,,,,Shipping,"Finklham, Austria",,upper_austria_locations,d1c083b573556e574bff2a37ff44e07c,upper_austria_locations__d1c083b573556e574bff2a37ff44e07c
fischen,"Fischen, Austria",48.1185,14.20095,,,,,,,AAEntity,"Fischen, Austria",,upper_austria_locations,f64084ec4004d3c4b667f6825e8baa2d,upper_austria_locations__f64084ec4004d3c4b667f6825e8baa2d
fischlham,"Fischlham, Austria",48.0868782,13.9470221,,,,,,,Legislator,"Fischlham, Austria",,upper_austria_locations,8551b90ac7ab5698276946f94041d502,upper_austria_locations__8551b90ac7ab5698276946f94041d502
fleckendorf,"Fleckendorf, Austria",48.19522,14.30193,,,,,,,Organization,"Fleckendorf, Austria",,upper_austria_locations,e3087d63b8f88a6d995757c10e80346d,upper_austria_locations__e3087d63b8f88a6d995757c10e80346d
fohrenschacherl,"Fohrenschacherl, Austria",47.516231,14.550072,,,,,,,Consulates,"Fohrenschacherl, Austria",,upper_austria_locations,2d0e11e459299c215e5b27167eb06a41,upper_austria_locations__2d0e11e459299c215e5b27167eb06a41
forchtenau,"Forchtenau, Austria",48.26591,13.45144,,,,,,,CompanyKeyword,"Forchtenau, Austria",,upper_austria_locations,a7cb7bd886c33499a7820bd9a1b02490,upper_austria_locations__a7cb7bd886c33499a7820bd9a1b02490
fornach,"Fornach, Austria",48.0228898,13.4282671,,,,,,,Legislator,"Fornach, Austria",,upper_austria_locations,5451c8819f1fab1c49154d11c33221e1,upper_austria_locations__5451c8819f1fab1c49154d11c33221e1
forstau,"Forstau, Austria",47.3786305,13.5514146,,,,,,,Exec,"Forstau, Austria",,upper_austria_locations,8a63fcb15e77bc35e588803950fd6303,upper_austria_locations__8a63fcb15e77bc35e588803950fd6303
forstberg,"Forstberg, Austria",48.10857,13.97028,,,,,,,Pipeline,"Forstberg, Austria",,upper_austria_locations,5791fc61b8f1c645c32cf263794fea73,upper_austria_locations__5791fc61b8f1c645c32cf263794fea73
forstern,"Forstern, Austria",48.01099,13.34127,,,,,,,DiplomaticFacilities,"Forstern, Austria",,upper_austria_locations,4f99dea192387182f5657a4557504d58,upper_austria_locations__4f99dea192387182f5657a4557504d58
forsthof,"Forsthof, Austria",48.10374,15.91137,,,,,,,space,"Forsthof, Austria",,upper_austria_locations,4f6bde9d2e5890f034b22b9488ec717d,upper_austria_locations__4f6bde9d2e5890f034b22b9488ec717d
fraham,"Fraham, Austria",48.2835001,14.0314958,,,,,,,AAEntity,"Fraham, Austria",,upper_austria_locations,a6b5d4ce3983a83917c377059b89aaef,upper_austria_locations__a6b5d4ce3983a83917c377059b89aaef
frankenburg am hausruck,"Frankenburg am Hausruck, Austria",48.0675753,13.4909289,,,,,,,AAEntity,"Frankenburg am Hausruck, Austria",,upper_austria_locations,1bf549dfcc4c36d2842e10de0a9990d0,upper_austria_locations__1bf549dfcc4c36d2842e10de0a9990d0
frankenmarkt,"Frankenmarkt, Austria",47.9857697,13.4224,,,,,,,Media,"Frankenmarkt, Austria",,upper_austria_locations,11541d84dd9149f5ccbcb09dc5780dff,upper_austria_locations__11541d84dd9149f5ccbcb09dc5780dff
franking,"Franking, Austria",48.0525407,12.9120364,,,,,,,Refinery,"Franking, Austria",,upper_austria_locations,8068c1c7aa0fda125fe54f1c8af0c469,upper_austria_locations__8068c1c7aa0fda125fe54f1c8af0c469
frauenhub,"Frauenhub, Austria",48.29433,13.72239,,,,,,,DiplomaticFacilities,"Frauenhub, Austria",,upper_austria_locations,be1813c0794f688cd10419a79ac33ec7,upper_austria_locations__be1813c0794f688cd10419a79ac33ec7
fraunhof,"Fraunhof, Austria",48.4563173,13.7538917,,,,,,,Refinery,"Fraunhof, Austria",,upper_austria_locations,c5cba496bb96b61c9bf8a60d1712e542,upper_austria_locations__c5cba496bb96b61c9bf8a60d1712e542
freiling,"Freiling, Austria",48.145489,14.2574229,,,,,,,News,"Freiling, Austria",,upper_austria_locations,aeb7a4e436616167ff252191e25a809a,upper_austria_locations__aeb7a4e436616167ff252191e25a809a
frein,"Frein, Austria",47.74018,15.48402,,,,,,,AAEntity,"Frein, Austria",,upper_austria_locations,7f483ad069599322a61907c23bb58f4b,upper_austria_locations__7f483ad069599322a61907c23bb58f4b
freinberg,"Freinberg, Austria",48.5662199,13.5142435,,,,,,,DiplomaticFacilities,"Freinberg, Austria",,upper_austria_locations,eea2136208dfe28426e159c34fbd815a,upper_austria_locations__eea2136208dfe28426e159c34fbd815a
freistadt,"Freistadt, Austria",48.50217,14.50201,,,,,,,Pipeline,"Freistadt, Austria",,upper_austria_locations,6ac1894274846f4621572f210c47900a,upper_austria_locations__6ac1894274846f4621572f210c47900a
freudenstein,"Freudenstein, Austria",48.3515,14.0952101,,,,,,,LegislativeCommittee,"Freudenstein, Austria",,upper_austria_locations,ed5e11ec1ee40f2300211be397777fec,upper_austria_locations__ed5e11ec1ee40f2300211be397777fec
freudenthal,"Freudenthal, Austria",47.93528,13.39695,,,,,,,Shipping,"Freudenthal, Austria",,upper_austria_locations,d113b73396554c44257ea8065265836f,upper_austria_locations__d113b73396554c44257ea8065265836f
freundorf,"Freundorf, Austria",48.28305,16.04954,,,,,,,Wells,"Freundorf, Austria",,upper_austria_locations,e1bc188dafc5d20d37d4448b3f033b67,upper_austria_locations__e1bc188dafc5d20d37d4448b3f033b67
friedburg,"Friedburg, Austria",48.01889,13.24689,,,,,,,Consulates,"Friedburg, Austria",,upper_austria_locations,d2ae96f5da6c707c875add4a853c241d,upper_austria_locations__d2ae96f5da6c707c875add4a853c241d
frindorf,"Frindorf, Austria",46.7362831,13.6265947,,,,,,,Exec,"Frindorf, Austria",,upper_austria_locations,e08062266d02a0e4cd7974318d568901,upper_austria_locations__e08062266d02a0e4cd7974318d568901
fucking,"Fucking, Austria",48.0673299,12.8633177,,,,,,,DiplomaticFacilities,"Fucking, Austria",,upper_austria_locations,30c2282c7e26a4357b7a07cd5c4ec88e,upper_austria_locations__30c2282c7e26a4357b7a07cd5c4ec88e
furneredt,"Furneredt, Austria",48.2573,13.89693,,,,,,,Wells,"Furneredt, Austria",,upper_austria_locations,f6d28bb614244ee70d427972c9ed2ac2,upper_austria_locations__f6d28bb614244ee70d427972c9ed2ac2
furth,"Furth, Austria",48.3738828,15.6137434,,,,,,,Wells,"Furth, Austria",,upper_austria_locations,782d2872ba6247d79ff80e85dfedaaff,upper_austria_locations__782d2872ba6247d79ff80e85dfedaaff
gaflenz,"Gaflenz, Austria",47.8958649,14.7248832,,,,,,,space,"Gaflenz, Austria",,upper_austria_locations,a1b3d73432b73f1662a2bec01dd96fa9,upper_austria_locations__a1b3d73432b73f1662a2bec01dd96fa9
gaisbach,"Gaisbach, Austria",48.2955,13.50859,,,,,,,Diplomat,"Gaisbach, Austria",,upper_austria_locations,849d10c624c21b5a850aff688fef5ceb,upper_austria_locations__849d10c624c21b5a850aff688fef5ceb
gallham,"Gallham, Austria",48.30483,13.8833502,,,,,,,Person,"Gallham, Austria",,upper_austria_locations,36d83d34eec28d8a4a365a184ea329f5,upper_austria_locations__36d83d34eec28d8a4a365a184ea329f5
gallneukirchen,"Gallneukirchen, Austria",48.3534028,14.4172757,,,,,,,Keyphrase,"Gallneukirchen, Austria",,upper_austria_locations,c972ceb664fc76f761e1108bf6ddec36,upper_austria_locations__c972ceb664fc76f761e1108bf6ddec36
gallspach,"Gallspach, Austria",48.2104124,13.8088545,,,,,,,IndustryTerm,"Gallspach, Austria",,upper_austria_locations,fe7385f487fd2158f3a04c4574d50a91,upper_austria_locations__fe7385f487fd2158f3a04c4574d50a91
gampern,"Gampern, Austria",47.989075,13.5537568,,,,,,,CompanyKeyword,"Gampern, Austria",,upper_austria_locations,b3f2db450c97eb84ac52cc52bfef1ff2,upper_austria_locations__b3f2db450c97eb84ac52cc52bfef1ff2
garsten,"Garsten, Austria",48.0230339,14.4043849,,,,,,,IndustryTerm,"Garsten, Austria",,upper_austria_locations,79dfef8a4b09ae64c5c9e25016db0748,upper_austria_locations__79dfef8a4b09ae64c5c9e25016db0748
gaspoltshofen,"Gaspoltshofen, Austria",48.142982,13.7360707,,,,,,,ForeignMinister,"Gaspoltshofen, Austria",,upper_austria_locations,1f7d1f8e967ca2df9b1eceb6685117ba,upper_austria_locations__1f7d1f8e967ca2df9b1eceb6685117ba
gassen,"Gassen, Austria",46.7285,13.78482,,,,,,,Organization,"Gassen, Austria",,upper_austria_locations,31bc49457bf69d02ebca3d771f94079f,upper_austria_locations__31bc49457bf69d02ebca3d771f94079f
gattern,"Gattern, Austria",48.54347,13.48113,,,,,,,Refinery,"Gattern, Austria",,upper_austria_locations,21695e1b755e629e09af090a82c05f15,upper_austria_locations__21695e1b755e629e09af090a82c05f15
gautzham,"Gautzham, Austria",48.35293,13.67486,,,,,,,AAEntity,"Gautzham, Austria",,upper_austria_locations,8d6d6c3fdb1968b8632c013104539a38,upper_austria_locations__8d6d6c3fdb1968b8632c013104539a38
geboltskirchen,"Geboltskirchen, Austria",48.1531701,13.6340032,,,,,,,Organization,"Geboltskirchen, Austria",,upper_austria_locations,6171147f0082e0075b1018f4bc016736,upper_austria_locations__6171147f0082e0075b1018f4bc016736
geiersberg,"Geiersberg, Austria",48.1996995,13.5810509,,,,,,,Keyphrase,"Geiersberg, Austria",,upper_austria_locations,2aaa7c03183ca4047a4db64d71b96dfb,upper_austria_locations__2aaa7c03183ca4047a4db64d71b96dfb
geinberg,"Geinberg, Austria",48.2645096,13.2936296,,,,,,,ForeignMinistry,"Geinberg, Austria",,upper_austria_locations,d12054d45a7e10aae8c5113726e9f257,upper_austria_locations__d12054d45a7e10aae8c5113726e9f257
geiselham,"Geiselham, Austria",48.3394,13.71471,,,,,,,LegislativeCommittee,"Geiselham, Austria",,upper_austria_locations,748b03335d6a0c5415cbea2fcb26c6a2,upper_austria_locations__748b03335d6a0c5415cbea2fcb26c6a2
gemering,"Gemering, Austria",48.22048,14.37335,,,,,,,Pipeline,"Gemering, Austria",,upper_austria_locations,51b9bfc5b73d1a6e35316a38e235fd00,upper_austria_locations__51b9bfc5b73d1a6e35316a38e235fd00
geretsberg,"Geretsberg, Austria",48.0893163,12.9368369,,,,,,,LegislativeCommittee,"Geretsberg, Austria",,upper_austria_locations,2a4b2234f30e3b11cf87f952d494f48a,upper_austria_locations__2a4b2234f30e3b11cf87f952d494f48a
geretseck,"Geretseck, Austria",48.01537,13.31962,,,,,,,News,"Geretseck, Austria",,upper_austria_locations,b06f54f16fac85e794d57baa8d38a214,upper_austria_locations__b06f54f16fac85e794d57baa8d38a214
gerhagen,"Gerhagen, Austria",48.32522,13.53572,,,,,,,News,"Gerhagen, Austria",,upper_austria_locations,8a16038562631bb92f618854e868392c,upper_austria_locations__8a16038562631bb92f618854e868392c
gilgenberg,"Gilgenberg, Austria",48.1301639,12.9395718,,,,,,,CompanyKeyword,"Gilgenberg, Austria",,upper_austria_locations,ec4a120c36fc8a0d2e5fe6fc04538edf,upper_austria_locations__ec4a120c36fc8a0d2e5fe6fc04538edf
gilgenberg am weilhart,"Gilgenberg am Weilhart, Austria",48.1301639,12.9395718,,,,,,,AAEntity,"Gilgenberg am Weilhart, Austria",,upper_austria_locations,248776a52a97037ac2ec0336cd783596,upper_austria_locations__248776a52a97037ac2ec0336cd783596
ginzlsdorf,"Ginzlsdorf, Austria",48.1969144,16.5533905,,,,,,,Person,"Ginzlsdorf, Austria",,upper_austria_locations,f7e573d731bcf49d984af0ad07f0892c,upper_austria_locations__f7e573d731bcf49d984af0ad07f0892c
gitthof,"Gitthof, Austria",48.12899,13.41016,,,,,,,CompanyKeyword,"Gitthof, Austria",,upper_austria_locations,326060229f9732a62824d546dde44ac3,upper_austria_locations__326060229f9732a62824d546dde44ac3
glatzing,"Glatzing, Austria",48.0652,13.81185,,,,,,,space,"Glatzing, Austria",,upper_austria_locations,a61f3da2ed2ad35b7f2191788dee796c,upper_austria_locations__a61f3da2ed2ad35b7f2191788dee796c
gleink,"Gleink, Austria",48.0676356,14.4140837,,,,,,,Media,"Gleink, Austria",,upper_austria_locations,82807b8b44d77522745152d7f72d6333,upper_austria_locations__82807b8b44d77522745152d7f72d6333
gleinkerau,"Gleinkerau, Austria",47.71006,14.31224,,,,,,,News,"Gleinkerau, Austria",,upper_austria_locations,5f5d6e4faf16471fa41cd8ec52236365,upper_austria_locations__5f5d6e4faf16471fa41cd8ec52236365
gmunden,"Gmunden, Austria",47.91839,13.79933,,,,,,,FTO,"Gmunden, Austria",,upper_austria_locations,178840057449da1231f6886f2861a6f5,upper_austria_locations__178840057449da1231f6886f2861a6f5
gmundnerberg,"Gmundnerberg, Austria",47.90824,13.72774,,,,,,,Pipeline,"Gmundnerberg, Austria",,upper_austria_locations,b47072959641348a166f3a0aec8b299d,upper_austria_locations__b47072959641348a166f3a0aec8b299d
gobrechtsham,"Gobrechtsham, Austria",48.19279,13.45413,,,,,,,Shipping,"Gobrechtsham, Austria",,upper_austria_locations,b6041cc7ff57a1f0fc75f1f8d5fb8b95,upper_austria_locations__b6041cc7ff57a1f0fc75f1f8d5fb8b95
goisern,"Goisern, Austria",47.64512583,13.61523479,,,,,,,FTO,"Goisern, Austria",,upper_austria_locations,7859aec2cb7aec3f280f08313b9e74f3,upper_austria_locations__7859aec2cb7aec3f280f08313b9e74f3
goldworth,"Goldworth, Austria",47.6462201,13.6158884,,,,,,,ForeignMinistry,"Goldworth, Austria",,upper_austria_locations,c57725aa452f7d0a3909a6b4cc544216,upper_austria_locations__c57725aa452f7d0a3909a6b4cc544216
gonetsreith,"Gonetsreith, Austria",48.3264625,14.1003927,,,,,,,Media,"Gonetsreith, Austria",,upper_austria_locations,4f54b88d5e3dad20d8433f309cc32fa1,upper_austria_locations__4f54b88d5e3dad20d8433f309cc32fa1
goritz,"Goritz, Austria",46.751595,15.8290064,,,,,,,Diplomat,"Goritz, Austria",,upper_austria_locations,0b6044b088bdcb3a1635d8e40452d063,upper_austria_locations__0b6044b088bdcb3a1635d8e40452d063
gosau,"Gosau, Austria",47.5841313,13.5308669,,,,,,,Media,"Gosau, Austria",,upper_austria_locations,84d4ff9f2c60b33f0580e1ce6bf2a652,upper_austria_locations__84d4ff9f2c60b33f0580e1ce6bf2a652
gotzendorf,"Gotzendorf, Austria",48.0155526,16.5813731,,,,,,,Legislator,"Gotzendorf, Austria",,upper_austria_locations,dc835562ae18fc373cb50c18ac27e28c,upper_austria_locations__dc835562ae18fc373cb50c18ac27e28c
gramastetten,"Gramastetten, Austria",48.3799442,14.1926989,,,,,,,ForeignMinistry,"Gramastetten, Austria",,upper_austria_locations,bf12761471c7101a1a22c5b2dc0b7ddc,upper_austria_locations__bf12761471c7101a1a22c5b2dc0b7ddc
grasberg,"Grasberg, Austria",47.88347,13.73367,,,,,,,IndustryTerm,"Grasberg, Austria",,upper_austria_locations,fc6d2af8aab38662b89ffec37bf5cb3b,upper_austria_locations__fc6d2af8aab38662b89ffec37bf5cb3b
grassing,"Grassing, Austria",48.1469423,14.1415037,,,,,,,Exec,"Grassing, Austria",,upper_austria_locations,78b1ed133c148e96e1e4b914e2ddab35,upper_austria_locations__78b1ed133c148e96e1e4b914e2ddab35
grausgrub,"Grausgrub, Austria",48.1973,13.5894999,,,,,,,Pipeline,"Grausgrub, Austria",,upper_austria_locations,3e4f929055391eea3cd0c9abe4823eee,upper_austria_locations__3e4f929055391eea3cd0c9abe4823eee
greiffing,"Greiffing, Austria",46.700296,14.7301073,,,,,,,LegislativeCommittee,"Greiffing, Austria",,upper_austria_locations,e85585c95612d4ae95a742f55fd52fcc,upper_austria_locations__e85585c95612d4ae95a742f55fd52fcc
grein,"Grein, Austria",48.2282185,14.8601933,,,,,,,Pipeline,"Grein, Austria",,upper_austria_locations,10fa9ee52fdeeaed96eb7c89448e1746,upper_austria_locations__10fa9ee52fdeeaed96eb7c89448e1746
gries,"Gries, Austria",47.0395,11.4787044,,,,,,,Keyphrase,"Gries, Austria",,upper_austria_locations,55aff5e393f6a44e5acdb95cb98dd7fc,upper_austria_locations__55aff5e393f6a44e5acdb95cb98dd7fc
grieskirchen,"Grieskirchen, Austria",48.23587,13.82617,,,,,,,Refinery,"Grieskirchen, Austria",,upper_austria_locations,27211c1a56d6fc6d8f5bec807b1bd0ef,upper_austria_locations__27211c1a56d6fc6d8f5bec807b1bd0ef
grosskrottendorf,"Grosskrottendorf, Austria",48.154052,13.8735179,,,,,,,ForeignMinistry,"Grosskrottendorf, Austria",,upper_austria_locations,0edf6b8b79ea7080ce2d5e8d80e9c3b7,upper_austria_locations__0edf6b8b79ea7080ce2d5e8d80e9c3b7
grossmengersdorf,"Grossmengersdorf, Austria",48.0424624,14.2517849,,,,,,,ForeignMinister,"Grossmengersdorf, Austria",,upper_austria_locations,97903961763e9f65867a47be1e474473,upper_austria_locations__97903961763e9f65867a47be1e474473
grossraming,"Grossraming, Austria",47.884371,14.5487311,,,,,,,Legislator,"Grossraming, Austria",,upper_austria_locations,71b0266c4993b9e42a44b0a91525429e,upper_austria_locations__71b0266c4993b9e42a44b0a91525429e
grossstroheim,"Grossstroheim, Austria",48.32156,13.96664,,,,,,,Refinery,"Grossstroheim, Austria",,upper_austria_locations,ea71ab9fee25bc79f1601d8fbbf941b5,upper_austria_locations__ea71ab9fee25bc79f1601d8fbbf941b5
grosswaging,"Grosswaging, Austria",48.43979,13.56838,,,,,,,Shipping,"Grosswaging, Austria",,upper_austria_locations,87e768fb84a8d1f267a04cffb46c2d61,upper_austria_locations__87e768fb84a8d1f267a04cffb46c2d61
grosswaldenberg,"Grosswaldenberg, Austria",48.21337,13.66162,,,,,,,Organization,"Grosswaldenberg, Austria",,upper_austria_locations,89e6f349380b8af5295b9b460faa7612,upper_austria_locations__89e6f349380b8af5295b9b460faa7612
grossweiffendorf,"Grossweiffendorf, Austria",48.1496609,13.3460937,,,,,,,FTO,"Grossweiffendorf, Austria",,upper_austria_locations,7b8f53b0b169dd0b02889e5c3895a9c3,upper_austria_locations__7b8f53b0b169dd0b02889e5c3895a9c3
grub,"Grub, Austria",47.2411275,15.6844588,,,,,,,AAEntity,"Grub, Austria",,upper_austria_locations,91d73cc0af7d911d73307372a720515e,upper_austria_locations__91d73cc0af7d911d73307372a720515e
grubedt,"Grubedt, Austria",48.20213,13.16118,,,,,,,LegislativeCommittee,"Grubedt, Austria",,upper_austria_locations,400945d1dd3f52de04d2e133b1288bfd,upper_austria_locations__400945d1dd3f52de04d2e133b1288bfd
grunau im almtal,"Grunau im Almtal, Austria",47.8532661,13.9562437,,,,,,,LegislativeCommittee,"Grunau im Almtal, Austria",,upper_austria_locations,d3f69be0c8a4149ed1b8953e30c100da,upper_austria_locations__d3f69be0c8a4149ed1b8953e30c100da
grunbach,"Grunbach, Austria",48.5380494,14.5351337,,,,,,,News,"Grunbach, Austria",,upper_austria_locations,bdccc06af33e6603865e407bbd8d8b66,upper_austria_locations__bdccc06af33e6603865e407bbd8d8b66
grunberg,"Grunberg, Austria",47.8986788,13.8183653,,,,,,,Exec,"Grunberg, Austria",,upper_austria_locations,bdace37191e5499f04c4e7d317ddee68,upper_austria_locations__bdace37191e5499f04c4e7d317ddee68
grunbrunn,"Grunbrunn, Austria",48.16556,14.36302,,,,,,,Diplomat,"Grunbrunn, Austria",,upper_austria_locations,7d510a534e3917290e7d8f37141196c1,upper_austria_locations__7d510a534e3917290e7d8f37141196c1
grunburg,"Grunburg, Austria",47.9703549,14.2625874,,,,,,,Consulates,"Grunburg, Austria",,upper_austria_locations,49cb285392c5ff5bc558aa4c3186c9fc,upper_austria_locations__49cb285392c5ff5bc558aa4c3186c9fc
grundberg,"Grundberg, Austria",47.99783,13.49483,,,,,,,Refinery,"Grundberg, Austria",,upper_austria_locations,1c828ad7f9383136a75878617e982ac6,upper_austria_locations__1c828ad7f9383136a75878617e982ac6
gschwandt,"Gschwandt, Austria",47.936357,13.8469341,,,,,,,Exec,"Gschwandt, Austria",,upper_austria_locations,6f9fbab6c2cf610731da6705895b1bf1,upper_austria_locations__6f9fbab6c2cf610731da6705895b1bf1
gschwendt,"Gschwendt, Austria",47.72139,13.42634,,,,,,,Person,"Gschwendt, Austria",,upper_austria_locations,ce7e1694a38796a8194b32c3eb6834a1,upper_austria_locations__ce7e1694a38796a8194b32c3eb6834a1
gstaig,"Gstaig, Austria",48.0509401,13.0444701,,,,,,,Diplomat,"Gstaig, Austria",,upper_austria_locations,0ebda699e94e602dd4bdb0ce38316076,upper_austria_locations__0ebda699e94e602dd4bdb0ce38316076
gundendorf,"Gundendorf, Austria",48.00016,14.01489,,,,,,,Exec,"Gundendorf, Austria",,upper_austria_locations,65ba9908ca40d94cd1bd9150bc2f8fa5,upper_austria_locations__65ba9908ca40d94cd1bd9150bc2f8fa5
gundertshausen,"Gundertshausen, Austria",48.09246,12.99243,,,,,,,space,"Gundertshausen, Austria",,upper_austria_locations,72554985cc7e7b397857e093af8a1567,upper_austria_locations__72554985cc7e7b397857e093af8a1567
gundholling,"Gundholling, Austria",48.26813,13.1981,,,,,,,space,"Gundholling, Austria",,upper_austria_locations,ce2087fe610cd4eb798cad3bba36ba8a,upper_austria_locations__ce2087fe610cd4eb798cad3bba36ba8a
gunskirchen,"Gunskirchen, Austria",48.1335856,13.9529613,,,,,,,Person,"Gunskirchen, Austria",,upper_austria_locations,83df5171e9d12ce6d5fc58724b5e370f,upper_austria_locations__83df5171e9d12ce6d5fc58724b5e370f
gunzing,"Gunzing, Austria",47.99537,13.18809,,,,,,,AAEntity,"Gunzing, Austria",,upper_austria_locations,95c686e5faf52a1e186cae47f3a540e9,upper_austria_locations__95c686e5faf52a1e186cae47f3a540e9
gurten,"Gurten, Austria",48.2410235,13.3441546,,,,,,,AAEntity,"Gurten, Austria",,upper_austria_locations,0cbd3eeac6fb2b7e3dd53526d47e04ba,upper_austria_locations__0cbd3eeac6fb2b7e3dd53526d47e04ba
gutau,"Gutau, Austria",48.41704,14.6131766,,,,,,,CompanyKeyword,"Gutau, Austria",,upper_austria_locations,94f10e44c6b9b0a31828d174c375a43d,upper_austria_locations__94f10e44c6b9b0a31828d174c375a43d
guttenbrunn,"Guttenbrunn, Austria",48.5098388,14.4030112,,,,,,,News,"Guttenbrunn, Austria",,upper_austria_locations,4cfb00b0384b8b758b85592d1a820e51,upper_austria_locations__4cfb00b0384b8b758b85592d1a820e51
haag am hausruck,"Haag am Hausruck, Austria",48.1850529,13.6413273,,,,,,,Legislator,"Haag am Hausruck, Austria",,upper_austria_locations,407a412c5d0450a2bfe60a70d270dad7,upper_austria_locations__407a412c5d0450a2bfe60a70d270dad7
haberpoint,"Haberpoint, Austria",47.9972,13.31517,,,,,,,Shipping,"Haberpoint, Austria",,upper_austria_locations,f011acefa29ca76cab347b6c986940fc,upper_austria_locations__f011acefa29ca76cab347b6c986940fc
hackenbuch,"Hackenbuch, Austria",48.38717,13.47232,,,,,,,Organization,"Hackenbuch, Austria",,upper_austria_locations,968ef5f8e01c5c0cc04a56d6d63ebf46,upper_austria_locations__968ef5f8e01c5c0cc04a56d6d63ebf46
hackendorf,"Hackendorf, Austria",48.46798,13.70614,,,,,,,IndustryTerm,"Hackendorf, Austria",,upper_austria_locations,45361df8ddefe12f0bd87c7ffb3f9342,upper_austria_locations__45361df8ddefe12f0bd87c7ffb3f9342
hacklbrunn,"Hacklbrunn, Austria",48.5845,14.63489,,,,,,,Shipping,"Hacklbrunn, Austria",,upper_austria_locations,5fef80f27c6b5b7d1f2f9018fbe74471,upper_austria_locations__5fef80f27c6b5b7d1f2f9018fbe74471
hadermarkt,"Hadermarkt, Austria",48.09111,12.77197,,,,,,,Diplomat,"Hadermarkt, Austria",,upper_austria_locations,10336eca7a3b1d074367221e4b786bf0,upper_austria_locations__10336eca7a3b1d074367221e4b786bf0
hafendorf,"Hafendorf, Austria",47.4522195,15.3104102,,,,,,,Wells,"Hafendorf, Austria",,upper_austria_locations,d3cbb77a9a0a1be92e0f0f952696155a,upper_austria_locations__d3cbb77a9a0a1be92e0f0f952696155a
hagenau,"Hagenau, Austria",48.27277,13.10155,,,,,,,Consulates,"Hagenau, Austria",,upper_austria_locations,4aac9392e987556f5d77cab103109303,upper_austria_locations__4aac9392e987556f5d77cab103109303
hagenberg im muhlkreis,"Hagenberg im Muhlkreis, Austria",48.3669367,14.5172741,,,,,,,Wells,"Hagenberg im Muhlkreis, Austria",,upper_austria_locations,aced9ed44cff4ee441ab2dd70e22d958,upper_austria_locations__aced9ed44cff4ee441ab2dd70e22d958
haibach,"Haibach, Austria",48.4111756,13.916294,,,,,,,Pipeline,"Haibach, Austria",,upper_austria_locations,14cf26ca37bbf20307d96310dfa04329,upper_austria_locations__14cf26ca37bbf20307d96310dfa04329
haibach im muhlkreis,"Haibach im Muhlkreis, Austria",48.4442409,14.3450169,,,,,,,Diplomat,"Haibach im Muhlkreis, Austria",,upper_austria_locations,313e9f3063d6863605eccff507914711,upper_austria_locations__313e9f3063d6863605eccff507914711
haibach ob der donau,"Haibach ob der Donau, Austria",48.4111756,13.916294,,,,,,,ForeignMinistry,"Haibach ob der Donau, Austria",,upper_austria_locations,8547a846ac2abbb40d267af3ee3ab1cb,upper_austria_locations__8547a846ac2abbb40d267af3ee3ab1cb
haid,"Haid, Austria",48.20782,14.24595,,,,,,,Wells,"Haid, Austria",,upper_austria_locations,14613687be3827d056b490b294c02f29,upper_austria_locations__14613687be3827d056b490b294c02f29
haiden,"Haiden, Austria",46.74143,14.1006,,,,,,,Consulates,"Haiden, Austria",,upper_austria_locations,f4256fb3975e0361dcb59344ed327f6c,upper_austria_locations__f4256fb3975e0361dcb59344ed327f6c
haiding,"Haiding, Austria",47.2558132,10.8831411,,,,,,,Organization,"Haiding, Austria",,upper_austria_locations,916f25aa952baba2e0d2b2568db887cb,upper_austria_locations__916f25aa952baba2e0d2b2568db887cb
haigermoos,"Haigermoos, Austria",48.0443673,12.8808994,,,,,,,space,"Haigermoos, Austria",,upper_austria_locations,25d28a35802ccfb70134945a93e0d59e,upper_austria_locations__25d28a35802ccfb70134945a93e0d59e
haimhausen,"Haimhausen, Austria",48.3128967,11.545927,,,,,,,Shipping,"Haimhausen, Austria",,upper_austria_locations,b38856f60b24d011346aeda9a4a31049,upper_austria_locations__b38856f60b24d011346aeda9a4a31049
hainbach,"Hainbach, Austria",47.97065,12.9854001,,,,,,,ForeignMinistry,"Hainbach, Austria",,upper_austria_locations,8289ed2db65f5aea677d0b79d0bf8d7b,upper_austria_locations__8289ed2db65f5aea677d0b79d0bf8d7b
hallstatt,"Hallstatt, Austria",47.5622342,13.6492617,,,,,,,AAEntity,"Hallstatt, Austria",,upper_austria_locations,c9d3e0d9988ec06865ceec8f4004d0e5,upper_austria_locations__c9d3e0d9988ec06865ceec8f4004d0e5
hammersdorf,"Hammersdorf, Austria",47.95978,14.05901,,,,,,,Legislator,"Hammersdorf, Austria",,upper_austria_locations,d06f5fd60c7bfb26c7eb693e142617e4,upper_austria_locations__d06f5fd60c7bfb26c7eb693e142617e4
hammersedt,"Hammersedt, Austria",48.08137,14.0164499,,,,,,,CompanyKeyword,"Hammersedt, Austria",,upper_austria_locations,2052e950bbec4d3df74ded703fbeea55,upper_austria_locations__2052e950bbec4d3df74ded703fbeea55
handenberg,"Handenberg, Austria",48.1338227,13.0059521,,,,,,,Wells,"Handenberg, Austria",,upper_austria_locations,b763cdb0195847700b185b76e8067a6e,upper_austria_locations__b763cdb0195847700b185b76e8067a6e
hargelsberg,"Hargelsberg, Austria",48.1490102,14.4288543,,,,,,,Diplomat,"Hargelsberg, Austria",,upper_austria_locations,ece1aa99b1dc970965a8001873fea8ae,upper_austria_locations__ece1aa99b1dc970965a8001873fea8ae
harmannsdorf,"Harmannsdorf, Austria",48.3933533,16.3706334,,,,,,,Legislator,"Harmannsdorf, Austria",,upper_austria_locations,290afb2dac266007645e78983755699e,upper_austria_locations__290afb2dac266007645e78983755699e
harrachstal,"Harrachstal, Austria",48.47713,14.7263,,,,,,,ForeignMinistry,"Harrachstal, Austria",,upper_austria_locations,126e4cfd665053a391a157b79c8e7c9b,upper_austria_locations__126e4cfd665053a391a157b79c8e7c9b
hart,"Hart, Austria",46.6639773,14.928837,,,,,,,Exec,"Hart, Austria",,upper_austria_locations,69b624f745780c5932b8573d634cee91,upper_austria_locations__69b624f745780c5932b8573d634cee91
hartberg,"Hartberg, Austria",47.2815,15.97302,,,,,,,Exec,"Hartberg, Austria",,upper_austria_locations,c244726c4505ae1a7f31140a99343363,upper_austria_locations__c244726c4505ae1a7f31140a99343363
harterleithen,"Harterleithen, Austria",48.42577,14.56268,,,,,,,Person,"Harterleithen, Austria",,upper_austria_locations,897bf1d869ae185297e0d546e23429cc,upper_austria_locations__897bf1d869ae185297e0d546e23429cc
hartheim,"Hartheim, Austria",48.28088,14.11459,,,,,,,FTO,"Hartheim, Austria",,upper_austria_locations,db6c84422197dfb41a784ed1e60d3793,upper_austria_locations__db6c84422197dfb41a784ed1e60d3793
hartkirchen,"Hartkirchen, Austria",48.3613016,14.0062032,,,,,,,Diplomat,"Hartkirchen, Austria",,upper_austria_locations,293ff357fd10b835807d67e3179d45c7,upper_austria_locations__293ff357fd10b835807d67e3179d45c7
hartlberg,"Hartlberg, Austria",48.11542,13.4141,,,,,,,Exec,"Hartlberg, Austria",,upper_austria_locations,fe01a114a1f0806d595b4abcd4b67064,upper_austria_locations__fe01a114a1f0806d595b4abcd4b67064
hartlhof,"Hartlhof, Austria",48.12312,13.49575,,,,,,,Pipeline,"Hartlhof, Austria",,upper_austria_locations,a4fa06bc3a37793080f89258fa7fa494,upper_austria_locations__a4fa06bc3a37793080f89258fa7fa494
haselbach,"Haselbach, Austria",48.2533727,13.0561557,,,,,,,ForeignMinistry,"Haselbach, Austria",,upper_austria_locations,94fbf1d2978729a52e0e03481b3d98b4,upper_austria_locations__94fbf1d2978729a52e0e03481b3d98b4
haselreith,"Haselreith, Austria",48.10358,13.01307,,,,,,,Exec,"Haselreith, Austria",,upper_austria_locations,628dcdc579948da7d0db0d60a92fca13,upper_austria_locations__628dcdc579948da7d0db0d60a92fca13
hasenzagl,"Hasenzagl, Austria",48.2830367,15.695581,,,,,,,Exec,"Hasenzagl, Austria",,upper_austria_locations,d1dc6ca7f559aa910aef0b2aaf3d6ce2,upper_austria_locations__d1dc6ca7f559aa910aef0b2aaf3d6ce2
haslach an der muhl,"Haslach an der Muhl, Austria",48.5790683,14.0396111,,,,,,,Organization,"Haslach an der Muhl, Austria",,upper_austria_locations,cd1987cd9d65da6032a04a01537acbf8,upper_austria_locations__cd1987cd9d65da6032a04a01537acbf8
haus,"Haus, Austria",47.4108556,13.7730166,,,,,,,DiplomaticFacilities,"Haus, Austria",,upper_austria_locations,02809b962b1c7ee8e863f9c1cfd3ef0f,upper_austria_locations__02809b962b1c7ee8e863f9c1cfd3ef0f
hehenberg,"Hehenberg, Austria",48.0521,14.20046,,,,,,,FTO,"Hehenberg, Austria",,upper_austria_locations,7cf01011c6a91340a1e102fbc5e7cc83,upper_austria_locations__7cf01011c6a91340a1e102fbc5e7cc83
heiligenberg,"Heiligenberg, Austria",48.3545204,13.8215137,,,,,,,Refinery,"Heiligenberg, Austria",,upper_austria_locations,9119d758b5ff7d53d364d4504bb26ba3,upper_austria_locations__9119d758b5ff7d53d364d4504bb26ba3
heiligenstadt,"Heiligenstadt, Austria",48.274479,16.3347263,,,,,,,Legislator,"Heiligenstadt, Austria",,upper_austria_locations,7f42f75dd08a710a681bab46a16b8a9f,upper_austria_locations__7f42f75dd08a710a681bab46a16b8a9f
heitzing,"Heitzing, Austria",48.1761822,16.2756553,,,,,,,Pipeline,"Heitzing, Austria",,upper_austria_locations,452a4c47b6a46efc92ba41bbca423377,upper_austria_locations__452a4c47b6a46efc92ba41bbca423377
helfenberg,"Helfenberg, Austria",48.54344,14.14302,,,,,,,space,"Helfenberg, Austria",,upper_austria_locations,c31a5e46ad6adab62293a40d40cde8cb,upper_austria_locations__c31a5e46ad6adab62293a40d40cde8cb
hellmonsodt,"Hellmonsodt, Austria",48.431916,14.3007255,,,,,,,Person,"Hellmonsodt, Austria",,upper_austria_locations,d2851fbdc39625ec6f6a1c07f3dd37e8,upper_austria_locations__d2851fbdc39625ec6f6a1c07f3dd37e8
helpfau,"Helpfau, Austria",48.1539343,13.1182186,,,,,,,Exec,"Helpfau, Austria",,upper_austria_locations,2ae20fcbf3f9a1016687087211883478,upper_austria_locations__2ae20fcbf3f9a1016687087211883478
helpfau-uttendorf,"Helpfau-Uttendorf, Austria",48.1608116,13.1316216,,,,,,,Shipping,"Helpfau-Uttendorf, Austria",,upper_austria_locations,a96f6a12aeea4275841a7c6758f58c1e,upper_austria_locations__a96f6a12aeea4275841a7c6758f58c1e
henhart,"Henhart, Austria",48.1654621,13.2679459,,,,,,,AAEntity,"Henhart, Austria",,upper_austria_locations,27d1c52172ace6da9529679a32994e26,upper_austria_locations__27d1c52172ace6da9529679a32994e26
henndorf,"Henndorf, Austria",47.89783,13.1871899,,,,,,,Exec,"Henndorf, Austria",,upper_austria_locations,4109df7d7d91a2ad90cd60804b42241f,upper_austria_locations__4109df7d7d91a2ad90cd60804b42241f
herzogreith,"Herzogreith, Austria",48.43293,14.64678,,,,,,,Pipeline,"Herzogreith, Austria",,upper_austria_locations,8a2760c6ee460640ee4ce9ab292126f2,upper_austria_locations__8a2760c6ee460640ee4ce9ab292126f2
herzogsdorf,"Herzogsdorf, Austria",48.430478,14.113768,,,,,,,DiplomaticFacilities,"Herzogsdorf, Austria",,upper_austria_locations,92310a5e40761eca04de4187c9e0d713,upper_austria_locations__92310a5e40761eca04de4187c9e0d713
hiesendorf,"Hiesendorf, Austria",48.18691,14.47645,,,,,,,Refinery,"Hiesendorf, Austria",,upper_austria_locations,d12e46584b699e1bf079e603b5c1b2c7,upper_austria_locations__d12e46584b699e1bf079e603b5c1b2c7
hilbern,"Hilbern, Austria",48.0622122,14.2799084,,,,,,,ForeignMinister,"Hilbern, Austria",,upper_austria_locations,d52edaa5f01b4347fd28a15fdd54a839,upper_austria_locations__d52edaa5f01b4347fd28a15fdd54a839
hiltschen,"Hiltschen, Austria",48.62517,14.47749,,,,,,,Consulates,"Hiltschen, Austria",,upper_austria_locations,647a5362a4425c16c534e77d7cd5523a,upper_austria_locations__647a5362a4425c16c534e77d7cd5523a
hinding,"Hinding, Austria",48.5702501,13.52578,,,,,,,LegislativeCommittee,"Hinding, Austria",,upper_austria_locations,abfe680353cac450a06d2aed3997efa3,upper_austria_locations__abfe680353cac450a06d2aed3997efa3
hintenberg,"Hintenberg, Austria",48.68495,13.92466,,,,,,,Refinery,"Hintenberg, Austria",,upper_austria_locations,eaf5d005042ae91b3354f321d5a418fa,upper_austria_locations__eaf5d005042ae91b3354f321d5a418fa
hinterberg,"Hinterberg, Austria",47.67487,14.11489,,,,,,,Diplomat,"Hinterberg, Austria",,upper_austria_locations,ad50c793519c9e87a28baf8e15366db7,upper_austria_locations__ad50c793519c9e87a28baf8e15366db7
hinterndobl,"Hinterndobl, Austria",48.2575,13.62674,,,,,,,Exec,"Hinterndobl, Austria",,upper_austria_locations,5b471f651e5add798cd93ea622f3e4b4,upper_austria_locations__5b471f651e5add798cd93ea622f3e4b4
hintersteining,"Hintersteining, Austria",48.09647,13.48641,,,,,,,Diplomat,"Hintersteining, Austria",,upper_austria_locations,dfb3586745d203b65a8ff0752d0c9b1b,upper_austria_locations__dfb3586745d203b65a8ff0752d0c9b1b
hinterstoder,"Hinterstoder, Austria",47.6999703,14.1563946,,,,,,,Consulates,"Hinterstoder, Austria",,upper_austria_locations,d916467ef2d3c52af6bcadc4c25b6cb3,upper_austria_locations__d916467ef2d3c52af6bcadc4c25b6cb3
hintstein,"Hintstein, Austria",47.88019,14.57226,,,,,,,Shipping,"Hintstein, Austria",,upper_austria_locations,b0de35ec302dfabe0f01beadbd10ac83,upper_austria_locations__b0de35ec302dfabe0f01beadbd10ac83
hinzenbach,"Hinzenbach, Austria",48.31142,14.00355,,,,,,,Consulates,"Hinzenbach, Austria",,upper_austria_locations,a701549a03af4da5fa007cbefaae9a5d,upper_austria_locations__a701549a03af4da5fa007cbefaae9a5d
hirschbach im muhlkreis,"Hirschbach im Muhlkreis, Austria",48.4885623,14.4117933,,,,,,,Person,"Hirschbach im Muhlkreis, Austria",,upper_austria_locations,49d76b95163adc1b48cee5e9cccc85ef,upper_austria_locations__49d76b95163adc1b48cee5e9cccc85ef
hobmannsbach,"Hobmannsbach, Austria",48.43636,13.51469,,,,,,,Exec,"Hobmannsbach, Austria",,upper_austria_locations,0c0a0edfb3f55f74e1588f1775a331bd,upper_austria_locations__0c0a0edfb3f55f74e1588f1775a331bd
hochburg,"Hochburg, Austria",48.13085,12.87906,,,,,,,Person,"Hochburg, Austria",,upper_austria_locations,8f0b6e719a1cb7f0f225d53739b488e8,upper_austria_locations__8f0b6e719a1cb7f0f225d53739b488e8
hochburg-ach,"Hochburg-Ach, Austria",48.13085,12.87906,,,,,,,Consulates,"Hochburg-Ach, Austria",,upper_austria_locations,0054601eba86e3a724380dc4062cbdf7,upper_austria_locations__0054601eba86e3a724380dc4062cbdf7
hof,"Hof, Austria",47.81965769,13.21485459,,,,,,,DiplomaticFacilities,"Hof, Austria",,upper_austria_locations,040d50f53595c85e318ff828379ee2a3,upper_austria_locations__040d50f53595c85e318ff828379ee2a3
hofberg,"Hofberg, Austria",47.91565,14.60515,,,,,,,CompanyKeyword,"Hofberg, Austria",,upper_austria_locations,893053a16275923415089555dc1c6785,upper_austria_locations__893053a16275923415089555dc1c6785
hofkirchen an der trattnach,"Hofkirchen an der Trattnach, Austria",48.2221248,13.7403773,,,,,,,Pipeline,"Hofkirchen an der Trattnach, Austria",,upper_austria_locations,bd49d85552ea9c04ebad23c150a0aa5a,upper_austria_locations__bd49d85552ea9c04ebad23c150a0aa5a
hofkirchen im muhlkreis,"Hofkirchen im Muhlkreis, Austria",48.4829544,13.810014,,,,,,,ForeignMinistry,"Hofkirchen im Muhlkreis, Austria",,upper_austria_locations,1e679a5fe6b9aab3f36854aefcc65039,upper_austria_locations__1e679a5fe6b9aab3f36854aefcc65039
hofkirchen im traunkreis,"Hofkirchen im Traunkreis, Austria",48.1431351,14.3783313,,,,,,,Organization,"Hofkirchen im Traunkreis, Austria",,upper_austria_locations,006a2517cb5d135e8343d8df0566ea7d,upper_austria_locations__006a2517cb5d135e8343d8df0566ea7d
hofstadt,"Hofstadt, Austria",48.08056,12.84389,,,,,,,Exec,"Hofstadt, Austria",,upper_austria_locations,7e126d7bde6050b40b1b1b036abba9dd,upper_austria_locations__7e126d7bde6050b40b1b1b036abba9dd
hofstatt,"Hofstatt, Austria",47.46027,15.38616,,,,,,,News,"Hofstatt, Austria",,upper_austria_locations,0bab73e4cd2b24e075ad69ffb0f36675,upper_austria_locations__0bab73e4cd2b24e075ad69ffb0f36675
hofstetten,"Hofstetten, Austria",48.09561,15.50979,,,,,,,ForeignMinister,"Hofstetten, Austria",,upper_austria_locations,7143c47e374a79cd0e633c3a6460bd8b,upper_austria_locations__7143c47e374a79cd0e633c3a6460bd8b
hoft,"Hoft, Austria",48.2629982,13.0613896,,,,,,,Diplomat,"Hoft, Austria",,upper_austria_locations,a1be9a1da42a17cd12fd2579236d258b,upper_austria_locations__a1be9a1da42a17cd12fd2579236d258b
hohenwarth,"Hohenwarth, Austria",47.99226,13.39373,,,,,,,space,"Hohenwarth, Austria",,upper_austria_locations,1de3261f528be463c10b0397e59b0155,upper_austria_locations__1de3261f528be463c10b0397e59b0155
hohenzell,"Hohenzell, Austria",48.1935257,13.5429276,,,,,,,Keyphrase,"Hohenzell, Austria",,upper_austria_locations,7893273740e0aee14549ddac53627473,upper_austria_locations__7893273740e0aee14549ddac53627473
hohnhart,"Hohnhart, Austria",48.1654621,13.2679459,,,,,,,space,"Hohnhart, Austria",,upper_austria_locations,132d8a51e96985432c151efd5d9b363a,upper_austria_locations__132d8a51e96985432c151efd5d9b363a
holzhausen,"Holzhausen, Austria",48.2235817,14.0967257,,,,,,,ForeignMinister,"Holzhausen, Austria",,upper_austria_locations,b10b172282eedd4db2bfb731ed0858b6,upper_austria_locations__b10b172282eedd4db2bfb731ed0858b6
holzheim,"Holzheim, Austria",48.2961,14.24647,,,,,,,Organization,"Holzheim, Austria",,upper_austria_locations,0594f8cbcbb1181ee06dcbb3a34791ec,upper_austria_locations__0594f8cbcbb1181ee06dcbb3a34791ec
holzoster,"Holzoster, Austria",48.06038,12.90549,,,,,,,Exec,"Holzoster, Austria",,upper_austria_locations,552b40f8c26667e076f020aa7ec59e74,upper_austria_locations__552b40f8c26667e076f020aa7ec59e74
holzwiesen,"Holzwiesen, Austria",48.336271,14.3996867,,,,,,,IndustryTerm,"Holzwiesen, Austria",,upper_austria_locations,9240237fcfd753298eeb21bec61d4f0c,upper_austria_locations__9240237fcfd753298eeb21bec61d4f0c
horbach,"Horbach, Austria",48.13113,13.75935,,,,,,,Media,"Horbach, Austria",,upper_austria_locations,97ce9920f0a8add3a6aa6a073ad306e0,upper_austria_locations__97ce9920f0a8add3a6aa6a073ad306e0
horbich,"Horbich, Austria",48.5189974,13.9147487,,,,,,,Shipping,"Horbich, Austria",,upper_austria_locations,c7d15708ea0df98eb105d85237330c12,upper_austria_locations__c7d15708ea0df98eb105d85237330c12
horgersteig,"Horgersteig, Austria",48.0490441,13.4783915,,,,,,,DiplomaticFacilities,"Horgersteig, Austria",,upper_austria_locations,0556be441a12e40d415dba2ff61a6e85,upper_austria_locations__0556be441a12e40d415dba2ff61a6e85
horndl,"Horndl, Austria",47.2666667,13.1,,,,,,,DiplomaticFacilities,"Horndl, Austria",,upper_austria_locations,85d89a66262b89a032183b12e3d5626b,upper_austria_locations__85d89a66262b89a032183b12e3d5626b
horsching,"Horsching, Austria",48.2269805,14.176168,,,,,,,FTO,"Horsching, Austria",,upper_austria_locations,ff8c47a1eaacb20750102d54f5b0a735,upper_austria_locations__ff8c47a1eaacb20750102d54f5b0a735
horschlag,"Horschlag, Austria",48.5829233,14.4461421,,,,,,,Keyphrase,"Horschlag, Austria",,upper_austria_locations,7ff88f233cc9534cc9b9075e97dec2f0,upper_austria_locations__7ff88f233cc9534cc9b9075e97dec2f0
horstorf,"Horstorf, Austria",48.18747822,14.69838983,,,,,,,IndustryTerm,"Horstorf, Austria",,upper_austria_locations,c94768d1261788073c78a7c1cb7a6c7f,upper_austria_locations__c94768d1261788073c78a7c1cb7a6c7f
hub,"Hub, Austria",48.1869641,14.6985186,,,,,,,Consulates,"Hub, Austria",,upper_austria_locations,fb2d85503f2e3283969009aae7db5b39,upper_austria_locations__fb2d85503f2e3283969009aae7db5b39
humertsham,"Humertsham, Austria",48.1995713,16.3459031,,,,,,,Organization,"Humertsham, Austria",,upper_austria_locations,92510e8a2c36cdff2004fae362c84cc0,upper_austria_locations__92510e8a2c36cdff2004fae362c84cc0
humplberg,"Humplberg, Austria",48.14562,13.87131,,,,,,,AAEntity,"Humplberg, Austria",,upper_austria_locations,79232b60943c11d52652a0491883f7cd,upper_austria_locations__79232b60943c11d52652a0491883f7cd
hundbrenning,"Hundbrenning, Austria",48.5816,14.01664,,,,,,,Legislator,"Hundbrenning, Austria",,upper_austria_locations,1344e33f5b47f9895f67658491a09344,upper_austria_locations__1344e33f5b47f9895f67658491a09344
hundsdorf,"Hundsdorf, Austria",47.23726,12.98679,,,,,,,Shipping,"Hundsdorf, Austria",,upper_austria_locations,15deb4ae7babcdce44ca280c89773b1d,upper_austria_locations__15deb4ae7babcdce44ca280c89773b1d
hundsham,"Hundsham, Austria",48.23305,14.01678,,,,,,,Organization,"Hundsham, Austria",,upper_austria_locations,f69a9267292576eefb1746bdff37b413,upper_austria_locations__f69a9267292576eefb1746bdff37b413
ibm,"Ibm, Austria",48.2135418,16.3768304,,,,,,,DiplomaticFacilities,"Ibm, Austria",,upper_austria_locations,5ff6b2899647361326a1f27d0de6df64,upper_austria_locations__5ff6b2899647361326a1f27d0de6df64
igling,"Igling, Austria",48.39906,13.54599,,,,,,,Consulates,"Igling, Austria",,upper_austria_locations,6177115a684b0b65c9f12d404714b839,upper_austria_locations__6177115a684b0b65c9f12d404714b839
innerbreitenau,"Innerbreitenau, Austria",47.87318,14.33042,,,,,,,News,"Innerbreitenau, Austria",,upper_austria_locations,4b1e0308d5ec3b2221621e07bdfea5fd,upper_austria_locations__4b1e0308d5ec3b2221621e07bdfea5fd
innernschlag,"Innernschlag, Austria",48.46037,14.24343,,,,,,,News,"Innernschlag, Austria",,upper_austria_locations,d44edee71e59185f9d8f5eca1a8ff51c,upper_austria_locations__d44edee71e59185f9d8f5eca1a8ff51c
innernsee,"Innernsee, Austria",48.2136,13.69336,,,,,,,News,"Innernsee, Austria",,upper_austria_locations,b10a22e3e54028637c9284ebe93f5950,upper_austria_locations__b10a22e3e54028637c9284ebe93f5950
innernstein,"Innernstein, Austria",48.2552132,14.7682544,,,,,,,Legislator,"Innernstein, Austria",,upper_austria_locations,37b2bec069d4e6e2187919a6eb93cb32,upper_austria_locations__37b2bec069d4e6e2187919a6eb93cb32
innerschwand,"Innerschwand, Austria",47.8364993,13.4027477,,,,,,,Keyphrase,"Innerschwand, Austria",,upper_austria_locations,e59cb1a5672d9589efe509bc8f3c20ab,upper_austria_locations__e59cb1a5672d9589efe509bc8f3c20ab
innerschwand am mondsee,"Innerschwand am Mondsee, Austria",47.8364993,13.4027477,,,,,,,FTO,"Innerschwand am Mondsee, Austria",,upper_austria_locations,c7d70f0d795a15a5e20efe8b7d3d2317,upper_austria_locations__c7d70f0d795a15a5e20efe8b7d3d2317
inzersdorf im kremstal,"Inzersdorf im Kremstal, Austria",47.9271368,14.080665,,,,,,,ForeignMinistry,"Inzersdorf im Kremstal, Austria",,upper_austria_locations,976b4fe7082b28a97bc6172b19c01a6c,upper_austria_locations__976b4fe7082b28a97bc6172b19c01a6c
irnharting,"Irnharting, Austria",48.12925,13.91574,,,,,,,Organization,"Irnharting, Austria",,upper_austria_locations,5e1dbce4f357acee109e9fbebab647fb,upper_austria_locations__5e1dbce4f357acee109e9fbebab647fb
irnprechting,"Irnprechting, Austria",47.516231,14.550072,,,,,,,Refinery,"Irnprechting, Austria",,upper_austria_locations,928b4e15395faf9563215bd3545c87ff,upper_austria_locations__928b4e15395faf9563215bd3545c87ff
jagerberg,"Jagerberg, Austria",46.8540216,15.7376206,,,,,,,LegislativeCommittee,"Jagerberg, Austria",,upper_austria_locations,14fb01ea0edf0889d130611b666cfed3,upper_austria_locations__14fb01ea0edf0889d130611b666cfed3
jagern,"Jagern, Austria",48.37712,13.63114,,,,,,,Media,"Jagern, Austria",,upper_austria_locations,e5a423f95ca3ce1ad19d79f243f777f2,upper_austria_locations__e5a423f95ca3ce1ad19d79f243f777f2
jainzen,"Jainzen, Austria",47.7213835,13.6132866,,,,,,,Diplomat,"Jainzen, Austria",,upper_austria_locations,528f5945bf7c9b7f408f9b3385f6b91c,upper_austria_locations__528f5945bf7c9b7f408f9b3385f6b91c
jederetsberg,"Jederetsberg, Austria",48.0893163,12.9368369,,,,,,,space,"Jederetsberg, Austria",,upper_austria_locations,44b740fa41a8d05f5f98072da44c5ddc,upper_austria_locations__44b740fa41a8d05f5f98072da44c5ddc
jeding,"Jeding, Austria",48.13965,13.72908,,,,,,,FTO,"Jeding, Austria",,upper_austria_locations,7e0d422efa077d469a82da9e41c51df4,upper_austria_locations__7e0d422efa077d469a82da9e41c51df4
jeging,"Jeging, Austria",48.0476023,13.1489056,,,,,,,Exec,"Jeging, Austria",,upper_austria_locations,03982963fb39ee030c66a6644d8447ed,upper_austria_locations__03982963fb39ee030c66a6644d8447ed
judendorf,"Judendorf, Austria",47.111193,15.3312648,,,,,,,ForeignMinister,"Judendorf, Austria",,upper_austria_locations,7480b30bd984548ad4902f718ea8ce24,upper_austria_locations__7480b30bd984548ad4902f718ea8ce24
julbach,"Julbach, Austria",48.6622717,13.8607082,,,,,,,CompanyKeyword,"Julbach, Austria",,upper_austria_locations,20b0ab333cf87dd4ed497b2cec2edf4c,upper_austria_locations__20b0ab333cf87dd4ed497b2cec2edf4c
kager,"Kager, Austria",48.1370103,16.4756564,,,,,,,Exec,"Kager, Austria",,upper_austria_locations,652b5d19eb66b6745a40452e0eb85dc1,upper_austria_locations__652b5d19eb66b6745a40452e0eb85dc1
kaining,"Kaining, Austria",48.3772,14.72603,,,,,,,ForeignMinistry,"Kaining, Austria",,upper_austria_locations,947a0322ea295b1f1eae172b98ecda78,upper_austria_locations__947a0322ea295b1f1eae172b98ecda78
kallham,"Kallham, Austria",48.2847369,13.7108876,,,,,,,Consulates,"Kallham, Austria",,upper_austria_locations,6b01263fa71114f3bf33758a193ae62e,upper_austria_locations__6b01263fa71114f3bf33758a193ae62e
kalling,"Kalling, Austria",48.40675,13.5642801,,,,,,,AAEntity,"Kalling, Austria",,upper_austria_locations,979d7e999aaaf6d385f2e4ab5d2f5248,upper_austria_locations__979d7e999aaaf6d385f2e4ab5d2f5248
kalmberg,"Kalmberg, Austria",48.2473372,14.7969439,,,,,,,Diplomat,"Kalmberg, Austria",,upper_austria_locations,54a49c01f915c2db53ef998fb8aa6c35,upper_austria_locations__54a49c01f915c2db53ef998fb8aa6c35
kaltenbach,"Kaltenbach, Austria",47.2924013,11.8717505,,,,,,,Consulates,"Kaltenbach, Austria",,upper_austria_locations,51fc7f7e19ae0bc3eb29dcc67746d238,upper_austria_locations__51fc7f7e19ae0bc3eb29dcc67746d238
kaltenberg,"Kaltenberg, Austria",48.4498807,14.7748969,,,,,,,Diplomat,"Kaltenberg, Austria",,upper_austria_locations,fce1f97bccb83d1d75cb803eb025b9cf,upper_austria_locations__fce1f97bccb83d1d75cb803eb025b9cf
kaltenmarkt,"Kaltenmarkt, Austria",47.3783618,13.4231953,,,,,,,CompanyKeyword,"Kaltenmarkt, Austria",,upper_austria_locations,9d70563342666200314707ab5e8eb605,upper_austria_locations__9d70563342666200314707ab5e8eb605
kammer,"Kammer, Austria",47.94685,13.5950001,,,,,,,Organization,"Kammer, Austria",,upper_austria_locations,9894fb2e20389336358285271201a2ef,upper_austria_locations__9894fb2e20389336358285271201a2ef
kampesberg,"Kampesberg, Austria",47.9690967,13.9089801,,,,,,,ForeignMinistry,"Kampesberg, Austria",,upper_austria_locations,48f45a57b1a3a3fa019b20c4390e0b0e,upper_austria_locations__48f45a57b1a3a3fa019b20c4390e0b0e
kasten,"Kasten, Austria",48.54771,14.07202,,,,,,,Wells,"Kasten, Austria",,upper_austria_locations,d9b818e39ad18b7a991102df123d3c8b,upper_austria_locations__d9b818e39ad18b7a991102df123d3c8b
katsdorf,"Katsdorf, Austria",48.3186155,14.4716342,,,,,,,News,"Katsdorf, Austria",,upper_austria_locations,5c565bbb268dbcf6eb425e96981e26cd,upper_austria_locations__5c565bbb268dbcf6eb425e96981e26cd
katzbach,"Katzbach, Austria",48.19506,13.97585,,,,,,,Consulates,"Katzbach, Austria",,upper_austria_locations,b3f1abd16d3203f6a127481acc8f8a75,upper_austria_locations__b3f1abd16d3203f6a127481acc8f8a75
katzenberg,"Katzenberg, Austria",48.294051,13.2819464,,,,,,,Organization,"Katzenberg, Austria",,upper_austria_locations,7bcbf35cb5a983667cd0001c10ae4528,upper_austria_locations__7bcbf35cb5a983667cd0001c10ae4528
katzgraben,"Katzgraben, Austria",48.34801,14.34156,,,,,,,Pipeline,"Katzgraben, Austria",,upper_austria_locations,ff34b19910cab3a3e57eb32e9875a43f,upper_austria_locations__ff34b19910cab3a3e57eb32e9875a43f
kefermarkt,"Kefermarkt, Austria",48.4418136,14.5407813,,,,,,,space,"Kefermarkt, Austria",,upper_austria_locations,554957f40d98893f23de55fb5546c73e,upper_austria_locations__554957f40d98893f23de55fb5546c73e
kematen am innbach,"Kematen am Innbach, Austria",48.1762644,13.859372,,,,,,,CompanyKeyword,"Kematen am Innbach, Austria",,upper_austria_locations,97df456e3253604e78992254245a90af,upper_austria_locations__97df456e3253604e78992254245a90af
kematen an der krems,"Kematen an der Krems, Austria",48.111635,14.1947272,,,,,,,space,"Kematen an der Krems, Austria",,upper_austria_locations,55aeba5627396b88f738a4cc6c248722,upper_austria_locations__55aeba5627396b88f738a4cc6c248722
kemating,"Kemating, Austria",47.83511,13.0407299,,,,,,,Exec,"Kemating, Austria",,upper_austria_locations,f8b19a24a4f9cb5aa8da6e29ca349ba6,upper_austria_locations__f8b19a24a4f9cb5aa8da6e29ca349ba6
kenading,"Kenading, Austria",48.41171,13.63615,,,,,,,Wells,"Kenading, Austria",,upper_austria_locations,65be29e05fefcd16524d6f4e9c824a34,upper_austria_locations__65be29e05fefcd16524d6f4e9c824a34
keneding,"Keneding, Austria",48.26054,13.73707,,,,,,,space,"Keneding, Austria",,upper_austria_locations,6dcccb2a2d9856073d521c60bc40f6c7,upper_austria_locations__6dcccb2a2d9856073d521c60bc40f6c7
kerschbaum,"Kerschbaum, Austria",48.58637,14.47491,,,,,,,LegislativeCommittee,"Kerschbaum, Austria",,upper_austria_locations,550452686fd775cf9ab3baafd53a03bf,upper_austria_locations__550452686fd775cf9ab3baafd53a03bf
kicking,"Kicking, Austria",48.28078,15.4629,,,,,,,Shipping,"Kicking, Austria",,upper_austria_locations,b1a908a2772e5001be18eff7deb9d97e,upper_austria_locations__b1a908a2772e5001be18eff7deb9d97e
kiesdorf,"Kiesdorf, Austria",46.96438,15.4787257,,,,,,,Organization,"Kiesdorf, Austria",,upper_austria_locations,b37cc76a94e83a4b5cbfb1ac03463c31,upper_austria_locations__b37cc76a94e83a4b5cbfb1ac03463c31
kiesenberg,"Kiesenberg, Austria",48.29713,13.80021,,,,,,,ForeignMinister,"Kiesenberg, Austria",,upper_austria_locations,c01c9d97fad51faa5e9bb45f5c3633a4,upper_austria_locations__c01c9d97fad51faa5e9bb45f5c3633a4
kimmersdorf,"Kimmersdorf, Austria",48.15465,14.27515,,,,,,,Keyphrase,"Kimmersdorf, Austria",,upper_austria_locations,8b5f9001fcb8d4031023155a8891e310,upper_austria_locations__8b5f9001fcb8d4031023155a8891e310
kimpling,"Kimpling, Austria",48.26816,13.66873,,,,,,,space,"Kimpling, Austria",,upper_austria_locations,904abb80fd4e730b494bc155033e1e96,upper_austria_locations__904abb80fd4e730b494bc155033e1e96
kindling,"Kindling, Austria",48.2551676,14.4670894,,,,,,,CompanyKeyword,"Kindling, Austria",,upper_austria_locations,4988cbce22d21eaf3b0c8f68d5bc96e4,upper_austria_locations__4988cbce22d21eaf3b0c8f68d5bc96e4
kirchbach,"Kirchbach, Austria",46.6416897,13.1852124,,,,,,,Keyphrase,"Kirchbach, Austria",,upper_austria_locations,9f2195b21bb8928084175c290ab7f15c,upper_austria_locations__9f2195b21bb8928084175c290ab7f15c
kirchberg,"Kirchberg, Austria",47.4477519,12.3151773,,,,,,,space,"Kirchberg, Austria",,upper_austria_locations,31af374200589527d4289a5f5adf16dd,upper_austria_locations__31af374200589527d4289a5f5adf16dd
kirchberg bei mattighofen,"Kirchberg bei Mattighofen, Austria",48.0378979,13.1144014,,,,,,,Pipeline,"Kirchberg bei Mattighofen, Austria",,upper_austria_locations,24c91d459ada1ca1bad0a12e51658980,upper_austria_locations__24c91d459ada1ca1bad0a12e51658980
kirchberg ob der donau,"Kirchberg ob der Donau, Austria",48.4447779,13.9390767,,,,,,,Keyphrase,"Kirchberg ob der Donau, Austria",,upper_austria_locations,5a3aad108818d149a4be91e133ce4fec,upper_austria_locations__5a3aad108818d149a4be91e133ce4fec
kirchberg-thening,"Kirchberg-Thening, Austria",48.2569924,14.1623096,,,,,,,Person,"Kirchberg-Thening, Austria",,upper_austria_locations,9ba52be4de4b9e67107056b03d0c9f75,upper_austria_locations__9ba52be4de4b9e67107056b03d0c9f75
kirchdorf am inn,"Kirchdorf am Inn, Austria",48.294051,13.2819464,,,,,,,News,"Kirchdorf am Inn, Austria",,upper_austria_locations,e3aa20409e3b6da8229c65dc6efdd3e8,upper_austria_locations__e3aa20409e3b6da8229c65dc6efdd3e8
kirchdorf an der krems,"Kirchdorf an der Krems, Austria",47.90626,14.11983,,,,,,,CompanyKeyword,"Kirchdorf an der Krems, Austria",,upper_austria_locations,0821ba7e1100cb9214f4def38b7e95b0,upper_austria_locations__0821ba7e1100cb9214f4def38b7e95b0
kirchham,"Kirchham, Austria",47.9709168,13.8988825,,,,,,,LegislativeCommittee,"Kirchham, Austria",,upper_austria_locations,027e5ad2b997219b6107d765ae39f385,upper_austria_locations__027e5ad2b997219b6107d765ae39f385
kirchheim im innkreis,"Kirchheim im Innkreis, Austria",48.2100864,13.3586777,,,,,,,FTO,"Kirchheim im Innkreis, Austria",,upper_austria_locations,0a7efe9d6c45d011f58fbaeae11facdf,upper_austria_locations__0a7efe9d6c45d011f58fbaeae11facdf
kirchschlag bei linz,"Kirchschlag bei Linz, Austria",48.4129959,14.2763981,,,,,,,Person,"Kirchschlag bei Linz, Austria",,upper_austria_locations,9fcbc79c1a97ab2c5472786371d90852,upper_austria_locations__9fcbc79c1a97ab2c5472786371d90852
kirchsteig,"Kirchsteig, Austria",48.0135445,13.0762747,,,,,,,CompanyKeyword,"Kirchsteig, Austria",,upper_austria_locations,759ef31f909a88c80fc49cfb439694af,upper_austria_locations__759ef31f909a88c80fc49cfb439694af
klaffer am hochficht,"Klaffer am Hochficht, Austria",48.6952143,13.8812957,,,,,,,Diplomat,"Klaffer am Hochficht, Austria",,upper_austria_locations,04023fc820b6e1c2f2324a6a89ca42c2,upper_austria_locations__04023fc820b6e1c2f2324a6a89ca42c2
klam,"Klam, Austria",48.2244164,14.7814173,,,,,,,ForeignMinister,"Klam, Austria",,upper_austria_locations,ba3f6d589944cd17ae16051f1e833e90,upper_austria_locations__ba3f6d589944cd17ae16051f1e833e90
klaus,"Klaus, Austria",47.3098574,9.6427442,,,,,,,CompanyKeyword,"Klaus, Austria",,upper_austria_locations,9550e931acc515d940b0ae85a7379e68,upper_austria_locations__9550e931acc515d940b0ae85a7379e68
klaus an der pyhrnbahn,"Klaus an der Pyhrnbahn, Austria",47.8307322,14.1572778,,,,,,,Diplomat,"Klaus an der Pyhrnbahn, Austria",,upper_austria_locations,369797850b532511eedc3e52b39e2f87,upper_austria_locations__369797850b532511eedc3e52b39e2f87
kleingaisbach,"Kleingaisbach, Austria",48.28759,13.58683,,,,,,,Shipping,"Kleingaisbach, Austria",,upper_austria_locations,a103f4af9f8be446285da26a55180a43,upper_austria_locations__a103f4af9f8be446285da26a55180a43
kleingschnaidt,"Kleingschnaidt, Austria",47.9113657,14.7071551,,,,,,,space,"Kleingschnaidt, Austria",,upper_austria_locations,f23a3f9770e9832f737cc93d9f7c8aff,upper_austria_locations__f23a3f9770e9832f737cc93d9f7c8aff
kleinmunchen,"Kleinmunchen, Austria",48.2537953,14.2826721,,,,,,,LegislativeCommittee,"Kleinmunchen, Austria",,upper_austria_locations,098c2d5838055b20b8522426093383fc,upper_austria_locations__098c2d5838055b20b8522426093383fc
kleinraming,"Kleinraming, Austria",48.00975,14.49126,,,,,,,AAEntity,"Kleinraming, Austria",,upper_austria_locations,77457724d7fa502ee9b2ec5653928ae7,upper_austria_locations__77457724d7fa502ee9b2ec5653928ae7
kleinreifling,"Kleinreifling, Austria",47.82021,14.6388801,,,,,,,IndustryTerm,"Kleinreifling, Austria",,upper_austria_locations,a338ff00e0ca3de84d06821049fe1328,upper_austria_locations__a338ff00e0ca3de84d06821049fe1328
kleinzell im muhlkreis,"Kleinzell im Muhlkreis, Austria",48.4562555,13.9921941,,,,,,,LegislativeCommittee,"Kleinzell im Muhlkreis, Austria",,upper_austria_locations,ebb1518bc709e4e5ab917ea8bc15074a,upper_austria_locations__ebb1518bc709e4e5ab917ea8bc15074a
